{"meta": {"code": 200, "requestId": "5e1973b6618f43001b7956c3"}, "response": {"suggestedFilters": {"header": "Tap to show:", "filters": [{"name": "Open now", "key": "openNow"}]}, "headerLocation": "Toronto", "headerFullLocation": "Toronto", "headerLocationGranularity": "city", "totalResults": 27, "suggestedBounds": {"ne": {"lat": 43.73795521002601, "lng": -79.24818097636343}, "sw": {"lat": 43.71790318997399, "lng": -79.2758778236366}}, "groups": [{"type": "Recommended Places", "name": "recommended", "items": [{"reasons": {"count": 0, "items": [{"summary": "This spot is popular", "type": "general", "reasonName": "globalInteractionReason"}]}, "venue": {"id": "4b6a37ccf964a520a5cd2be3", "name": "Giant Tiger", "location": {"address": "682 Kennedy Road", "crossStreet": "Eglinton Ave. E.", "lat": 43.72744662939136, "lng": -79.26624035854763, "labeledLatLngs": [{"label": "display", "lat": 43.72744662939136, "lng": -79.26624035854763}], "distance": 342, "postalCode": "M1K 2B5", "cc": "CA", "city": "Scarborough", "state": "ON", "country": "Canada", "formattedAddress": ["682 Kennedy Road (Eglinton Ave. E.)", "Scarborough ON M1K 2B5", "Canada"]}, "categories": [{"id": "4bf58dd8d48988d1f6941735", "name": "Department Store", "pluralName": "Department Stores", "shortName": "Department Store", "icon": {"prefix": "https://ss3.4sqi.net/img/categories_v2/shops/departmentstore_", "suffix": ".png"}, "primary": true}], "photos": {"count": 0, "groups": []}}, "referralId": "e-0-4b6a37ccf964a520a5cd2be3-0"}, {"reasons": {"count": 0, "items": [{"summary": "This spot is popular", "type": "general", "reasonName": "globalInteractionReason"}]}, "venue": {"id": "4b6475def964a520f9b42ae3", "name": "Chung Moi", "location": {"address": "2412 Eglinton Ave E", "lat": 43.73232776751296, "lng": -79.26932737877392, "labeledLatLngs": [{"label": "display", "lat": 43.73232776751296, "lng": -79.26932737877392}], "distance": 764, "cc": "CA", "city": "Toronto", "state": "ON", "country": "Canada", "formattedAddress": ["2412 Eglinton Ave E", "Toronto ON", "Canada"]}, "categories": [{"id": "4bf58dd8d48988d145941735", "name": "Chinese Restaurant", "pluralName": "Chinese Restaurants", "shortName": "Chinese", "icon": {"prefix": "https://ss3.4sqi.net/img/categories_v2/food/asian_", "suffix": ".png"}, "primary": true}], "photos": {"count": 0, "groups": []}}, "referralId": "e-0-4b6475def964a520f9b42ae3-1"}, {"reasons": {"count": 0, "items": [{"summary": "This spot is popular", "type": "general", "reasonName": "globalInteractionReason"}]}, "venue": {"id": "4c6aa500c946e21ec432ed8e", "name": "Tim Hortons", "location": {"address": "678-682 Kennedy Rd", "lat": 43.72689508691926, "lng": -79.26615692675114, "labeledLatLngs": [{"label": "display", "lat": 43.72689508691926, "lng": -79.26615692675114}], "distance": 351, "postalCode": "M1K 2B5", "cc": "CA", "city": "Scarborough", "state": "ON", "country": "Canada", "formattedAddress": ["678-682 Kennedy Rd", "Scarborough ON M1K 2B5", "Canada"]}, "categories": [{"id": "4bf58dd8d48988d1e0931735", "name": "Coffee Shop", "pluralName": "Coffee Shops", "shortName": "Coffee Shop", "icon": {"prefix": "https://ss3.4sqi.net/img/categories_v2/food/coffeeshop_", "suffix": ".png"}, "primary": true}], "photos": {"count": 0, "groups": []}}, "referralId": "e-0-4c6aa500c946e21ec432ed8e-2"}, {"reasons": {"count": 0, "items": [{"summary": "This spot is popular", "type": "general", "reasonName": "globalInteractionReason"}]}, "venue": {"id": "4c64329286b6be9ab06c9034", "name": "Subway", "location": {"address": "2395 Eglinton Ave East", "crossStreet": "at Kennedy Rd.", "lat": 43.73147093707659, "lng": -79.26869157944776, "labeledLatLngs": [{"label": "display", "lat": 43.73147093707659, "lng": -79.26869157944776}], "distance": 665, "postalCode": "M1K 2M5", "cc": "CA", "city": "Toronto", "state": "ON", "country": "Canada", "formattedAddress": ["2395 Eglinton Ave East (at Kennedy Rd.)", "Toronto ON M1K 2M5", "Canada"]}, "categories": [{"id": "4bf58dd8d48988d1c5941735", "name": "Sandwich Place", "pluralName": "Sandwich Places", "shortName": "Sandwiches", "icon": {"prefix": "https://ss3.4sqi.net/img/categories_v2/food/deli_", "suffix": ".png"}, "primary": true}], "photos": {"count": 0, "groups": []}}, "referralId": "e-0-4c64329286b6be9ab06c9034-3"}, {"reasons": {"count": 0, "items": [{"summary": "This spot is popular", "type": "general", "reasonName": "globalInteractionReason"}]}, "venue": {"id": "4c14084fb7b9c9288dafaa37", "name": "Tim Hortons", "location": {"address": "2500 Eglinton Ave East", "crossStreet": "Midland", "lat": 43.7349665, "lng": -79.2578892, "labeledLatLngs": [{"label": "display", "lat": 43.7349665, "lng": -79.2578892}], "distance": 851, "postalCode": "M1K 2R5", "cc": "CA", "city": "Scarborough", "state": "ON", "country": "Canada", "formattedAddress": ["2500 Eglinton Ave East (Midland)", "Scarborough ON M1K 2R5", "Canada"]}, "categories": [{"id": "4bf58dd8d48988d1e0931735", "name": "Coffee Shop", "pluralName": "Coffee Shops", "shortName": "Coffee Shop", "icon": {"prefix": "https://ss3.4sqi.net/img/categories_v2/food/coffeeshop_", "suffix": ".png"}, "primary": true}], "photos": {"count": 0, "groups": []}}, "referralId": "e-0-4c14084fb7b9c9288dafaa37-4"}, {"reasons": {"count": 0, "items": [{"summary": "This spot is popular", "type": "general", "reasonName": "globalInteractionReason"}]}, "venue": {"id": "4bd381a641b9ef3b646300e6", "name": "Dollarama", "location": {"address": "2480 Eglinton Avenue E", "crossStreet": "at Midland Ave", "lat": 43.734902, "lng": -79.25974, "labeledLatLngs": [{"label": "display", "lat": 43.734902, "lng": -79.25974}], "distance": 797, "postalCode": "M1K 2R4", "cc": "CA", "city": "Scarborough", "state": "ON", "country": "Canada", "formattedAddress": ["2480 Eglinton Avenue E (at Midland Ave)", "Scarborough ON M1K 2R4", "Canada"]}, "categories": [{"id": "52dea92d3cf9994f4e043dbb", "name": "Discount Store", "pluralName": "Discount Stores", "shortName": "Discount Store", "icon": {"prefix": "https://ss3.4sqi.net/img/categories_v2/shops/discountstore_", "suffix": ".png"}, "primary": true}], "photos": {"count": 0, "groups": []}}, "referralId": "e-0-4bd381a641b9ef3b646300e6-5"}, {"reasons": {"count": 0, "items": [{"summary": "This spot is popular", "type": "general", "reasonName": "globalInteractionReason"}]}, "venue": {"id": "4b7f34a6f964a520fa1e30e3", "name": "Shoppers Drug Mart", "location": {"address": "2428 Eglinton Ave E", "crossStreet": "Kennedy and eglinton", "lat": 43.732843, "lng": -79.268075, "labeledLatLngs": [{"label": "display", "lat": 43.732843, "lng": -79.268075}], "distance": 731, "postalCode": "M1K 2P7", "cc": "CA", "city": "Scarborough", "state": "ON", "country": "Canada", "formattedAddress": ["2428 Eglinton Ave E (Kennedy and eglinton)", "Scarborough ON M1K 2P7", "Canada"]}, "categories": [{"id": "4bf58dd8d48988d10f951735", "name": "Pharmacy", "pluralName": "Pharmacies", "shortName": "Pharmacy", "icon": {"prefix": "https://ss3.4sqi.net/img/categories_v2/shops/pharmacy_", "suffix": ".png"}, "primary": true}], "photos": {"count": 0, "groups": []}}, "referralId": "e-0-4b7f34a6f964a520fa1e30e3-6"}, {"reasons": {"count": 0, "items": [{"summary": "This spot is popular", "type": "general", "reasonName": "globalInteractionReason"}]}, "venue": {"id": "4b7f2ef7f964a520451d30e3", "name": "Tim Hortons", "location": {"address": "2401 Eglinton ave e", "crossStreet": "Kennedy", "lat": 43.732134410174226, "lng": -79.2682641425723, "labeledLatLngs": [{"label": "display", "lat": 43.732134410174226, "lng": -79.2682641425723}], "distance": 686, "cc": "CA", "city": "Toronto", "state": "ON", "country": "Canada", "formattedAddress": ["2401 Eglinton ave e (Kennedy)", "Toronto ON", "Canada"]}, "categories": [{"id": "4bf58dd8d48988d1e0931735", "name": "Coffee Shop", "pluralName": "Coffee Shops", "shortName": "Coffee Shop", "icon": {"prefix": "https://ss3.4sqi.net/img/categories_v2/food/coffeeshop_", "suffix": ".png"}, "primary": true}], "photos": {"count": 0, "groups": []}}, "referralId": "e-0-4b7f2ef7f964a520451d30e3-7"}, {"reasons": {"count": 0, "items": [{"summary": "This spot is popular", "type": "general", "reasonName": "globalInteractionReason"}]}, "venue": {"id": "4ada7d81f964a520ff2221e3", "name": "T-Bones Sizzling Steaks & Burgers", "location": {"address": "2540 Eglinton Ave East", "crossStreet": "at Midland Ave", "lat": 43.73529972402499, "lng": -79.2561926489366, "labeledLatLngs": [{"label": "display", "lat": 43.73529972402499, "lng": -79.2561926489366}], "distance": 945, "postalCode": "M1K 2R5", "cc": "CA", "city": "Toronto", "state": "ON", "country": "Canada", "formattedAddress": ["2540 Eglinton Ave East (at Midland Ave)", "Toronto ON M1K 2R5", "Canada"]}, "categories": [{"id": "4bf58dd8d48988d16c941735", "name": "Burger Joint", "pluralName": "Burger Joints", "shortName": "Burgers", "icon": {"prefix": "https://ss3.4sqi.net/img/categories_v2/food/burger_", "suffix": ".png"}, "primary": true}], "photos": {"count": 0, "groups": []}}, "referralId": "e-0-4ada7d81f964a520ff2221e3-8"}, {"reasons": {"count": 0, "items": [{"summary": "This spot is popular", "type": "general", "reasonName": "globalInteractionReason"}]}, "venue": {"id": "4d6d1a3bcf7e41bdb4c28285", "name": "TD Canada Trust", "location": {"address": "2428 Eglinton Ave East", "crossStreet": "Kennedy Rd.", "lat": 43.733135696904675, "lng": -79.2678938806074, "labeledLatLngs": [{"label": "display", "lat": 43.733135696904675, "lng": -79.2678938806074}], "distance": 747, "postalCode": "M1K 2P7", "cc": "CA", "city": "Scarborough", "state": "ON", "country": "Canada", "formattedAddress": ["2428 Eglinton Ave East (Kennedy Rd.)", "Scarborough ON M1K 2P7", "Canada"]}, "categories": [{"id": "4bf58dd8d48988d10a951735", "name": "Bank", "pluralName": "Banks", "shortName": "Bank", "icon": {"prefix": "https://ss3.4sqi.net/img/categories_v2/shops/financial_", "suffix": ".png"}, "primary": true}], "photos": {"count": 0, "groups": []}}, "referralId": "e-0-4d6d1a3bcf7e41bdb4c28285-9"}, {"reasons": {"count": 0, "items": [{"summary": "This spot is popular", "type": "general", "reasonName": "globalInteractionReason"}]}, "venue": {"id": "4f1b1a8fe4b0838231c3badb", "name": "Bros. CONVENIENCE", "location": {"lat": 43.72778143829621, "lng": -79.26570835903846, "labeledLatLngs": [{"label": "display", "lat": 43.72778143829621, "lng": -79.26570835903846}], "distance": 296, "cc": "CA", "country": "Canada", "formattedAddress": ["Canada"]}, "categories": [{"id": "4d954b0ea243a5684a65b473", "name": "Convenience Store", "pluralName": "Convenience Stores", "shortName": "Convenience Store", "icon": {"prefix": "https://ss3.4sqi.net/img/categories_v2/shops/conveniencestore_", "suffix": ".png"}, "primary": true}], "photos": {"count": 0, "groups": []}}, "referralId": "e-0-4f1b1a8fe4b0838231c3badb-10"}, {"reasons": {"count": 0, "items": [{"summary": "This spot is popular", "type": "general", "reasonName": "globalInteractionReason"}]}, "venue": {"id": "4bec9f6d8bbcc928bc938cb1", "name": "KFC", "location": {"address": "2567 Eglinton Avenue East", "lat": 43.734837938307024, "lng": -79.25608048081129, "labeledLatLngs": [{"label": "display", "lat": 43.734837938307024, "lng": -79.25608048081129}], "distance": 905, "postalCode": "M1K 2R7", "cc": "CA", "city": "Scarborough", "state": "ON", "country": "Canada", "formattedAddress": ["2567 Eglinton Avenue East", "Scarborough ON M1K 2R7", "Canada"]}, "categories": [{"id": "4bf58dd8d48988d16e941735", "name": "Fast Food Restaurant", "pluralName": "Fast Food Restaurants", "shortName": "Fast Food", "icon": {"prefix": "https://ss3.4sqi.net/img/categories_v2/food/fastfood_", "suffix": ".png"}, "primary": true}], "photos": {"count": 0, "groups": []}}, "referralId": "e-0-4bec9f6d8bbcc928bc938cb1-11"}, {"reasons": {"count": 0, "items": [{"summary": "This spot is popular", "type": "general", "reasonName": "globalInteractionReason"}]}, "venue": {"id": "4dc158bd52b1877d85b172c8", "name": "Dollarama", "location": {"address": "680 Kennedy Rd", "crossStreet": "at Merrian Rd.", "lat": 43.727092, "lng": -79.265784, "labeledLatLngs": [{"label": "display", "lat": 43.727092, "lng": -79.265784}], "distance": 316, "postalCode": "M1K 2B5", "cc": "CA", "city": "Toronto", "state": "ON", "country": "Canada", "formattedAddress": ["680 Kennedy Rd (at Merrian Rd.)", "Toronto ON M1K 2B5", "Canada"]}, "categories": [{"id": "52dea92d3cf9994f4e043dbb", "name": "Discount Store", "pluralName": "Discount Stores", "shortName": "Discount Store", "icon": {"prefix": "https://ss3.4sqi.net/img/categories_v2/shops/discountstore_", "suffix": ".png"}, "primary": true}], "photos": {"count": 0, "groups": []}}, "referralId": "e-0-4dc158bd52b1877d85b172c8-12"}, {"reasons": {"count": 0, "items": [{"summary": "This spot is popular", "type": "general", "reasonName": "globalInteractionReason"}]}, "venue": {"id": "555d2742498e3524508bc7c6", "name": "Hakka No.1", "location": {"address": "682 Kennedy Road, Unit 1", "lat": 43.72768846107342, "lng": -79.26605655631751, "labeledLatLngs": [{"label": "display", "lat": 43.72768846107342, "lng": -79.26605655631751}], "distance": 325, "postalCode": "M1K 2B5", "cc": "CA", "city": "Toronto", "state": "ON", "country": "Canada", "formattedAddress": ["682 Kennedy Road, Unit 1", "Toronto ON M1K 2B5", "Canada"]}, "categories": [{"id": "4bf58dd8d48988d145941735", "name": "Chinese Restaurant", "pluralName": "Chinese Restaurants", "shortName": "Chinese", "icon": {"prefix": "https://ss3.4sqi.net/img/categories_v2/food/asian_", "suffix": ".png"}, "primary": true}], "photos": {"count": 0, "groups": []}}, "referralId": "e-0-555d2742498e3524508bc7c6-13"}, {"reasons": {"count": 0, "items": [{"summary": "This spot is popular", "type": "general", "reasonName": "globalInteractionReason"}]}, "venue": {"id": "504759aee4b008d1e233f15b", "name": "Dollarama", "location": {"lat": 43.72659620252377, "lng": -79.26682995710473, "labeledLatLngs": [{"label": "display", "lat": 43.72659620252377, "lng": -79.26682995710473}], "distance": 413, "cc": "CA", "city": "Toronto", "state": "ON", "country": "Canada", "formattedAddress": ["Toronto ON", "Canada"]}, "categories": [{"id": "52dea92d3cf9994f4e043dbb", "name": "Discount Store", "pluralName": "Discount Stores", "shortName": "Discount Store", "icon": {"prefix": "https://ss3.4sqi.net/img/categories_v2/shops/discountstore_", "suffix": ".png"}, "primary": true}], "photos": {"count": 0, "groups": []}}, "referralId": "e-0-504759aee4b008d1e233f15b-14"}, {"reasons": {"count": 0, "items": [{"summary": "This spot is popular", "type": "general", "reasonName": "globalInteractionReason"}]}, "venue": {"id": "4b623695f964a520913c2ae3", "name": "Pizza Pizza", "location": {"address": "2500 EGLINTON AVENUE EAST", "lat": 43.73507309651425, "lng": -79.25766706466675, "labeledLatLngs": [{"label": "display", "lat": 43.73507309651425, "lng": -79.25766706466675}], "distance": 869, "postalCode": "M1K 2R5", "cc": "CA", "city": "Scarborough", "state": "ON", "country": "Canada", "formattedAddress": ["2500 EGLINTON AVENUE EAST", "Scarborough ON M1K 2R5", "Canada"]}, "categories": [{"id": "4bf58dd8d48988d1ca941735", "name": "Pizza Place", "pluralName": "Pizza Places", "shortName": "Pizza", "icon": {"prefix": "https://ss3.4sqi.net/img/categories_v2/food/pizza_", "suffix": ".png"}, "primary": true}], "photos": {"count": 0, "groups": []}}, "referralId": "e-0-4b623695f964a520913c2ae3-15"}, {"reasons": {"count": 0, "items": [{"summary": "This spot is popular", "type": "general", "reasonName": "globalInteractionReason"}]}, "venue": {"id": "4f383f27e4b017ad7bec3a02", "name": "Don Montgomery Arena", "location": {"address": "Kennedy and Eglinton", "lat": 43.732549046367076, "lng": -79.26165774437062, "labeledLatLngs": [{"label": "display", "lat": 43.732549046367076, "lng": -79.26165774437062}], "distance": 515, "cc": "CA", "country": "Canada", "formattedAddress": ["Kennedy and Eglinton", "Canada"]}, "categories": [{"id": "4bf58dd8d48988d185941735", "name": "Hockey Arena", "pluralName": "Hockey Arenas", "shortName": "Hockey", "icon": {"prefix": "https://ss3.4sqi.net/img/categories_v2/arts_entertainment/stadium_hockey_", "suffix": ".png"}, "primary": true}], "photos": {"count": 0, "groups": []}}, "referralId": "e-0-4f383f27e4b017ad7bec3a02-16"}, {"reasons": {"count": 0, "items": [{"summary": "This spot is popular", "type": "general", "reasonName": "globalInteractionReason"}]}, "venue": {"id": "50807e62e4b06d38192ad719", "name": "TTC Bus #43 - Kennedy", "location": {"address": "Kennedy Rd", "crossStreet": "Btwn Steeles Ave E & Eglinton Ave E.", "lat": 43.73274357839762, "lng": -79.26408564983338, "labeledLatLngs": [{"label": "display", "lat": 43.73274357839762, "lng": -79.26408564983338}], "distance": 560, "cc": "CA", "city": "Toronto", "state": "ON", "country": "Canada", "formattedAddress": ["Kennedy Rd (Btwn Steeles Ave E & Eglinton Ave E.)", "Toronto ON", "Canada"]}, "categories": [{"id": "4bf58dd8d48988d12b951735", "name": "Bus Line", "pluralName": "Bus Lines", "shortName": "Bus", "icon": {"prefix": "https://ss3.4sqi.net/img/categories_v2/travel/busstation_", "suffix": ".png"}, "primary": true}], "photos": {"count": 0, "groups": []}}, "referralId": "e-0-50807e62e4b06d38192ad719-17"}, {"reasons": {"count": 0, "items": [{"summary": "This spot is popular", "type": "general", "reasonName": "globalInteractionReason"}]}, "venue": {"id": "4ce1f15beae02c0ff409b826", "name": "Rob's No Frills", "location": {"address": "2430 Eglinton Ave E", "crossStreet": "at Kennedy Rd.", "lat": 43.732606, "lng": -79.266706, "labeledLatLngs": [{"label": "display", "lat": 43.732606, "lng": -79.266706}], "distance": 642, "postalCode": "M1K 2P7", "cc": "CA", "city": "Scarborough", "state": "ON", "country": "Canada", "formattedAddress": ["2430 Eglinton Ave E (at Kennedy Rd.)", "Scarborough ON M1K 2P7", "Canada"]}, "categories": [{"id": "4bf58dd8d48988d118951735", "name": "Grocery Store", "pluralName": "Grocery Stores", "shortName": "Grocery Store", "icon": {"prefix": "https://ss3.4sqi.net/img/categories_v2/shops/food_grocery_", "suffix": ".png"}, "primary": true}], "photos": {"count": 0, "groups": []}}, "referralId": "e-0-4ce1f15beae02c0ff409b826-18"}, {"reasons": {"count": 0, "items": [{"summary": "This spot is popular", "type": "general", "reasonName": "globalInteractionReason"}]}, "venue": {"id": "4ec1a0a89911a2ec5cc79f26", "name": "Fu Yao Supermarket", "location": {"address": "8 Greystone Walk Dr., Unit 11", "crossStreet": "btwn Midland & Danforth", "lat": 43.725053676622224, "lng": -79.25301949095291, "labeledLatLngs": [{"label": "display", "lat": 43.725053676622224, "lng": -79.25301949095291}], "distance": 792, "postalCode": "M1K 5J2", "cc": "CA", "city": "Scarborough", "state": "ON", "country": "Canada", "formattedAddress": ["8 Greystone Walk Dr., Unit 11 (btwn Midland & Danforth)", "Scarborough ON M1K 5J2", "Canada"]}, "categories": [{"id": "4bf58dd8d48988d118951735", "name": "Grocery Store", "pluralName": "Grocery Stores", "shortName": "Grocery Store", "icon": {"prefix": "https://ss3.4sqi.net/img/categories_v2/shops/food_grocery_", "suffix": ".png"}, "primary": true}], "photos": {"count": 0, "groups": []}}, "referralId": "e-0-4ec1a0a89911a2ec5cc79f26-19"}, {"reasons": {"count": 0, "items": [{"summary": "This spot is popular", "type": "general", "reasonName": "globalInteractionReason"}]}, "venue": {"id": "4ad8980ef964a520a11221e3", "name": "Tara Inn", "location": {"address": "2609 Eglinton Ave E", "crossStreet": "btw Brimley and Midland", "lat": 43.73529408798311, "lng": -79.25274019257232, "labeledLatLngs": [{"label": "display", "lat": 43.73529408798311, "lng": -79.25274019257232}], "distance": 1109, "postalCode": "M1K 2S2", "cc": "CA", "city": "Toronto", "state": "ON", "country": "Canada", "formattedAddress": ["2609 Eglinton Ave E (btw Brimley and Midland)", "Toronto ON M1K 2S2", "Canada"]}, "categories": [{"id": "4bf58dd8d48988d14c941735", "name": "Wings Joint", "pluralName": "Wings Joints", "shortName": "Wings", "icon": {"prefix": "https://ss3.4sqi.net/img/categories_v2/food/wings_", "suffix": ".png"}, "primary": true}], "photos": {"count": 0, "groups": []}}, "referralId": "e-0-4ad8980ef964a520a11221e3-20"}, {"reasons": {"count": 0, "items": [{"summary": "This spot is popular", "type": "general", "reasonName": "globalInteractionReason"}]}, "venue": {"id": "55131562498ea1434fcfcb76", "name": "Dollar Tree", "location": {"address": "2432 Eglinton Ave E", "lat": 43.7326694, "lng": -79.2664148, "labeledLatLngs": [{"label": "display", "lat": 43.7326694, "lng": -79.2664148}], "distance": 634, "postalCode": "M1K 2P8", "cc": "CA", "city": "Toronto", "state": "ON", "country": "Canada", "formattedAddress": ["2432 Eglinton Ave E", "Toronto ON M1K 2P8", "Canada"]}, "categories": [{"id": "52dea92d3cf9994f4e043dbb", "name": "Discount Store", "pluralName": "Discount Stores", "shortName": "Discount Store", "icon": {"prefix": "https://ss3.4sqi.net/img/categories_v2/shops/discountstore_", "suffix": ".png"}, "primary": true}], "photos": {"count": 0, "groups": []}}, "referralId": "e-0-55131562498ea1434fcfcb76-21"}, {"reasons": {"count": 0, "items": [{"summary": "This spot is popular", "type": "general", "reasonName": "globalInteractionReason"}]}, "venue": {"id": "5069eecbe4b033d3593a7b5a", "name": "Kennedy Ave & Eglinton Ave E", "location": {"address": "Kennedy Rd", "crossStreet": "Eglinton Ave E", "lat": 43.73213901542009, "lng": -79.26837226470258, "labeledLatLngs": [{"label": "display", "lat": 43.73213901542009, "lng": -79.26837226470258}], "distance": 692, "postalCode": "M1K", "cc": "CA", "city": "Scarborough", "state": "ON", "country": "Canada", "formattedAddress": ["Kennedy Rd (Eglinton Ave E)", "Scarborough ON M1K", "Canada"]}, "categories": [{"id": "52f2ab2ebcbc57f1066b8b4c", "name": "Intersection", "pluralName": "Intersections", "shortName": "Intersection", "icon": {"prefix": "https://ss3.4sqi.net/img/categories_v2/travel/default_", "suffix": ".png"}, "primary": true}], "photos": {"count": 0, "groups": []}}, "referralId": "e-0-5069eecbe4b033d3593a7b5a-22"}, {"reasons": {"count": 0, "items": [{"summary": "This spot is popular", "type": "general", "reasonName": "globalInteractionReason"}]}, "venue": {"id": "571400ac498e7956dba7a960", "name": "Royal Congee Chinese Cuisine", "location": {"lat": 43.724572, "lng": -79.253083, "labeledLatLngs": [{"label": "display", "lat": 43.724572, "lng": -79.253083}], "distance": 810, "cc": "CA", "country": "Canada", "formattedAddress": ["Canada"]}, "categories": [{"id": "4bf58dd8d48988d145941735", "name": "Chinese Restaurant", "pluralName": "Chinese Restaurants", "shortName": "Chinese", "icon": {"prefix": "https://ss3.4sqi.net/img/categories_v2/food/asian_", "suffix": ".png"}, "primary": true}], "photos": {"count": 0, "groups": []}}, "referralId": "e-0-571400ac498e7956dba7a960-23"}, {"reasons": {"count": 0, "items": [{"summary": "This spot is popular", "type": "general", "reasonName": "globalInteractionReason"}]}, "venue": {"id": "4de319c718385df2b034d9ae", "name": "241 Pizza", "location": {"address": "2372 Eglinton Avenue East", "lat": 43.731789007773415, "lng": -79.27127540453439, "labeledLatLngs": [{"label": "display", "lat": 43.731789007773415, "lng": -79.27127540453439}], "distance": 858, "postalCode": "M1K 2P3", "cc": "CA", "city": "Toronto", "state": "ON", "country": "Canada", "formattedAddress": ["2372 Eglinton Avenue East", "Toronto ON M1K 2P3", "Canada"]}, "categories": [{"id": "4bf58dd8d48988d1ca941735", "name": "Pizza Place", "pluralName": "Pizza Places", "shortName": "Pizza", "icon": {"prefix": "https://ss3.4sqi.net/img/categories_v2/food/pizza_", "suffix": ".png"}, "primary": true}], "photos": {"count": 0, "groups": []}}, "referralId": "e-0-4de319c718385df2b034d9ae-24"}, {"reasons": {"count": 0, "items": [{"summary": "This spot is popular", "type": "general", "reasonName": "globalInteractionReason"}]}, "venue": {"id": "4e3201b518387ab7fc50f248", "name": "Lam Kee B. B. Q. Restaurant", "location": {"address": "4 Greystone Walk Dr.", "crossStreet": "btwn Midland Ave. & Danforth Rd.", "lat": 43.724812738000224, "lng": -79.25211067659093, "labeledLatLngs": [{"label": "display", "lat": 43.724812738000224, "lng": -79.25211067659093}], "distance": 870, "cc": "CA", "city": "Scarborough", "state": "ON", "country": "Canada", "formattedAddress": ["4 Greystone Walk Dr. (btwn Midland Ave. & Danforth Rd.)", "Scarborough ON", "Canada"]}, "categories": [{"id": "4bf58dd8d48988d142941735", "name": "Asian Restaurant", "pluralName": "Asian Restaurants", "shortName": "Asian", "icon": {"prefix": "https://ss3.4sqi.net/img/categories_v2/food/asian_", "suffix": ".png"}, "primary": true}], "photos": {"count": 0, "groups": []}}, "referralId": "e-0-4e3201b518387ab7fc50f248-25"}, {"reasons": {"count": 0, "items": [{"summary": "This spot is popular", "type": "general", "reasonName": "globalInteractionReason"}]}, "venue": {"id": "4b928f1bf964a5203e0434e3", "name": "McDonald's", "location": {"address": "2 Greystone Walk Drive", "crossStreet": "at Midland Ave", "lat": 43.72459080446646, "lng": -79.2534620917188, "labeledLatLngs": [{"label": "display", "lat": 43.72459080446646, "lng": -79.2534620917188}], "distance": 783, "postalCode": "M1K 5J2", "cc": "CA", "city": "Toronto", "state": "ON", "country": "Canada", "formattedAddress": ["2 Greystone Walk Drive (at Midland Ave)", "Toronto ON M1K 5J2", "Canada"]}, "categories": [{"id": "4bf58dd8d48988d16e941735", "name": "Fast Food Restaurant", "pluralName": "Fast Food Restaurants", "shortName": "Fast Food", "icon": {"prefix": "https://ss3.4sqi.net/img/categories_v2/food/fastfood_", "suffix": ".png"}, "primary": true}], "photos": {"count": 0, "groups": []}}, "referralId": "e-0-4b928f1bf964a5203e0434e3-26"}]}]}}