{"meta": {"code": 200, "requestId": "5e19739414a126001bc202d4"}, "response": {"headerLocation": "Birch Cliff", "headerFullLocation": "Birch Cliff, Toronto", "headerLocationGranularity": "neighborhood", "totalResults": 13, "suggestedBounds": {"ne": {"lat": 43.704330011673015, "lng": -79.24873424169519}, "sw": {"lat": 43.68098398832699, "lng": -79.2809619583048}}, "groups": [{"type": "Recommended Places", "name": "recommended", "items": [{"reasons": {"count": 0, "items": [{"summary": "This spot is popular", "type": "general", "reasonName": "globalInteractionReason"}]}, "venue": {"id": "56d51743498e60da346470e2", "name": "The Birchcliff", "location": {"address": "1666 Kingston Road", "crossStreet": "Birchcliff Avenue", "lat": 43.69166644406541, "lng": -79.26453158481682, "labeledLatLngs": [{"label": "display", "lat": 43.69166644406541, "lng": -79.26453158481682}], "distance": 113, "postalCode": "M1N 1S5", "cc": "CA", "city": "Toronto", "state": "ON", "country": "Canada", "formattedAddress": ["1666 Kingston Road (Birchcliff Avenue)", "Toronto ON M1N 1S5", "Canada"]}, "categories": [{"id": "4bf58dd8d48988d16d941735", "name": "Caf\u00e9", "pluralName": "Caf\u00e9s", "shortName": "Caf\u00e9", "icon": {"prefix": "https://ss3.4sqi.net/img/categories_v2/food/cafe_", "suffix": ".png"}, "primary": true}], "photos": {"count": 0, "groups": []}}, "referralId": "e-0-56d51743498e60da346470e2-0"}, {"reasons": {"count": 0, "items": [{"summary": "This spot is popular", "type": "general", "reasonName": "globalInteractionReason"}]}, "venue": {"id": "511732bbe4b066680f965200", "name": "Jatujak", "location": {"address": "1466 Kingston Rd.", "crossStreet": "Kingston & Warden", "lat": 43.688420506662354, "lng": -79.2700732547006, "labeledLatLngs": [{"label": "display", "lat": 43.688420506662354, "lng": -79.2700732547006}], "distance": 631, "postalCode": "M1N 1R6", "cc": "CA", "city": "Toronto", "state": "ON", "country": "Canada", "formattedAddress": ["1466 Kingston Rd. (Kingston & Warden)", "Toronto ON M1N 1R6", "Canada"]}, "categories": [{"id": "4bf58dd8d48988d149941735", "name": "Thai Restaurant", "pluralName": "Thai Restaurants", "shortName": "Thai", "icon": {"prefix": "https://ss3.4sqi.net/img/categories_v2/food/thai_", "suffix": ".png"}, "primary": true}], "photos": {"count": 0, "groups": []}, "venuePage": {"id": "48140921"}}, "referralId": "e-0-511732bbe4b066680f965200-1"}, {"reasons": {"count": 0, "items": [{"summary": "This spot is popular", "type": "general", "reasonName": "globalInteractionReason"}]}, "venue": {"id": "4bf95b3b5317a593a218017f", "name": "Rosetta McLain Gardens", "location": {"lat": 43.69701861855136, "lng": -79.25573911728534, "labeledLatLngs": [{"label": "display", "lat": 43.69701861855136, "lng": -79.25573911728534}], "distance": 879, "cc": "CA", "country": "Canada", "formattedAddress": ["Canada"]}, "categories": [{"id": "4bf58dd8d48988d163941735", "name": "Park", "pluralName": "Parks", "shortName": "Park", "icon": {"prefix": "https://ss3.4sqi.net/img/categories_v2/parks_outdoors/park_", "suffix": ".png"}, "primary": true}], "photos": {"count": 0, "groups": []}}, "referralId": "e-0-4bf95b3b5317a593a218017f-2"}, {"reasons": {"count": 0, "items": [{"summary": "This spot is popular", "type": "general", "reasonName": "globalInteractionReason"}]}, "venue": {"id": "4b2162a8f964a520133b24e3", "name": "Birchmount Community Centre", "location": {"address": "93 Birchmount Rd.", "lat": 43.69517507509799, "lng": -79.26216087070237, "labeledLatLngs": [{"label": "display", "lat": 43.69517507509799, "lng": -79.26216087070237}], "distance": 354, "postalCode": "M1N 3J7", "cc": "CA", "city": "Toronto", "state": "ON", "country": "Canada", "formattedAddress": ["93 Birchmount Rd.", "Toronto ON M1N 3J7", "Canada"]}, "categories": [{"id": "4bf58dd8d48988d1f1931735", "name": "General Entertainment", "pluralName": "General Entertainment", "shortName": "Entertainment", "icon": {"prefix": "https://ss3.4sqi.net/img/categories_v2/arts_entertainment/default_", "suffix": ".png"}, "primary": true}], "photos": {"count": 0, "groups": []}}, "referralId": "e-0-4b2162a8f964a520133b24e3-3"}, {"reasons": {"count": 0, "items": [{"summary": "This spot is popular", "type": "general", "reasonName": "globalInteractionReason"}]}, "venue": {"id": "4ae591a0f964a520eda021e3", "name": "Variety Village", "location": {"address": "3701 Danforth Avenue", "crossStreet": "Kingston Rd", "lat": 43.69883533655271, "lng": -79.25795245225459, "labeledLatLngs": [{"label": "display", "lat": 43.69883533655271, "lng": -79.25795245225459}], "distance": 883, "postalCode": "M1N 2G2", "cc": "CA", "city": "Scarborough", "state": "ON", "country": "Canada", "formattedAddress": ["3701 Danforth Avenue (Kingston Rd)", "Scarborough ON M1N 2G2", "Canada"]}, "categories": [{"id": "4bf58dd8d48988d176941735", "name": "Gym", "pluralName": "Gyms", "shortName": "Gym", "icon": {"prefix": "https://ss3.4sqi.net/img/categories_v2/building/gym_", "suffix": ".png"}, "primary": true}], "photos": {"count": 0, "groups": []}}, "referralId": "e-0-4ae591a0f964a520eda021e3-4"}, {"reasons": {"count": 0, "items": [{"summary": "This spot is popular", "type": "general", "reasonName": "globalInteractionReason"}]}, "venue": {"id": "4c3fb4a1d7fad13a4dfc04da", "name": "Dairy Queen", "location": {"address": "10 Danforth Road", "lat": 43.694488962802616, "lng": -79.27699774503714, "labeledLatLngs": [{"label": "display", "lat": 43.694488962802616, "lng": -79.27699774503714}], "distance": 998, "postalCode": "M1L 3W3", "cc": "CA", "city": "Scarborough", "state": "ON", "country": "Canada", "formattedAddress": ["10 Danforth Road", "Scarborough ON M1L 3W3", "Canada"]}, "categories": [{"id": "4bf58dd8d48988d16e941735", "name": "Fast Food Restaurant", "pluralName": "Fast Food Restaurants", "shortName": "Fast Food", "icon": {"prefix": "https://ss3.4sqi.net/img/categories_v2/food/fastfood_", "suffix": ".png"}, "primary": true}], "photos": {"count": 0, "groups": []}}, "referralId": "e-0-4c3fb4a1d7fad13a4dfc04da-5"}, {"reasons": {"count": 0, "items": [{"summary": "This spot is popular", "type": "general", "reasonName": "globalInteractionReason"}]}, "venue": {"id": "4c55f54b72cf0f47d41f15d7", "name": "Swiss Chalet Express/ Harvey's", "location": {"address": "3400 Danforth Ave", "crossStreet": "at Danforth Rd", "lat": 43.69412736775397, "lng": -79.27619223755143, "labeledLatLngs": [{"label": "display", "lat": 43.69412736775397, "lng": -79.27619223755143}], "distance": 927, "postalCode": "M1L 1E1", "cc": "CA", "city": "Scarborough", "state": "ON", "country": "Canada", "formattedAddress": ["3400 Danforth Ave (at Danforth Rd)", "Scarborough ON M1L 1E1", "Canada"]}, "categories": [{"id": "4bf58dd8d48988d1c4941735", "name": "Restaurant", "pluralName": "Restaurants", "shortName": "Restaurant", "icon": {"prefix": "https://ss3.4sqi.net/img/categories_v2/food/default_", "suffix": ".png"}, "primary": true}], "photos": {"count": 0, "groups": []}}, "referralId": "e-0-4c55f54b72cf0f47d41f15d7-6"}, {"reasons": {"count": 0, "items": [{"summary": "This spot is popular", "type": "general", "reasonName": "globalInteractionReason"}]}, "venue": {"id": "52d5ac8f11d2476f50fe5fbb", "name": "Wimpy's Diner", "location": {"address": "1496 Kingston Rd.", "crossStreet": "Warden & Kingston", "lat": 43.68904771098145, "lng": -79.26948627518628, "labeledLatLngs": [{"label": "display", "lat": 43.68904771098145, "lng": -79.26948627518628}], "distance": 548, "postalCode": "M1N 1R6", "cc": "CA", "city": "Scarborough", "state": "ON", "country": "Canada", "formattedAddress": ["1496 Kingston Rd. (Warden & Kingston)", "Scarborough ON M1N 1R6", "Canada"]}, "categories": [{"id": "4bf58dd8d48988d147941735", "name": "Diner", "pluralName": "Diners", "shortName": "Diner", "icon": {"prefix": "https://ss3.4sqi.net/img/categories_v2/food/diner_", "suffix": ".png"}, "primary": true}], "photos": {"count": 0, "groups": []}}, "referralId": "e-0-52d5ac8f11d2476f50fe5fbb-7"}, {"reasons": {"count": 0, "items": [{"summary": "This spot is popular", "type": "general", "reasonName": "globalInteractionReason"}]}, "venue": {"id": "4b9273ccf964a5209afa33e3", "name": "Scarborough Gardens", "location": {"address": "75 Birchmount Rd", "lat": 43.6946465192162, "lng": -79.26223031725522, "labeledLatLngs": [{"label": "display", "lat": 43.6946465192162, "lng": -79.26223031725522}], "distance": 305, "cc": "CA", "city": "Toronto", "state": "ON", "country": "Canada", "formattedAddress": ["75 Birchmount Rd", "Toronto ON", "Canada"]}, "categories": [{"id": "4bf58dd8d48988d168941735", "name": "Skating Rink", "pluralName": "Skating Rinks", "shortName": "Skating Rink", "icon": {"prefix": "https://ss3.4sqi.net/img/categories_v2/parks_outdoors/skatingrink_", "suffix": ".png"}, "primary": true}], "photos": {"count": 0, "groups": []}}, "referralId": "e-0-4b9273ccf964a5209afa33e3-8"}, {"reasons": {"count": 0, "items": [{"summary": "This spot is popular", "type": "general", "reasonName": "globalInteractionReason"}]}, "venue": {"id": "4dc98788b0fb5d096039beae", "name": "Scotia Parkette", "location": {"address": "3534 Danforth Ave", "lat": 43.69530419850419, "lng": -79.27182589899654, "labeledLatLngs": [{"label": "display", "lat": 43.69530419850419, "lng": -79.27182589899654}], "distance": 634, "cc": "CA", "city": "Toronto", "state": "ON", "country": "Canada", "formattedAddress": ["3534 Danforth Ave", "Toronto ON", "Canada"]}, "categories": [{"id": "4bf58dd8d48988d163941735", "name": "Park", "pluralName": "Parks", "shortName": "Park", "icon": {"prefix": "https://ss3.4sqi.net/img/categories_v2/parks_outdoors/park_", "suffix": ".png"}, "primary": true}], "photos": {"count": 0, "groups": []}}, "referralId": "e-0-4dc98788b0fb5d096039beae-9"}, {"reasons": {"count": 0, "items": [{"summary": "This spot is popular", "type": "general", "reasonName": "globalInteractionReason"}]}, "venue": {"id": "4d9772a829352d4363c9f4c1", "name": "Variety Village Sunshine Pool", "location": {"address": "3701 Danforth Avenue", "lat": 43.69881350657984, "lng": -79.25661563873291, "labeledLatLngs": [{"label": "display", "lat": 43.69881350657984, "lng": -79.25661563873291}], "distance": 953, "postalCode": "M1N 2G2", "cc": "CA", "city": "Scarborough", "state": "ON", "country": "Canada", "formattedAddress": ["3701 Danforth Avenue", "Scarborough ON M1N 2G2", "Canada"]}, "categories": [{"id": "4bf58dd8d48988d105941735", "name": "Gym Pool", "pluralName": "Gym Pools", "shortName": "Pool", "icon": {"prefix": "https://ss3.4sqi.net/img/categories_v2/parks_outdoors/pool_", "suffix": ".png"}, "primary": true}], "photos": {"count": 0, "groups": []}}, "referralId": "e-0-4d9772a829352d4363c9f4c1-10"}, {"reasons": {"count": 0, "items": [{"summary": "This spot is popular", "type": "general", "reasonName": "globalInteractionReason"}]}, "venue": {"id": "4cb0c75d75ebb60cd1b9c7ad", "name": "Highview Park", "location": {"address": "150 Highview Ave", "lat": 43.70132615647561, "lng": -79.25876179304484, "labeledLatLngs": [{"label": "display", "lat": 43.70132615647561, "lng": -79.25876179304484}], "distance": 1082, "cc": "CA", "city": "Toronto", "state": "ON", "country": "Canada", "formattedAddress": ["150 Highview Ave", "Toronto ON", "Canada"]}, "categories": [{"id": "4bf58dd8d48988d163941735", "name": "Park", "pluralName": "Parks", "shortName": "Park", "icon": {"prefix": "https://ss3.4sqi.net/img/categories_v2/parks_outdoors/park_", "suffix": ".png"}, "primary": true}], "photos": {"count": 0, "groups": []}}, "referralId": "e-0-4cb0c75d75ebb60cd1b9c7ad-11"}, {"reasons": {"count": 0, "items": [{"summary": "This spot is popular", "type": "general", "reasonName": "globalInteractionReason"}]}, "venue": {"id": "4be1dff94283c9b621c754f8", "name": "Chopstick Foods", "location": {"address": "3300 Danforth Avne", "crossStreet": "Byng ave", "lat": 43.693367057146, "lng": -79.27997834306485, "labeledLatLngs": [{"label": "display", "lat": 43.693367057146, "lng": -79.27997834306485}], "distance": 1220, "cc": "CA", "city": "Toronto", "state": "ON", "country": "Canada", "formattedAddress": ["3300 Danforth Avne (Byng ave)", "Toronto ON", "Canada"]}, "categories": [{"id": "4bf58dd8d48988d145941735", "name": "Chinese Restaurant", "pluralName": "Chinese Restaurants", "shortName": "Chinese", "icon": {"prefix": "https://ss3.4sqi.net/img/categories_v2/food/asian_", "suffix": ".png"}, "primary": true}], "photos": {"count": 0, "groups": []}}, "referralId": "e-0-4be1dff94283c9b621c754f8-12"}]}]}}