{"meta": {"code": 200, "requestId": "5e197352b4b684001b35d0b6"}, "response": {"suggestedFilters": {"header": "Tap to show:", "filters": [{"name": "Open now", "key": "openNow"}]}, "headerLocation": "Dorset Park", "headerFullLocation": "Dorset Park, Toronto", "headerLocationGranularity": "neighborhood", "totalResults": 46, "suggestedBounds": {"ne": {"lat": 43.76636460895501, "lng": -79.26092880389479}, "sw": {"lat": 43.748454591045, "lng": -79.28567919610524}}, "groups": [{"type": "Recommended Places", "name": "recommended", "items": [{"reasons": {"count": 0, "items": [{"summary": "This spot is popular", "type": "general", "reasonName": "globalInteractionReason"}]}, "venue": {"id": "5226562611d2cd49d83ef03b", "name": "Kairali", "location": {"address": "1210 Kennedy Road", "crossStreet": "Lawrence", "lat": 43.754914739291834, "lng": -79.27694504646365, "labeledLatLngs": [{"label": "display", "lat": 43.754914739291834, "lng": -79.27694504646365}], "distance": 403, "postalCode": "M1P 2L1", "cc": "CA", "city": "Toronto", "state": "ON", "country": "Canada", "formattedAddress": ["1210 Kennedy Road (Lawrence)", "Toronto ON M1P 2L1", "Canada"]}, "categories": [{"id": "4bf58dd8d48988d10f941735", "name": "Indian Restaurant", "pluralName": "Indian Restaurants", "shortName": "Indian", "icon": {"prefix": "https://ss3.4sqi.net/img/categories_v2/food/indian_", "suffix": ".png"}, "primary": true}], "photos": {"count": 0, "groups": []}}, "referralId": "e-0-5226562611d2cd49d83ef03b-0"}, {"reasons": {"count": 0, "items": [{"summary": "This spot is popular", "type": "general", "reasonName": "globalInteractionReason"}]}, "venue": {"id": "54b8669a498e7bffed909876", "name": "Starbucks", "location": {"address": "1156 Kennedy Rd", "crossStreet": "At Lawrence Avenue East", "lat": 43.752465, "lng": -79.276364, "labeledLatLngs": [{"label": "display", "lat": 43.752465, "lng": -79.276364}], "distance": 602, "postalCode": "M1P 2K9", "cc": "CA", "neighborhood": "Dorset Park", "city": "Toronto", "state": "ON", "country": "Canada", "formattedAddress": ["1156 Kennedy Rd (At Lawrence Avenue East)", "Toronto ON M1P 2K9", "Canada"]}, "categories": [{"id": "4bf58dd8d48988d1e0931735", "name": "Coffee Shop", "pluralName": "Coffee Shops", "shortName": "Coffee Shop", "icon": {"prefix": "https://ss3.4sqi.net/img/categories_v2/food/coffeeshop_", "suffix": ".png"}, "primary": true}], "photos": {"count": 0, "groups": []}}, "referralId": "e-0-54b8669a498e7bffed909876-1"}, {"reasons": {"count": 0, "items": [{"summary": "This spot is popular", "type": "general", "reasonName": "globalInteractionReason"}]}, "venue": {"id": "4bc88e208b7c9c743b5538cf", "name": "Calabria Bakery", "location": {"address": "1772 Midland Avenue", "lat": 43.7616699583205, "lng": -79.26950674263456, "labeledLatLngs": [{"label": "display", "lat": 43.7616699583205, "lng": -79.26950674263456}], "distance": 564, "cc": "CA", "city": "Scarborough", "state": "ON", "country": "Canada", "formattedAddress": ["1772 Midland Avenue", "Scarborough ON", "Canada"]}, "categories": [{"id": "4bf58dd8d48988d16a941735", "name": "Bakery", "pluralName": "Bakeries", "shortName": "Bakery", "icon": {"prefix": "https://ss3.4sqi.net/img/categories_v2/food/bakery_", "suffix": ".png"}, "primary": true}], "photos": {"count": 0, "groups": []}}, "referralId": "e-0-4bc88e208b7c9c743b5538cf-2"}, {"reasons": {"count": 0, "items": [{"summary": "This spot is popular", "type": "general", "reasonName": "globalInteractionReason"}]}, "venue": {"id": "5077013be4b059e49e757ec8", "name": "Harry's Drive-In", "location": {"address": "2280 Lawrence Avenue East", "crossStreet": "Lawrence Ave E / Kennedy Road", "lat": 43.749195827391084, "lng": -79.27716177123996, "labeledLatLngs": [{"label": "display", "lat": 43.749195827391084, "lng": -79.27716177123996}], "distance": 965, "postalCode": "M1P 2P9", "cc": "CA", "city": "Scarborough", "state": "ON", "country": "Canada", "formattedAddress": ["2280 Lawrence Avenue East (Lawrence Ave E / Kennedy Road)", "Scarborough ON M1P 2P9", "Canada"]}, "categories": [{"id": "4bf58dd8d48988d16c941735", "name": "Burger Joint", "pluralName": "Burger Joints", "shortName": "Burgers", "icon": {"prefix": "https://ss3.4sqi.net/img/categories_v2/food/burger_", "suffix": ".png"}, "primary": true}], "photos": {"count": 0, "groups": []}}, "referralId": "e-0-5077013be4b059e49e757ec8-3"}, {"reasons": {"count": 0, "items": [{"summary": "This spot is popular", "type": "general", "reasonName": "globalInteractionReason"}]}, "venue": {"id": "4b647754f964a52079b52ae3", "name": "Spicy Dragon", "location": {"address": "1060 Kennedy Rd", "lat": 43.74921946341891, "lng": -79.27508200752006, "labeledLatLngs": [{"label": "display", "lat": 43.74921946341891, "lng": -79.27508200752006}], "distance": 922, "cc": "CA", "city": "Toronto", "state": "ON", "country": "Canada", "formattedAddress": ["1060 Kennedy Rd", "Toronto ON", "Canada"]}, "categories": [{"id": "4bf58dd8d48988d142941735", "name": "Asian Restaurant", "pluralName": "Asian Restaurants", "shortName": "Asian", "icon": {"prefix": "https://ss3.4sqi.net/img/categories_v2/food/asian_", "suffix": ".png"}, "primary": true}], "photos": {"count": 0, "groups": []}}, "referralId": "e-0-4b647754f964a52079b52ae3-4"}, {"reasons": {"count": 0, "items": [{"summary": "This spot is popular", "type": "general", "reasonName": "globalInteractionReason"}]}, "venue": {"id": "4aec5e3bf964a52067c621e3", "name": "Canada Computers", "location": {"address": "1306 Kennedy Road", "crossStreet": "btwn Ellesmere Rd. & Lawrence Ave. E", "lat": 43.75935629419452, "lng": -79.27893074490008, "labeledLatLngs": [{"label": "display", "lat": 43.75935629419452, "lng": -79.27893074490008}], "distance": 501, "postalCode": "M1P 2L5", "cc": "CA", "city": "Scarborough", "state": "ON", "country": "Canada", "formattedAddress": ["1306 Kennedy Road (btwn Ellesmere Rd. & Lawrence Ave. E)", "Scarborough ON M1P 2L5", "Canada"]}, "categories": [{"id": "4bf58dd8d48988d122951735", "name": "Electronics Store", "pluralName": "Electronics Stores", "shortName": "Electronics", "icon": {"prefix": "https://ss3.4sqi.net/img/categories_v2/shops/technology_", "suffix": ".png"}, "primary": true}], "photos": {"count": 0, "groups": []}}, "referralId": "e-0-4aec5e3bf964a52067c621e3-5"}, {"reasons": {"count": 0, "items": [{"summary": "This spot is popular", "type": "general", "reasonName": "globalInteractionReason"}]}, "venue": {"id": "4bb7b0067421a5933ee2c040", "name": "GoodLife Fitness Scarborough Kennedy and Lawrence", "location": {"address": "1141 Kennedy Rd", "lat": 43.752151, "lng": -79.274801, "labeledLatLngs": [{"label": "display", "lat": 43.752151, "lng": -79.274801}], "distance": 597, "postalCode": "M1P 2K8", "cc": "CA", "city": "Scarborough", "state": "ON", "country": "Canada", "formattedAddress": ["1141 Kennedy Rd", "Scarborough ON M1P 2K8", "Canada"]}, "categories": [{"id": "4bf58dd8d48988d176941735", "name": "Gym", "pluralName": "Gyms", "shortName": "Gym", "icon": {"prefix": "https://ss3.4sqi.net/img/categories_v2/building/gym_", "suffix": ".png"}, "primary": true}], "photos": {"count": 0, "groups": []}}, "referralId": "e-0-4bb7b0067421a5933ee2c040-6"}, {"reasons": {"count": 0, "items": [{"summary": "This spot is popular", "type": "general", "reasonName": "globalInteractionReason"}]}, "venue": {"id": "4b6475aef964a520eab42ae3", "name": "Kim Kim restaurant", "location": {"address": "1188 Kennedy Rd", "lat": 43.75383283792732, "lng": -79.27661122245037, "labeledLatLngs": [{"label": "display", "lat": 43.75383283792732, "lng": -79.27661122245037}], "distance": 478, "postalCode": "M1P 2L1", "cc": "CA", "city": "Scarborough", "state": "ON", "country": "Canada", "formattedAddress": ["1188 Kennedy Rd", "Scarborough ON M1P 2L1", "Canada"]}, "categories": [{"id": "4bf58dd8d48988d145941735", "name": "Chinese Restaurant", "pluralName": "Chinese Restaurants", "shortName": "Chinese", "icon": {"prefix": "https://ss3.4sqi.net/img/categories_v2/food/asian_", "suffix": ".png"}, "primary": true}], "photos": {"count": 0, "groups": []}, "venuePage": {"id": "55701321"}}, "referralId": "e-0-4b6475aef964a520eab42ae3-7"}, {"reasons": {"count": 0, "items": [{"summary": "This spot is popular", "type": "general", "reasonName": "globalInteractionReason"}]}, "venue": {"id": "4b469f4af964a520bc2526e3", "name": "Tim Hortons", "location": {"address": "1900 Midland Ave", "crossStreet": "at Midwest Rd.", "lat": 43.76601518629963, "lng": -79.2710841447115, "labeledLatLngs": [{"label": "display", "lat": 43.76601518629963, "lng": -79.2710841447115}], "distance": 974, "postalCode": "M1P 3E2", "cc": "CA", "city": "Scarborough", "state": "ON", "country": "Canada", "formattedAddress": ["1900 Midland Ave (at Midwest Rd.)", "Scarborough ON M1P 3E2", "Canada"]}, "categories": [{"id": "4bf58dd8d48988d1e0931735", "name": "Coffee Shop", "pluralName": "Coffee Shops", "shortName": "Coffee Shop", "icon": {"prefix": "https://ss3.4sqi.net/img/categories_v2/food/coffeeshop_", "suffix": ".png"}, "primary": true}], "photos": {"count": 0, "groups": []}}, "referralId": "e-0-4b469f4af964a520bc2526e3-8"}, {"reasons": {"count": 0, "items": [{"summary": "This spot is popular", "type": "general", "reasonName": "globalInteractionReason"}]}, "venue": {"id": "4bc75a3c6501c9b630433e29", "name": "Pho Vietnam", "location": {"address": "1280 Kennedy Road", "crossStreet": "at Shropshire Drive", "lat": 43.757770305647185, "lng": -79.27857193068989, "labeledLatLngs": [{"label": "display", "lat": 43.757770305647185, "lng": -79.27857193068989}], "distance": 425, "postalCode": "M1P 2L5", "cc": "CA", "city": "Toronto", "state": "ON", "country": "Canada", "formattedAddress": ["1280 Kennedy Road (at Shropshire Drive)", "Toronto ON M1P 2L5", "Canada"]}, "categories": [{"id": "4bf58dd8d48988d14a941735", "name": "Vietnamese Restaurant", "pluralName": "Vietnamese Restaurants", "shortName": "Vietnamese", "icon": {"prefix": "https://ss3.4sqi.net/img/categories_v2/food/vietnamese_", "suffix": ".png"}, "primary": true}], "photos": {"count": 0, "groups": []}}, "referralId": "e-0-4bc75a3c6501c9b630433e29-9"}, {"reasons": {"count": 0, "items": [{"summary": "This spot is popular", "type": "general", "reasonName": "globalInteractionReason"}]}, "venue": {"id": "4bd706687b1876b0046d8d86", "name": "Harvey's", "location": {"address": "2310 Lawrence Ave E", "lat": 43.749552751085005, "lng": -79.27627487641698, "labeledLatLngs": [{"label": "display", "lat": 43.749552751085005, "lng": -79.27627487641698}], "distance": 906, "postalCode": "M1P 2P9", "cc": "CA", "city": "Scarborough", "state": "ON", "country": "Canada", "formattedAddress": ["2310 Lawrence Ave E", "Scarborough ON M1P 2P9", "Canada"]}, "categories": [{"id": "4bf58dd8d48988d16c941735", "name": "Burger Joint", "pluralName": "Burger Joints", "shortName": "Burgers", "icon": {"prefix": "https://ss3.4sqi.net/img/categories_v2/food/burger_", "suffix": ".png"}, "primary": true}], "photos": {"count": 0, "groups": []}}, "referralId": "e-0-4bd706687b1876b0046d8d86-10"}, {"reasons": {"count": 0, "items": [{"summary": "This spot is popular", "type": "general", "reasonName": "globalInteractionReason"}]}, "venue": {"id": "4b0dae6af964a520ce4d23e3", "name": "Big Al's Pet Supercentre", "location": {"address": "1295 Kennedy Rd.", "crossStreet": "at Munham Gate.", "lat": 43.75927894411595, "lng": -79.27832544749343, "labeledLatLngs": [{"label": "display", "lat": 43.75927894411595, "lng": -79.27832544749343}], "distance": 454, "postalCode": "M1P 2L4", "cc": "CA", "city": "Scarborough", "state": "ON", "country": "Canada", "formattedAddress": ["1295 Kennedy Rd. (at Munham Gate.)", "Scarborough ON M1P 2L4", "Canada"]}, "categories": [{"id": "4bf58dd8d48988d100951735", "name": "Pet Store", "pluralName": "Pet Stores", "shortName": "Pet Store", "icon": {"prefix": "https://ss3.4sqi.net/img/categories_v2/shops/pet_store_", "suffix": ".png"}, "primary": true}], "photos": {"count": 0, "groups": []}}, "referralId": "e-0-4b0dae6af964a520ce4d23e3-11"}, {"reasons": {"count": 0, "items": [{"summary": "This spot is popular", "type": "general", "reasonName": "globalInteractionReason"}]}, "venue": {"id": "4bf96c435317a593a23a017f", "name": "Karaikudi Chettinad South Indian Restaurant", "location": {"address": "1225 Kennedy Rd", "crossStreet": "at Forbes (Between Lawrence and Ellesmere)", "lat": 43.756041539453136, "lng": -79.27627591942013, "labeledLatLngs": [{"label": "display", "lat": 43.756041539453136, "lng": -79.27627591942013}], "distance": 283, "postalCode": "M1P 4Y1", "cc": "CA", "city": "Toronto", "state": "ON", "country": "Canada", "formattedAddress": ["1225 Kennedy Rd (at Forbes (Between Lawrence and Ellesmere))", "Toronto ON M1P 4Y1", "Canada"]}, "categories": [{"id": "4bf58dd8d48988d10f941735", "name": "Indian Restaurant", "pluralName": "Indian Restaurants", "shortName": "Indian", "icon": {"prefix": "https://ss3.4sqi.net/img/categories_v2/food/indian_", "suffix": ".png"}, "primary": true}], "photos": {"count": 0, "groups": []}, "venuePage": {"id": "33638214"}}, "referralId": "e-0-4bf96c435317a593a23a017f-12"}, {"reasons": {"count": 0, "items": [{"summary": "This spot is popular", "type": "general", "reasonName": "globalInteractionReason"}]}, "venue": {"id": "4bf32a9594af2d7fd4363972", "name": "Nova Ristorante", "location": {"address": "2272 Lawrence Avenue East", "crossStreet": "Kennedy", "lat": 43.74943391984183, "lng": -79.277629850556, "labeledLatLngs": [{"label": "display", "lat": 43.74943391984183, "lng": -79.277629850556}], "distance": 953, "postalCode": "M1P 2P9", "cc": "CA", "city": "Scarborough", "state": "ON", "country": "Canada", "formattedAddress": ["2272 Lawrence Avenue East (Kennedy)", "Scarborough ON M1P 2P9", "Canada"]}, "categories": [{"id": "4bf58dd8d48988d110941735", "name": "Italian Restaurant", "pluralName": "Italian Restaurants", "shortName": "Italian", "icon": {"prefix": "https://ss3.4sqi.net/img/categories_v2/food/italian_", "suffix": ".png"}, "primary": true}], "photos": {"count": 0, "groups": []}, "venuePage": {"id": "87948043"}}, "referralId": "e-0-4bf32a9594af2d7fd4363972-13"}, {"reasons": {"count": 0, "items": [{"summary": "This spot is popular", "type": "general", "reasonName": "globalInteractionReason"}]}, "venue": {"id": "4ba53de6f964a52093f038e3", "name": "Shoppers Drug Mart", "location": {"address": "2251 Lawrence Ave E", "crossStreet": "at Kennedy Rd.", "lat": 43.748982, "lng": -79.276611, "labeledLatLngs": [{"label": "display", "lat": 43.748982, "lng": -79.276611}], "distance": 975, "postalCode": "M1P 2P5", "cc": "CA", "city": "Scarborough", "state": "ON", "country": "Canada", "formattedAddress": ["2251 Lawrence Ave E (at Kennedy Rd.)", "Scarborough ON M1P 2P5", "Canada"]}, "categories": [{"id": "4bf58dd8d48988d10f951735", "name": "Pharmacy", "pluralName": "Pharmacies", "shortName": "Pharmacy", "icon": {"prefix": "https://ss3.4sqi.net/img/categories_v2/shops/pharmacy_", "suffix": ".png"}, "primary": true}], "photos": {"count": 0, "groups": []}}, "referralId": "e-0-4ba53de6f964a52093f038e3-14"}, {"reasons": {"count": 0, "items": [{"summary": "This spot is popular", "type": "general", "reasonName": "globalInteractionReason"}]}, "venue": {"id": "4bafb9cbf964a520691b3ce3", "name": "Lucky Chinese (Haka) Restaurant", "location": {"address": "2650 Lawrence Ave East", "crossStreet": "at Midland Ave", "lat": 43.75246481901907, "lng": -79.26531065358034, "labeledLatLngs": [{"label": "display", "lat": 43.75246481901907, "lng": -79.26531065358034}], "distance": 846, "cc": "CA", "city": "Toronto", "state": "ON", "country": "Canada", "formattedAddress": ["2650 Lawrence Ave East (at Midland Ave)", "Toronto ON", "Canada"]}, "categories": [{"id": "4bf58dd8d48988d145941735", "name": "Chinese Restaurant", "pluralName": "Chinese Restaurants", "shortName": "Chinese", "icon": {"prefix": "https://ss3.4sqi.net/img/categories_v2/food/asian_", "suffix": ".png"}, "primary": true}], "photos": {"count": 0, "groups": []}}, "referralId": "e-0-4bafb9cbf964a520691b3ce3-15"}, {"reasons": {"count": 0, "items": [{"summary": "This spot is popular", "type": "general", "reasonName": "globalInteractionReason"}]}, "venue": {"id": "4d6d1a3dcf7e41bdc3c38285", "name": "TD Canada Trust", "location": {"address": "2650 Lawrence Ave E", "lat": 43.75192369719931, "lng": -79.26467835903168, "labeledLatLngs": [{"label": "display", "lat": 43.75192369719931, "lng": -79.26467835903168}], "distance": 924, "postalCode": "M1P 2S1", "cc": "CA", "city": "Scarborough", "state": "ON", "country": "Canada", "formattedAddress": ["2650 Lawrence Ave E", "Scarborough ON M1P 2S1", "Canada"]}, "categories": [{"id": "4bf58dd8d48988d10a951735", "name": "Bank", "pluralName": "Banks", "shortName": "Bank", "icon": {"prefix": "https://ss3.4sqi.net/img/categories_v2/shops/financial_", "suffix": ".png"}, "primary": true}], "photos": {"count": 0, "groups": []}}, "referralId": "e-0-4d6d1a3dcf7e41bdc3c38285-16"}, {"reasons": {"count": 0, "items": [{"summary": "This spot is popular", "type": "general", "reasonName": "globalInteractionReason"}]}, "venue": {"id": "4ceeddd713aea143cc0a709f", "name": "FreshCo Pharmacy Lawrence", "location": {"address": "2650 Lawrence Ave E", "crossStreet": "Midland", "lat": 43.752733, "lng": -79.264041, "labeledLatLngs": [{"label": "display", "lat": 43.752733, "lng": -79.264041}], "distance": 908, "postalCode": "M1P 2S1", "cc": "CA", "city": "Scarborough", "state": "ON", "country": "Canada", "formattedAddress": ["2650 Lawrence Ave E (Midland)", "Scarborough ON M1P 2S1", "Canada"]}, "categories": [{"id": "4bf58dd8d48988d10f951735", "name": "Pharmacy", "pluralName": "Pharmacies", "shortName": "Pharmacy", "icon": {"prefix": "https://ss3.4sqi.net/img/categories_v2/shops/pharmacy_", "suffix": ".png"}, "primary": true}], "photos": {"count": 0, "groups": []}}, "referralId": "e-0-4ceeddd713aea143cc0a709f-17"}, {"reasons": {"count": 0, "items": [{"summary": "This spot is popular", "type": "general", "reasonName": "globalInteractionReason"}]}, "venue": {"id": "4f47c8d7e4b0291e47928e84", "name": "The Beer Store", "location": {"address": "2300 Lawrence Ave E", "lat": 43.7506033, "lng": -79.2768014, "labeledLatLngs": [{"label": "display", "lat": 43.7506033, "lng": -79.2768014}], "distance": 808, "postalCode": "M1P 2R2", "cc": "CA", "city": "Scarborough", "state": "ON", "country": "Canada", "formattedAddress": ["2300 Lawrence Ave E", "Scarborough ON M1P 2R2", "Canada"]}, "categories": [{"id": "5370f356bcbc57f1066c94c2", "name": "Beer Store", "pluralName": "Beer Stores", "shortName": "Beer Store", "icon": {"prefix": "https://ss3.4sqi.net/img/categories_v2/nightlife/beergarden_", "suffix": ".png"}, "primary": true}], "photos": {"count": 0, "groups": []}}, "referralId": "e-0-4f47c8d7e4b0291e47928e84-18"}, {"reasons": {"count": 0, "items": [{"summary": "This spot is popular", "type": "general", "reasonName": "globalInteractionReason"}]}, "venue": {"id": "4e639d5daeb73603156aea83", "name": "KFC", "location": {"address": "1338 Kennedy Road", "lat": 43.752966, "lng": -79.276152, "labeledLatLngs": [{"label": "display", "lat": 43.752966, "lng": -79.276152}], "distance": 545, "postalCode": "M1P 1L5", "cc": "CA", "city": "Scarborough", "state": "ON", "country": "Canada", "formattedAddress": ["1338 Kennedy Road", "Scarborough ON M1P 1L5", "Canada"]}, "categories": [{"id": "4bf58dd8d48988d16e941735", "name": "Fast Food Restaurant", "pluralName": "Fast Food Restaurants", "shortName": "Fast Food", "icon": {"prefix": "https://ss3.4sqi.net/img/categories_v2/food/fastfood_", "suffix": ".png"}, "primary": true}], "photos": {"count": 0, "groups": []}}, "referralId": "e-0-4e639d5daeb73603156aea83-19"}, {"reasons": {"count": 0, "items": [{"summary": "This spot is popular", "type": "general", "reasonName": "globalInteractionReason"}]}, "venue": {"id": "4ce5b4170f196dcb1b9432ae", "name": "Petro-Canada", "location": {"address": "2320 Lawrence Ave E", "crossStreet": "at Kennedy Rd", "lat": 43.749822, "lng": -79.27555, "labeledLatLngs": [{"label": "display", "lat": 43.749822, "lng": -79.27555}], "distance": 863, "postalCode": "M1P 2P9", "cc": "CA", "city": "Scarborough", "state": "ON", "country": "Canada", "formattedAddress": ["2320 Lawrence Ave E (at Kennedy Rd)", "Scarborough ON M1P 2P9", "Canada"]}, "categories": [{"id": "4bf58dd8d48988d113951735", "name": "Gas Station", "pluralName": "Gas Stations", "shortName": "Gas Station", "icon": {"prefix": "https://ss3.4sqi.net/img/categories_v2/shops/gas_", "suffix": ".png"}, "primary": true}], "photos": {"count": 0, "groups": []}}, "referralId": "e-0-4ce5b4170f196dcb1b9432ae-20"}, {"reasons": {"count": 0, "items": [{"summary": "This spot is popular", "type": "general", "reasonName": "globalInteractionReason"}]}, "venue": {"id": "4bc705e7af07a5930f5c7e2d", "name": "Tim Hortons", "location": {"address": "2370 Lawrence Ave East", "crossStreet": "at Kennedy Rd.", "lat": 43.7500656357244, "lng": -79.2740124464035, "labeledLatLngs": [{"label": "display", "lat": 43.7500656357244, "lng": -79.2740124464035}], "distance": 819, "postalCode": "M1P 2R5", "cc": "CA", "city": "Scarborough", "state": "ON", "country": "Canada", "formattedAddress": ["2370 Lawrence Ave East (at Kennedy Rd.)", "Scarborough ON M1P 2R5", "Canada"]}, "categories": [{"id": "4bf58dd8d48988d1e0931735", "name": "Coffee Shop", "pluralName": "Coffee Shops", "shortName": "Coffee Shop", "icon": {"prefix": "https://ss3.4sqi.net/img/categories_v2/food/coffeeshop_", "suffix": ".png"}, "primary": true}], "photos": {"count": 0, "groups": []}}, "referralId": "e-0-4bc705e7af07a5930f5c7e2d-21"}, {"reasons": {"count": 0, "items": [{"summary": "This spot is popular", "type": "general", "reasonName": "globalInteractionReason"}]}, "venue": {"id": "4e4ef61ac65bb313ba7fb7a0", "name": "Subway", "location": {"address": "1060 Kennedy Rd", "crossStreet": "at Lawrence Ave. E", "lat": 43.74890746728806, "lng": -79.27545168997904, "labeledLatLngs": [{"label": "display", "lat": 43.74890746728806, "lng": -79.27545168997904}], "distance": 962, "postalCode": "M1P 2K7", "cc": "CA", "city": "Scarborough", "state": "ON", "country": "Canada", "formattedAddress": ["1060 Kennedy Rd (at Lawrence Ave. E)", "Scarborough ON M1P 2K7", "Canada"]}, "categories": [{"id": "4bf58dd8d48988d1c5941735", "name": "Sandwich Place", "pluralName": "Sandwich Places", "shortName": "Sandwiches", "icon": {"prefix": "https://ss3.4sqi.net/img/categories_v2/food/deli_", "suffix": ".png"}, "primary": true}], "photos": {"count": 0, "groups": []}}, "referralId": "e-0-4e4ef61ac65bb313ba7fb7a0-22"}, {"reasons": {"count": 0, "items": [{"summary": "This spot is popular", "type": "general", "reasonName": "globalInteractionReason"}]}, "venue": {"id": "4c0d22dbb1b676b0631be086", "name": "Taco Bell", "location": {"address": "1338 Kennedy Rd", "lat": 43.760908306800005, "lng": -79.27970582726134, "labeledLatLngs": [{"label": "display", "lat": 43.760908306800005, "lng": -79.27970582726134}], "distance": 645, "postalCode": "M1P 1L5", "cc": "CA", "city": "Scarborough", "state": "ON", "country": "Canada", "formattedAddress": ["1338 Kennedy Rd", "Scarborough ON M1P 1L5", "Canada"]}, "categories": [{"id": "4bf58dd8d48988d16e941735", "name": "Fast Food Restaurant", "pluralName": "Fast Food Restaurants", "shortName": "Fast Food", "icon": {"prefix": "https://ss3.4sqi.net/img/categories_v2/food/fastfood_", "suffix": ".png"}, "primary": true}], "photos": {"count": 0, "groups": []}}, "referralId": "e-0-4c0d22dbb1b676b0631be086-23"}, {"reasons": {"count": 0, "items": [{"summary": "This spot is popular", "type": "general", "reasonName": "globalInteractionReason"}]}, "venue": {"id": "4c339cb27cc0c9b6e115f29a", "name": "Popeyes Louisiana Kitchen", "location": {"address": "2633 Lawrence Ave. E", "crossStreet": "at Midland Ave.", "lat": 43.7517402193855, "lng": -79.26404711203095, "labeledLatLngs": [{"label": "display", "lat": 43.7517402193855, "lng": -79.26404711203095}], "distance": 975, "postalCode": "M1P 2S2", "cc": "CA", "city": "Toronto", "state": "ON", "country": "Canada", "formattedAddress": ["2633 Lawrence Ave. E (at Midland Ave.)", "Toronto ON M1P 2S2", "Canada"]}, "categories": [{"id": "4d4ae6fc7a7b7dea34424761", "name": "Fried Chicken Joint", "pluralName": "Fried Chicken Joints", "shortName": "Fried Chicken", "icon": {"prefix": "https://ss3.4sqi.net/img/categories_v2/food/friedchicken_", "suffix": ".png"}, "primary": true}], "photos": {"count": 0, "groups": []}}, "referralId": "e-0-4c339cb27cc0c9b6e115f29a-24"}, {"reasons": {"count": 0, "items": [{"summary": "This spot is popular", "type": "general", "reasonName": "globalInteractionReason"}]}, "venue": {"id": "4be572b42468c92856010043", "name": "Burger King", "location": {"address": "2571 Lawrence Ave East", "lat": 43.75103452155183, "lng": -79.26553662122387, "labeledLatLngs": [{"label": "display", "lat": 43.75103452155183, "lng": -79.26553662122387}], "distance": 945, "postalCode": "M1P 4W5", "cc": "CA", "city": "Scarborough", "state": "ON", "country": "Canada", "formattedAddress": ["2571 Lawrence Ave East", "Scarborough ON M1P 4W5", "Canada"]}, "categories": [{"id": "4bf58dd8d48988d16e941735", "name": "Fast Food Restaurant", "pluralName": "Fast Food Restaurants", "shortName": "Fast Food", "icon": {"prefix": "https://ss3.4sqi.net/img/categories_v2/food/fastfood_", "suffix": ".png"}, "primary": true}], "photos": {"count": 0, "groups": []}}, "referralId": "e-0-4be572b42468c92856010043-25"}, {"reasons": {"count": 0, "items": [{"summary": "This spot is popular", "type": "general", "reasonName": "globalInteractionReason"}]}, "venue": {"id": "4cef23ab7db3224b8b2d2b2e", "name": "Pizza Pizza", "location": {"address": "2650 Lawrence Avenue East, Unit 6B", "lat": 43.752435186791544, "lng": -79.26472663879395, "labeledLatLngs": [{"label": "display", "lat": 43.752435186791544, "lng": -79.26472663879395}], "distance": 884, "postalCode": "M1P 2S1", "cc": "CA", "city": "Scarborough", "state": "ON", "country": "Canada", "formattedAddress": ["2650 Lawrence Avenue East, Unit 6B", "Scarborough ON M1P 2S1", "Canada"]}, "categories": [{"id": "4bf58dd8d48988d1ca941735", "name": "Pizza Place", "pluralName": "Pizza Places", "shortName": "Pizza", "icon": {"prefix": "https://ss3.4sqi.net/img/categories_v2/food/pizza_", "suffix": ".png"}, "primary": true}], "photos": {"count": 0, "groups": []}}, "referralId": "e-0-4cef23ab7db3224b8b2d2b2e-26"}, {"reasons": {"count": 0, "items": [{"summary": "This spot is popular", "type": "general", "reasonName": "globalInteractionReason"}]}, "venue": {"id": "4c7291d913228cfab9582b65", "name": "Magnotta", "location": {"address": "1760 Midland Ave.", "lat": 43.761333, "lng": -79.269139, "labeledLatLngs": [{"label": "display", "lat": 43.761333, "lng": -79.269139}], "distance": 550, "cc": "CA", "city": "Toronto", "state": "ON", "country": "Canada", "formattedAddress": ["1760 Midland Ave.", "Toronto ON", "Canada"]}, "categories": [{"id": "4bf58dd8d48988d119951735", "name": "Wine Shop", "pluralName": "Wine Shops", "shortName": "Wine Shop", "icon": {"prefix": "https://ss3.4sqi.net/img/categories_v2/shops/food_wineshop_", "suffix": ".png"}, "primary": true}], "photos": {"count": 0, "groups": []}}, "referralId": "e-0-4c7291d913228cfab9582b65-27"}, {"reasons": {"count": 0, "items": [{"summary": "This spot is popular", "type": "general", "reasonName": "globalInteractionReason"}]}, "venue": {"id": "50f8159a72da0c7201b2e8e3", "name": "Bad Boy Furniture - Scarborough", "location": {"address": "1119 Kennedy Road", "crossStreet": "Kennedy & Lawrence", "lat": 43.75125720420175, "lng": -79.27563786506653, "labeledLatLngs": [{"label": "display", "lat": 43.75125720420175, "lng": -79.27563786506653}], "distance": 710, "postalCode": "M1P 2K8", "cc": "CA", "city": "Scarborough", "state": "ON", "country": "Canada", "formattedAddress": ["1119 Kennedy Road (Kennedy & Lawrence)", "Scarborough ON M1P 2K8", "Canada"]}, "categories": [{"id": "4bf58dd8d48988d1f8941735", "name": "Furniture / Home Store", "pluralName": "Furniture / Home Stores", "shortName": "Furniture / Home", "icon": {"prefix": "https://ss3.4sqi.net/img/categories_v2/shops/furniture_", "suffix": ".png"}, "primary": true}], "photos": {"count": 0, "groups": []}}, "referralId": "e-0-50f8159a72da0c7201b2e8e3-28"}, {"reasons": {"count": 0, "items": [{"summary": "This spot is popular", "type": "general", "reasonName": "globalInteractionReason"}]}, "venue": {"id": "4ba39380f964a520bd4838e3", "name": "Arrow Furniture", "location": {"address": "1355 Kennedy Rd", "lat": 43.762245876808194, "lng": -79.27944440998428, "labeledLatLngs": [{"label": "display", "lat": 43.762245876808194, "lng": -79.27944440998428}], "distance": 730, "postalCode": "M1P 2L6", "cc": "CA", "city": "Scarborough", "state": "ON", "country": "Canada", "formattedAddress": ["1355 Kennedy Rd", "Scarborough ON M1P 2L6", "Canada"]}, "categories": [{"id": "4bf58dd8d48988d1f8941735", "name": "Furniture / Home Store", "pluralName": "Furniture / Home Stores", "shortName": "Furniture / Home", "icon": {"prefix": "https://ss3.4sqi.net/img/categories_v2/shops/furniture_", "suffix": ".png"}, "primary": true}], "photos": {"count": 0, "groups": []}, "venuePage": {"id": "441103979"}}, "referralId": "e-0-4ba39380f964a520bd4838e3-29"}, {"reasons": {"count": 0, "items": [{"summary": "This spot is popular", "type": "general", "reasonName": "globalInteractionReason"}]}, "venue": {"id": "4b119336f964a520ac7f23e3", "name": "Lastman's Bad Boy", "location": {"address": "1119 Kennedy Road", "crossStreet": "Lawrence", "lat": 43.750572212325025, "lng": -79.27482053218422, "labeledLatLngs": [{"label": "display", "lat": 43.750572212325025, "lng": -79.27482053218422}], "distance": 770, "cc": "CA", "city": "Toronto", "state": "ON", "country": "Canada", "formattedAddress": ["1119 Kennedy Road (Lawrence)", "Toronto ON", "Canada"]}, "categories": [{"id": "4bf58dd8d48988d1f8941735", "name": "Furniture / Home Store", "pluralName": "Furniture / Home Stores", "shortName": "Furniture / Home", "icon": {"prefix": "https://ss3.4sqi.net/img/categories_v2/shops/furniture_", "suffix": ".png"}, "primary": true}], "photos": {"count": 0, "groups": []}}, "referralId": "e-0-4b119336f964a520ac7f23e3-30"}, {"reasons": {"count": 0, "items": [{"summary": "This spot is popular", "type": "general", "reasonName": "globalInteractionReason"}]}, "venue": {"id": "50a6e97de4b052420ce14dc6", "name": "Ardene", "location": {"address": "2300 Lawrence Ave E 18", "lat": 43.75085010220369, "lng": -79.27677453747606, "labeledLatLngs": [{"label": "display", "lat": 43.75085010220369, "lng": -79.27677453747606}], "distance": 781, "postalCode": "M1P 2R2", "cc": "CA", "city": "Scarborough", "state": "ON", "country": "Canada", "formattedAddress": ["2300 Lawrence Ave E 18", "Scarborough ON M1P 2R2", "Canada"]}, "categories": [{"id": "4bf58dd8d48988d102951735", "name": "Accessories Store", "pluralName": "Accessories Stores", "shortName": "Accessories", "icon": {"prefix": "https://ss3.4sqi.net/img/categories_v2/shops/apparel_accessories_", "suffix": ".png"}, "primary": true}], "photos": {"count": 0, "groups": []}}, "referralId": "e-0-50a6e97de4b052420ce14dc6-31"}, {"reasons": {"count": 0, "items": [{"summary": "This spot is popular", "type": "general", "reasonName": "globalInteractionReason"}]}, "venue": {"id": "4f690140e4b0eeafdbbf6682", "name": "Bus Stop: 54E", "location": {"address": "Lawrence East RT Station", "lat": 43.75063925921839, "lng": -79.27066985688873, "labeledLatLngs": [{"label": "display", "lat": 43.75063925921839, "lng": -79.27066985688873}], "distance": 782, "cc": "CA", "country": "Canada", "formattedAddress": ["Lawrence East RT Station", "Canada"]}, "categories": [{"id": "4bf58dd8d48988d1fe931735", "name": "Bus Station", "pluralName": "Bus Stations", "shortName": "Bus Station", "icon": {"prefix": "https://ss3.4sqi.net/img/categories_v2/travel/busstation_", "suffix": ".png"}, "primary": true}], "photos": {"count": 0, "groups": []}}, "referralId": "e-0-4f690140e4b0eeafdbbf6682-32"}, {"reasons": {"count": 0, "items": [{"summary": "This spot is popular", "type": "general", "reasonName": "globalInteractionReason"}]}, "venue": {"id": "5aa8e25498fbfc6488e6cc0a", "name": "Euphoria Wedding Designs", "location": {"address": "445 Midwest Road Unit 34", "lat": 43.7644409, "lng": -79.27213460000002, "labeledLatLngs": [{"label": "display", "lat": 43.7644409, "lng": -79.27213460000002}], "distance": 788, "postalCode": "M1P 4Y9", "cc": "CA", "city": "Scarborough", "state": "ON", "country": "Canada", "formattedAddress": ["445 Midwest Road Unit 34", "Scarborough ON M1P 4Y9", "Canada"]}, "categories": [{"id": "5454152e498ef71e2b9132c6", "name": "Event Service", "pluralName": "Event Services", "shortName": "Event Services", "icon": {"prefix": "https://ss3.4sqi.net/img/categories_v2/event/default_", "suffix": ".png"}, "primary": true}], "photos": {"count": 0, "groups": []}, "venuePage": {"id": "483760355"}}, "referralId": "e-0-5aa8e25498fbfc6488e6cc0a-33"}, {"reasons": {"count": 0, "items": [{"summary": "This spot is popular", "type": "general", "reasonName": "globalInteractionReason"}]}, "venue": {"id": "4cc04f03611abfb7db6ba605", "name": "Speedy Glass", "location": {"address": "1371 Kennedy Road", "lat": 43.7630097, "lng": -79.2796335, "labeledLatLngs": [{"label": "display", "lat": 43.7630097, "lng": -79.2796335}], "distance": 804, "postalCode": "M1P 2L6", "cc": "CA", "city": "Scarborough", "state": "ON", "country": "Canada", "formattedAddress": ["1371 Kennedy Road", "Scarborough ON M1P 2L6", "Canada"]}, "categories": [{"id": "4bf58dd8d48988d124951735", "name": "Automotive Shop", "pluralName": "Automotive Shops", "shortName": "Automotive", "icon": {"prefix": "https://ss3.4sqi.net/img/categories_v2/shops/automotive_", "suffix": ".png"}, "primary": true}], "photos": {"count": 0, "groups": []}}, "referralId": "e-0-4cc04f03611abfb7db6ba605-34"}, {"reasons": {"count": 0, "items": [{"summary": "This spot is popular", "type": "general", "reasonName": "globalInteractionReason"}]}, "venue": {"id": "4b0bdcc3f964a520363423e3", "name": "Lawrence East RT Station", "location": {"address": "2444 Lawrence Ave E", "crossStreet": "at Midland Ave.", "lat": 43.75038338963791, "lng": -79.27019163966177, "labeledLatLngs": [{"label": "display", "lat": 43.75038338963791, "lng": -79.27019163966177}], "distance": 821, "postalCode": "M1P 4S5", "cc": "CA", "city": "Toronto", "state": "ON", "country": "Canada", "formattedAddress": ["2444 Lawrence Ave E (at Midland Ave.)", "Toronto ON M1P 4S5", "Canada"]}, "categories": [{"id": "4bf58dd8d48988d1fc931735", "name": "Light Rail Station", "pluralName": "Light Rail Stations", "shortName": "Light Rail", "icon": {"prefix": "https://ss3.4sqi.net/img/categories_v2/travel/lightrail_", "suffix": ".png"}, "primary": true}], "photos": {"count": 0, "groups": []}}, "referralId": "e-0-4b0bdcc3f964a520363423e3-35"}, {"reasons": {"count": 0, "items": [{"summary": "This spot is popular", "type": "general", "reasonName": "globalInteractionReason"}]}, "venue": {"id": "4f5bd5b7e4b0d8f7b6699db0", "name": "Cake House Bakery", "location": {"address": "Lawrence Ave.", "lat": 43.750564158244494, "lng": -79.27714901348529, "labeledLatLngs": [{"label": "display", "lat": 43.750564158244494, "lng": -79.27714901348529}], "distance": 822, "cc": "CA", "city": "Toronto", "state": "ON", "country": "Canada", "formattedAddress": ["Lawrence Ave.", "Toronto ON", "Canada"]}, "categories": [{"id": "4bf58dd8d48988d16a941735", "name": "Bakery", "pluralName": "Bakeries", "shortName": "Bakery", "icon": {"prefix": "https://ss3.4sqi.net/img/categories_v2/food/bakery_", "suffix": ".png"}, "primary": true}], "photos": {"count": 0, "groups": []}}, "referralId": "e-0-4f5bd5b7e4b0d8f7b6699db0-36"}, {"reasons": {"count": 0, "items": [{"summary": "This spot is popular", "type": "general", "reasonName": "globalInteractionReason"}]}, "venue": {"id": "4e341fd652b11c746229df0a", "name": "White Shield Plaza", "location": {"address": "2300 Lawrence Ave E.", "crossStreet": "Kennedy Rd and Lawrence Ave E", "lat": 43.750566232551144, "lng": -79.27750444784891, "labeledLatLngs": [{"label": "display", "lat": 43.750566232551144, "lng": -79.27750444784891}], "distance": 833, "cc": "CA", "city": "Toronto", "state": "ON", "country": "Canada", "formattedAddress": ["2300 Lawrence Ave E. (Kennedy Rd and Lawrence Ave E)", "Toronto ON", "Canada"]}, "categories": [{"id": "4bf58dd8d48988d164941735", "name": "Plaza", "pluralName": "Plazas", "shortName": "Plaza", "icon": {"prefix": "https://ss3.4sqi.net/img/categories_v2/parks_outdoors/plaza_", "suffix": ".png"}, "primary": true}], "photos": {"count": 0, "groups": []}}, "referralId": "e-0-4e341fd652b11c746229df0a-37"}, {"reasons": {"count": 0, "items": [{"summary": "This spot is popular", "type": "general", "reasonName": "globalInteractionReason"}]}, "venue": {"id": "4e73cb661e174a78d022f7d7", "name": "Bluenotes", "location": {"address": "2300 Lawrence Ave E.,Unit #20A", "crossStreet": "White Shields Plaza", "lat": 43.750378, "lng": -79.277179, "labeledLatLngs": [{"label": "display", "lat": 43.750378, "lng": -79.277179}], "distance": 842, "postalCode": "M1P 2R2", "cc": "CA", "city": "Scarborough", "state": "ON", "country": "Canada", "formattedAddress": ["2300 Lawrence Ave E.,Unit #20A (White Shields Plaza)", "Scarborough ON M1P 2R2", "Canada"]}, "categories": [{"id": "4bf58dd8d48988d103951735", "name": "Clothing Store", "pluralName": "Clothing Stores", "shortName": "Apparel", "icon": {"prefix": "https://ss3.4sqi.net/img/categories_v2/shops/apparel_", "suffix": ".png"}, "primary": true}], "photos": {"count": 0, "groups": []}}, "referralId": "e-0-4e73cb661e174a78d022f7d7-38"}, {"reasons": {"count": 0, "items": [{"summary": "This spot is popular", "type": "general", "reasonName": "globalInteractionReason"}]}, "venue": {"id": "4b9bfcf1f964a520e63d36e3", "name": "Kennedy Bowlerama", "location": {"address": "2300 Lawrence Ave. E", "crossStreet": "at Kennedy Rd.", "lat": 43.750512149749966, "lng": -79.27704001209094, "labeledLatLngs": [{"label": "display", "lat": 43.750512149749966, "lng": -79.27704001209094}], "distance": 824, "postalCode": "M1P 2R2", "cc": "CA", "city": "Toronto", "state": "ON", "country": "Canada", "formattedAddress": ["2300 Lawrence Ave. E (at Kennedy Rd.)", "Toronto ON M1P 2R2", "Canada"]}, "categories": [{"id": "4bf58dd8d48988d1e4931735", "name": "Bowling Alley", "pluralName": "Bowling Alleys", "shortName": "Bowling Alley", "icon": {"prefix": "https://ss3.4sqi.net/img/categories_v2/arts_entertainment/bowling_", "suffix": ".png"}, "primary": true}], "photos": {"count": 0, "groups": []}}, "referralId": "e-0-4b9bfcf1f964a520e63d36e3-39"}, {"reasons": {"count": 0, "items": [{"summary": "This spot is popular", "type": "general", "reasonName": "globalInteractionReason"}]}, "venue": {"id": "4e1b9ded52b1218fa015dcf2", "name": "Donwood Park", "location": {"address": "35 Highbrook Dr.", "crossStreet": "at Dorcot Ave.", "lat": 43.756075796329334, "lng": -79.26264873378759, "labeledLatLngs": [{"label": "display", "lat": 43.756075796329334, "lng": -79.26264873378759}], "distance": 869, "postalCode": "M1P 3L2", "cc": "CA", "city": "Toronto", "state": "ON", "country": "Canada", "formattedAddress": ["35 Highbrook Dr. (at Dorcot Ave.)", "Toronto ON M1P 3L2", "Canada"]}, "categories": [{"id": "4bf58dd8d48988d163941735", "name": "Park", "pluralName": "Parks", "shortName": "Park", "icon": {"prefix": "https://ss3.4sqi.net/img/categories_v2/parks_outdoors/park_", "suffix": ".png"}, "primary": true}], "photos": {"count": 0, "groups": []}}, "referralId": "e-0-4e1b9ded52b1218fa015dcf2-40"}, {"reasons": {"count": 0, "items": [{"summary": "This spot is popular", "type": "general", "reasonName": "globalInteractionReason"}]}, "venue": {"id": "4e1303d31838f8ad8169b264", "name": "Lawrence Ave E & Kennedy Rd", "location": {"address": "Lawrence Ave E", "crossStreet": "at Kennedy Rd", "lat": 43.74966489476552, "lng": -79.27501870306043, "labeledLatLngs": [{"label": "display", "lat": 43.74966489476552, "lng": -79.27501870306043}], "distance": 873, "cc": "CA", "city": "Scarborough", "state": "ON", "country": "Canada", "formattedAddress": ["Lawrence Ave E (at Kennedy Rd)", "Scarborough ON", "Canada"]}, "categories": [{"id": "52f2ab2ebcbc57f1066b8b4c", "name": "Intersection", "pluralName": "Intersections", "shortName": "Intersection", "icon": {"prefix": "https://ss3.4sqi.net/img/categories_v2/travel/default_", "suffix": ".png"}, "primary": true}], "photos": {"count": 0, "groups": []}}, "referralId": "e-0-4e1303d31838f8ad8169b264-41"}, {"reasons": {"count": 0, "items": [{"summary": "This spot is popular", "type": "general", "reasonName": "globalInteractionReason"}]}, "venue": {"id": "50d88665e4b06651e2b9cc07", "name": "Dollarama", "location": {"address": "2300 Lawrence Ave E,White Shield Plaza", "lat": 43.74965, "lng": -79.277048, "labeledLatLngs": [{"label": "display", "lat": 43.74965, "lng": -79.277048}], "distance": 914, "postalCode": "M1P 2R2", "cc": "CA", "city": "Scarborough", "state": "ON", "country": "Canada", "formattedAddress": ["2300 Lawrence Ave E,White Shield Plaza", "Scarborough ON M1P 2R2", "Canada"]}, "categories": [{"id": "52dea92d3cf9994f4e043dbb", "name": "Discount Store", "pluralName": "Discount Stores", "shortName": "Discount Store", "icon": {"prefix": "https://ss3.4sqi.net/img/categories_v2/shops/discountstore_", "suffix": ".png"}, "primary": true}], "photos": {"count": 0, "groups": []}}, "referralId": "e-0-50d88665e4b06651e2b9cc07-42"}, {"reasons": {"count": 0, "items": [{"summary": "This spot is popular", "type": "general", "reasonName": "globalInteractionReason"}]}, "venue": {"id": "4c49dcbe82319521d6adcdf2", "name": "Factory Direct", "location": {"address": "1420 Kennedy Rd", "crossStreet": "Ellesmere Rd", "lat": 43.76418274430379, "lng": -79.28013324737549, "labeledLatLngs": [{"label": "display", "lat": 43.76418274430379, "lng": -79.28013324737549}], "distance": 932, "postalCode": "M1P 2L7", "cc": "CA", "city": "Scarborough", "state": "ON", "country": "Canada", "formattedAddress": ["1420 Kennedy Rd (Ellesmere Rd)", "Scarborough ON M1P 2L7", "Canada"]}, "categories": [{"id": "4bf58dd8d48988d122951735", "name": "Electronics Store", "pluralName": "Electronics Stores", "shortName": "Electronics", "icon": {"prefix": "https://ss3.4sqi.net/img/categories_v2/shops/technology_", "suffix": ".png"}, "primary": true}], "photos": {"count": 0, "groups": []}}, "referralId": "e-0-4c49dcbe82319521d6adcdf2-43"}, {"reasons": {"count": 0, "items": [{"summary": "This spot is popular", "type": "general", "reasonName": "globalInteractionReason"}]}, "venue": {"id": "4ca3572aa73cb60ca2d61778", "name": "2001 Audio Video", "location": {"address": "1420 Kennedy Rd", "lat": 43.76409, "lng": -79.2809271812416, "labeledLatLngs": [{"label": "display", "lat": 43.76409, "lng": -79.2809271812416}], "distance": 963, "cc": "CA", "city": "Toronto", "state": "ON", "country": "Canada", "formattedAddress": ["1420 Kennedy Rd", "Toronto ON", "Canada"]}, "categories": [{"id": "4bf58dd8d48988d124951735", "name": "Automotive Shop", "pluralName": "Automotive Shops", "shortName": "Automotive", "icon": {"prefix": "https://ss3.4sqi.net/img/categories_v2/shops/automotive_", "suffix": ".png"}, "primary": true}], "photos": {"count": 0, "groups": []}}, "referralId": "e-0-4ca3572aa73cb60ca2d61778-44"}, {"reasons": {"count": 0, "items": [{"summary": "This spot is popular", "type": "general", "reasonName": "globalInteractionReason"}]}, "venue": {"id": "57878fef498e8b657945dec5", "name": "Patisserie Royale", "location": {"lat": 43.764908, "lng": -79.279904, "labeledLatLngs": [{"label": "display", "lat": 43.764908, "lng": -79.279904}], "distance": 989, "cc": "CA", "country": "Canada", "formattedAddress": ["Canada"]}, "categories": [{"id": "4bf58dd8d48988d1d0941735", "name": "Dessert Shop", "pluralName": "Dessert Shops", "shortName": "Desserts", "icon": {"prefix": "https://ss3.4sqi.net/img/categories_v2/food/dessert_", "suffix": ".png"}, "primary": true}], "photos": {"count": 0, "groups": []}}, "referralId": "e-0-57878fef498e8b657945dec5-45"}]}]}}