{"meta": {"code": 200, "requestId": "5e19739d6d8c56001b0bf512"}, "response": {"headerLocation": "Sunnybrook - York Mills", "headerFullLocation": "Sunnybrook - York Mills, Toronto", "headerLocationGranularity": "neighborhood", "totalResults": 31, "suggestedBounds": {"ne": {"lat": 43.754860808955, "lng": -79.33981518236935}, "sw": {"lat": 43.73695079104499, "lng": -79.36456081763065}}, "groups": [{"type": "Recommended Places", "name": "recommended", "items": [{"reasons": {"count": 0, "items": [{"summary": "This spot is popular", "type": "general", "reasonName": "globalInteractionReason"}]}, "venue": {"id": "4b0aed06f964a520202a23e3", "name": "Island Foods", "location": {"address": "1310 Don Mills Rd.", "lat": 43.745866073988985, "lng": -79.34603533317939, "labeledLatLngs": [{"label": "display", "lat": 43.745866073988985, "lng": -79.34603533317939}], "distance": 494, "cc": "CA", "city": "Toronto", "state": "ON", "country": "Canada", "formattedAddress": ["1310 Don Mills Rd.", "Toronto ON", "Canada"]}, "categories": [{"id": "4bf58dd8d48988d144941735", "name": "Caribbean Restaurant", "pluralName": "Caribbean Restaurants", "shortName": "Caribbean", "icon": {"prefix": "https://ss3.4sqi.net/img/categories_v2/food/caribbean_", "suffix": ".png"}, "primary": true}], "photos": {"count": 0, "groups": []}}, "referralId": "e-0-4b0aed06f964a520202a23e3-0"}, {"reasons": {"count": 0, "items": [{"summary": "This spot is popular", "type": "general", "reasonName": "globalInteractionReason"}]}, "venue": {"id": "4c18e819d4d9c9284e19f029", "name": "LA Fitness", "location": {"address": "1380 Don Mills Road", "crossStreet": "Mallard Rd", "lat": 43.74766522888878, "lng": -79.34707696065234, "labeledLatLngs": [{"label": "display", "lat": 43.74766522888878, "lng": -79.34707696065234}], "distance": 455, "postalCode": "M3B 2X2", "cc": "CA", "city": "Toronto", "state": "ON", "country": "Canada", "formattedAddress": ["1380 Don Mills Road (Mallard Rd)", "Toronto ON M3B 2X2", "Canada"]}, "categories": [{"id": "4bf58dd8d48988d175941735", "name": "Gym / Fitness Center", "pluralName": "Gyms or Fitness Centers", "shortName": "Gym / Fitness", "icon": {"prefix": "https://ss3.4sqi.net/img/categories_v2/building/gym_", "suffix": ".png"}, "primary": true}], "photos": {"count": 0, "groups": []}}, "referralId": "e-0-4c18e819d4d9c9284e19f029-1"}, {"reasons": {"count": 0, "items": [{"summary": "This spot is popular", "type": "general", "reasonName": "globalInteractionReason"}]}, "venue": {"id": "50c3ae15e4b08c3b596c6069", "name": "Baretto Caff\u00e9", "location": {"address": "1262 Don Mills Rd", "lat": 43.74445646349851, "lng": -79.34645978471785, "labeledLatLngs": [{"label": "display", "lat": 43.74445646349851, "lng": -79.34645978471785}], "distance": 488, "cc": "CA", "city": "Toronto", "state": "ON", "country": "Canada", "formattedAddress": ["1262 Don Mills Rd", "Toronto ON", "Canada"]}, "categories": [{"id": "4bf58dd8d48988d16d941735", "name": "Caf\u00e9", "pluralName": "Caf\u00e9s", "shortName": "Caf\u00e9", "icon": {"prefix": "https://ss3.4sqi.net/img/categories_v2/food/cafe_", "suffix": ".png"}, "primary": true}], "photos": {"count": 0, "groups": []}}, "referralId": "e-0-50c3ae15e4b08c3b596c6069-2"}, {"reasons": {"count": 0, "items": [{"summary": "This spot is popular", "type": "general", "reasonName": "globalInteractionReason"}]}, "venue": {"id": "53bafb4f498eb927faa3cd9e", "name": "Matsuda Japanese Cuisine & Teppanyaki", "location": {"address": "1300 Don Mills Rd #2", "lat": 43.74549366550305, "lng": -79.34582141079446, "labeledLatLngs": [{"label": "display", "lat": 43.74549366550305, "lng": -79.34582141079446}], "distance": 514, "postalCode": "M3B 2W6", "cc": "CA", "city": "North York", "state": "ON", "country": "Canada", "formattedAddress": ["1300 Don Mills Rd #2", "North York ON M3B 2W6", "Canada"]}, "categories": [{"id": "4bf58dd8d48988d111941735", "name": "Japanese Restaurant", "pluralName": "Japanese Restaurants", "shortName": "Japanese", "icon": {"prefix": "https://ss3.4sqi.net/img/categories_v2/food/japanese_", "suffix": ".png"}, "primary": true}], "photos": {"count": 0, "groups": []}}, "referralId": "e-0-53bafb4f498eb927faa3cd9e-3"}, {"reasons": {"count": 0, "items": [{"summary": "This spot is popular", "type": "general", "reasonName": "globalInteractionReason"}]}, "venue": {"id": "4ccec87654f0b1f7f32824ca", "name": "Galleria Supermarket", "location": {"address": "865 York Mills Rd.", "crossStreet": "at Upjohn Rd.", "lat": 43.75352001200256, "lng": -79.34951815337949, "labeledLatLngs": [{"label": "display", "lat": 43.75352001200256, "lng": -79.34951815337949}], "distance": 874, "postalCode": "M3B 1Y5", "cc": "CA", "city": "Toronto", "state": "ON", "country": "Canada", "formattedAddress": ["865 York Mills Rd. (at Upjohn Rd.)", "Toronto ON M3B 1Y5", "Canada"]}, "categories": [{"id": "52f2ab2ebcbc57f1066b8b46", "name": "Supermarket", "pluralName": "Supermarkets", "shortName": "Supermarket", "icon": {"prefix": "https://ss3.4sqi.net/img/categories_v2/shops/food_grocery_", "suffix": ".png"}, "primary": true}], "photos": {"count": 0, "groups": []}}, "referralId": "e-0-4ccec87654f0b1f7f32824ca-4"}, {"reasons": {"count": 0, "items": [{"summary": "This spot is popular", "type": "general", "reasonName": "globalInteractionReason"}]}, "venue": {"id": "4c90e5059087199ca2c6af31", "name": "Dragon Pearl Buffet \u9f8d\u73e0", "location": {"address": "865 York Mills Rd.", "crossStreet": "at Upjohn Rd.", "lat": 43.75369318998213, "lng": -79.34973027195959, "labeledLatLngs": [{"label": "display", "lat": 43.75369318998213, "lng": -79.34973027195959}], "distance": 889, "postalCode": "M3B 1Y6", "cc": "CA", "city": "Toronto", "state": "ON", "country": "Canada", "formattedAddress": ["865 York Mills Rd. (at Upjohn Rd.)", "Toronto ON M3B 1Y6", "Canada"]}, "categories": [{"id": "4bf58dd8d48988d142941735", "name": "Asian Restaurant", "pluralName": "Asian Restaurants", "shortName": "Asian", "icon": {"prefix": "https://ss3.4sqi.net/img/categories_v2/food/asian_", "suffix": ".png"}, "primary": true}], "photos": {"count": 0, "groups": []}}, "referralId": "e-0-4c90e5059087199ca2c6af31-5"}, {"reasons": {"count": 0, "items": [{"summary": "This spot is popular", "type": "general", "reasonName": "globalInteractionReason"}]}, "venue": {"id": "4ae0e2a7f964a5205f8321e3", "name": "Starbucks", "location": {"address": "861 York Mills Rd,York Mills & Lesmill", "crossStreet": "at Lesmill Rd", "lat": 43.754199, "lng": -79.351382, "labeledLatLngs": [{"label": "display", "lat": 43.754199, "lng": -79.351382}], "distance": 925, "postalCode": "M3B 1Y2", "cc": "CA", "city": "North York", "state": "ON", "country": "Canada", "formattedAddress": ["861 York Mills Rd,York Mills & Lesmill (at Lesmill Rd)", "North York ON M3B 1Y2", "Canada"]}, "categories": [{"id": "4bf58dd8d48988d1e0931735", "name": "Coffee Shop", "pluralName": "Coffee Shops", "shortName": "Coffee Shop", "icon": {"prefix": "https://ss3.4sqi.net/img/categories_v2/food/coffeeshop_", "suffix": ".png"}, "primary": true}], "photos": {"count": 0, "groups": []}}, "referralId": "e-0-4ae0e2a7f964a5205f8321e3-6"}, {"reasons": {"count": 0, "items": [{"summary": "This spot is popular", "type": "general", "reasonName": "globalInteractionReason"}]}, "venue": {"id": "4b639286f964a5203c842ae3", "name": "Gonoe Sushi", "location": {"address": "1310 Don Mills Rd, Unit 1", "crossStreet": "at Bond Ave.", "lat": 43.74573681959921, "lng": -79.34599119916211, "labeledLatLngs": [{"label": "display", "lat": 43.74573681959921, "lng": -79.34599119916211}], "distance": 498, "postalCode": "M3B 2W6", "cc": "CA", "city": "Toronto", "state": "ON", "country": "Canada", "formattedAddress": ["1310 Don Mills Rd, Unit 1 (at Bond Ave.)", "Toronto ON M3B 2W6", "Canada"]}, "categories": [{"id": "4bf58dd8d48988d111941735", "name": "Japanese Restaurant", "pluralName": "Japanese Restaurants", "shortName": "Japanese", "icon": {"prefix": "https://ss3.4sqi.net/img/categories_v2/food/japanese_", "suffix": ".png"}, "primary": true}], "photos": {"count": 0, "groups": []}}, "referralId": "e-0-4b639286f964a5203c842ae3-7"}, {"reasons": {"count": 0, "items": [{"summary": "This spot is popular", "type": "general", "reasonName": "globalInteractionReason"}]}, "venue": {"id": "4b607041f964a520ede529e3", "name": "Freshii", "location": {"address": "861 York Mills Rd.", "crossStreet": "Lesmill Rd.", "lat": 43.75422087020506, "lng": -79.35166465666757, "labeledLatLngs": [{"label": "display", "lat": 43.75422087020506, "lng": -79.35166465666757}], "distance": 926, "postalCode": "M3B 1Y2", "cc": "CA", "city": "Toronto", "state": "ON", "country": "Canada", "formattedAddress": ["861 York Mills Rd. (Lesmill Rd.)", "Toronto ON M3B 1Y2", "Canada"]}, "categories": [{"id": "4bf58dd8d48988d1bd941735", "name": "Salad Place", "pluralName": "Salad Places", "shortName": "Salad", "icon": {"prefix": "https://ss3.4sqi.net/img/categories_v2/food/salad_", "suffix": ".png"}, "primary": true}], "photos": {"count": 0, "groups": []}}, "referralId": "e-0-4b607041f964a520ede529e3-8"}, {"reasons": {"count": 0, "items": [{"summary": "This spot is popular", "type": "general", "reasonName": "globalInteractionReason"}]}, "venue": {"id": "4fc7a0dfe4b0a6960d193b28", "name": "Five Guys", "location": {"address": "865 York Mills Rd", "lat": 43.754557616147856, "lng": -79.35025793561805, "labeledLatLngs": [{"label": "display", "lat": 43.754557616147856, "lng": -79.35025793561805}], "distance": 975, "postalCode": "M3B 1Y6", "cc": "CA", "city": "Toronto", "state": "ON", "country": "Canada", "formattedAddress": ["865 York Mills Rd", "Toronto ON M3B 1Y6", "Canada"]}, "categories": [{"id": "4bf58dd8d48988d16c941735", "name": "Burger Joint", "pluralName": "Burger Joints", "shortName": "Burgers", "icon": {"prefix": "https://ss3.4sqi.net/img/categories_v2/food/burger_", "suffix": ".png"}, "primary": true}], "photos": {"count": 0, "groups": []}}, "referralId": "e-0-4fc7a0dfe4b0a6960d193b28-9"}, {"reasons": {"count": 0, "items": [{"summary": "This spot is popular", "type": "general", "reasonName": "globalInteractionReason"}]}, "venue": {"id": "5786c16c498e4566f93f057f", "name": "Big Smoke Burger", "location": {"lat": 43.752836, "lng": -79.358998, "labeledLatLngs": [{"label": "display", "lat": 43.752836, "lng": -79.358998}], "distance": 946, "cc": "CA", "country": "Canada", "formattedAddress": ["Canada"]}, "categories": [{"id": "4bf58dd8d48988d16c941735", "name": "Burger Joint", "pluralName": "Burger Joints", "shortName": "Burgers", "icon": {"prefix": "https://ss3.4sqi.net/img/categories_v2/food/burger_", "suffix": ".png"}, "primary": true}], "photos": {"count": 0, "groups": []}}, "referralId": "e-0-5786c16c498e4566f93f057f-10"}, {"reasons": {"count": 0, "items": [{"summary": "This spot is popular", "type": "general", "reasonName": "globalInteractionReason"}]}, "venue": {"id": "4d6d1a39cf7e41bdd7c18285", "name": "TD Canada Trust", "location": {"address": "1470 Don Mills Rd", "crossStreet": "at York Mills Rd.", "lat": 43.75325278607611, "lng": -79.34785097837448, "labeledLatLngs": [{"label": "display", "lat": 43.75325278607611, "lng": -79.34785097837448}], "distance": 889, "postalCode": "M3B 2X9", "cc": "CA", "city": "Don Mills", "state": "ON", "country": "Canada", "formattedAddress": ["1470 Don Mills Rd (at York Mills Rd.)", "Don Mills ON M3B 2X9", "Canada"]}, "categories": [{"id": "4bf58dd8d48988d10a951735", "name": "Bank", "pluralName": "Banks", "shortName": "Bank", "icon": {"prefix": "https://ss3.4sqi.net/img/categories_v2/shops/financial_", "suffix": ".png"}, "primary": true}], "photos": {"count": 0, "groups": []}}, "referralId": "e-0-4d6d1a39cf7e41bdd7c18285-11"}, {"reasons": {"count": 0, "items": [{"summary": "This spot is popular", "type": "general", "reasonName": "globalInteractionReason"}]}, "venue": {"id": "4af0bb68f964a520aade21e3", "name": "Thai One On", "location": {"address": "861 York Mills Rd", "crossStreet": "btwn Leslie & Don Mills", "lat": 43.75458309476642, "lng": -79.35154293935814, "labeledLatLngs": [{"label": "display", "lat": 43.75458309476642, "lng": -79.35154293935814}], "distance": 967, "postalCode": "M3B 1Y2", "cc": "CA", "city": "Toronto", "state": "ON", "country": "Canada", "formattedAddress": ["861 York Mills Rd (btwn Leslie & Don Mills)", "Toronto ON M3B 1Y2", "Canada"]}, "categories": [{"id": "4bf58dd8d48988d149941735", "name": "Thai Restaurant", "pluralName": "Thai Restaurants", "shortName": "Thai", "icon": {"prefix": "https://ss3.4sqi.net/img/categories_v2/food/thai_", "suffix": ".png"}, "primary": true}], "photos": {"count": 0, "groups": []}}, "referralId": "e-0-4af0bb68f964a520aade21e3-12"}, {"reasons": {"count": 0, "items": [{"summary": "This spot is popular", "type": "general", "reasonName": "globalInteractionReason"}]}, "venue": {"id": "4fc017f0e4b0d65549eaa6af", "name": "LCBO", "location": {"address": "808 York Mills Rd", "lat": 43.75413318628438, "lng": -79.35705066710972, "labeledLatLngs": [{"label": "display", "lat": 43.75413318628438, "lng": -79.35705066710972}], "distance": 995, "postalCode": "M3B 1X8", "cc": "CA", "city": "Toronto", "state": "ON", "country": "Canada", "formattedAddress": ["808 York Mills Rd", "Toronto ON M3B 1X8", "Canada"]}, "categories": [{"id": "4bf58dd8d48988d186941735", "name": "Liquor Store", "pluralName": "Liquor Stores", "shortName": "Liquor Store", "icon": {"prefix": "https://ss3.4sqi.net/img/categories_v2/shops/food_liquor_", "suffix": ".png"}, "primary": true}], "photos": {"count": 0, "groups": []}}, "referralId": "e-0-4fc017f0e4b0d65549eaa6af-13"}, {"reasons": {"count": 0, "items": [{"summary": "This spot is popular", "type": "general", "reasonName": "globalInteractionReason"}]}, "venue": {"id": "4e7205d21495e4ca141d5e8d", "name": "Fox & Fiddle", "location": {"address": "865 York Mills Rd.", "crossStreet": "at Upjohn Rd.", "lat": 43.754614191604695, "lng": -79.35015907581386, "labeledLatLngs": [{"label": "display", "lat": 43.754614191604695, "lng": -79.35015907581386}], "distance": 983, "postalCode": "M3B 1Y6", "cc": "CA", "city": "Toronto", "state": "ON", "country": "Canada", "formattedAddress": ["865 York Mills Rd. (at Upjohn Rd.)", "Toronto ON M3B 1Y6", "Canada"]}, "categories": [{"id": "4bf58dd8d48988d116941735", "name": "Bar", "pluralName": "Bars", "shortName": "Bar", "icon": {"prefix": "https://ss3.4sqi.net/img/categories_v2/nightlife/pub_", "suffix": ".png"}, "primary": true}], "photos": {"count": 0, "groups": []}}, "referralId": "e-0-4e7205d21495e4ca141d5e8d-14"}, {"reasons": {"count": 0, "items": [{"summary": "This spot is popular", "type": "general", "reasonName": "globalInteractionReason"}]}, "venue": {"id": "4bf97f505ec320a18a598ad3", "name": "Bond Park", "location": {"crossStreet": "Bond Ave. & Scarsdale Rd.", "lat": 43.74537356928136, "lng": -79.35124509707558, "labeledLatLngs": [{"label": "display", "lat": 43.74537356928136, "lng": -79.35124509707558}], "distance": 96, "cc": "CA", "city": "Toronto", "state": "ON", "country": "Canada", "formattedAddress": ["Toronto ON", "Canada"]}, "categories": [{"id": "4bf58dd8d48988d1e8941735", "name": "Baseball Field", "pluralName": "Baseball Fields", "shortName": "Baseball Field", "icon": {"prefix": "https://ss3.4sqi.net/img/categories_v2/parks_outdoors/baseballfield_", "suffix": ".png"}, "primary": true}], "photos": {"count": 0, "groups": []}}, "referralId": "e-0-4bf97f505ec320a18a598ad3-15"}, {"reasons": {"count": 0, "items": [{"summary": "This spot is popular", "type": "general", "reasonName": "globalInteractionReason"}]}, "venue": {"id": "4b53cc0cf964a520a3ab27e3", "name": "Windfields Restaurant", "location": {"address": "801 York Mills Road", "lat": 43.75330963411871, "lng": -79.3588366714113, "labeledLatLngs": [{"label": "display", "lat": 43.75330963411871, "lng": -79.3588366714113}], "distance": 982, "postalCode": "M3B", "cc": "CA", "city": "Toronto", "state": "ON", "country": "Canada", "formattedAddress": ["801 York Mills Road", "Toronto ON M3B", "Canada"]}, "categories": [{"id": "4bf58dd8d48988d147941735", "name": "Diner", "pluralName": "Diners", "shortName": "Diner", "icon": {"prefix": "https://ss3.4sqi.net/img/categories_v2/food/diner_", "suffix": ".png"}, "primary": true}], "photos": {"count": 0, "groups": []}}, "referralId": "e-0-4b53cc0cf964a520a3ab27e3-16"}, {"reasons": {"count": 0, "items": [{"summary": "This spot is popular", "type": "general", "reasonName": "globalInteractionReason"}]}, "venue": {"id": "4e9752bfbe7ba85e57df02ad", "name": "Cora Breakfast and Lunch", "location": {"address": "861 York Mills Rd, Unit 8", "crossStreet": "Don Mills and York Mills", "lat": 43.75449613817272, "lng": -79.35140124066076, "labeledLatLngs": [{"label": "display", "lat": 43.75449613817272, "lng": -79.35140124066076}], "distance": 958, "postalCode": "M3B 1Y2", "cc": "CA", "city": "Toronto", "state": "ON", "country": "Canada", "formattedAddress": ["861 York Mills Rd, Unit 8 (Don Mills and York Mills)", "Toronto ON M3B 1Y2", "Canada"]}, "categories": [{"id": "4bf58dd8d48988d143941735", "name": "Breakfast Spot", "pluralName": "Breakfast Spots", "shortName": "Breakfast", "icon": {"prefix": "https://ss3.4sqi.net/img/categories_v2/food/breakfast_", "suffix": ".png"}, "primary": true}], "photos": {"count": 0, "groups": []}}, "referralId": "e-0-4e9752bfbe7ba85e57df02ad-17"}, {"reasons": {"count": 0, "items": [{"summary": "This spot is popular", "type": "general", "reasonName": "globalInteractionReason"}]}, "venue": {"id": "4bd5bd1a29eb9c7434ce93e1", "name": "Teriyaki Experience", "location": {"address": "861 York Mills Rd.", "crossStreet": "at Upjohn Rd.", "lat": 43.75446786614047, "lng": -79.35142413697658, "labeledLatLngs": [{"label": "display", "lat": 43.75446786614047, "lng": -79.35142413697658}], "distance": 955, "postalCode": "M3B 1Y2", "cc": "CA", "city": "Toronto", "state": "ON", "country": "Canada", "formattedAddress": ["861 York Mills Rd. (at Upjohn Rd.)", "Toronto ON M3B 1Y2", "Canada"]}, "categories": [{"id": "4bf58dd8d48988d111941735", "name": "Japanese Restaurant", "pluralName": "Japanese Restaurants", "shortName": "Japanese", "icon": {"prefix": "https://ss3.4sqi.net/img/categories_v2/food/japanese_", "suffix": ".png"}, "primary": true}], "photos": {"count": 0, "groups": []}}, "referralId": "e-0-4bd5bd1a29eb9c7434ce93e1-18"}, {"reasons": {"count": 0, "items": [{"summary": "This spot is popular", "type": "general", "reasonName": "globalInteractionReason"}]}, "venue": {"id": "4be836719a54a59383ac0911", "name": "Pizza Hut", "location": {"address": "#5 861 York Mills Rd", "lat": 43.75454938321482, "lng": -79.35156517121663, "labeledLatLngs": [{"label": "display", "lat": 43.75454938321482, "lng": -79.35156517121663}], "distance": 963, "postalCode": "M3B 1Y4", "cc": "CA", "city": "Toronto", "state": "ON", "country": "Canada", "formattedAddress": ["#5 861 York Mills Rd", "Toronto ON M3B 1Y4", "Canada"]}, "categories": [{"id": "4bf58dd8d48988d1ca941735", "name": "Pizza Place", "pluralName": "Pizza Places", "shortName": "Pizza", "icon": {"prefix": "https://ss3.4sqi.net/img/categories_v2/food/pizza_", "suffix": ".png"}, "primary": true}], "photos": {"count": 0, "groups": []}}, "referralId": "e-0-4be836719a54a59383ac0911-19"}, {"reasons": {"count": 0, "items": [{"summary": "This spot is popular", "type": "general", "reasonName": "globalInteractionReason"}]}, "venue": {"id": "4ae4da54f964a520d49e21e3", "name": "Mr. Greek", "location": {"address": "861 York Mills Rd", "lat": 43.754386293180715, "lng": -79.35168960659244, "labeledLatLngs": [{"label": "display", "lat": 43.754386293180715, "lng": -79.35168960659244}], "distance": 944, "postalCode": "M3B 1Y2", "cc": "CA", "city": "Toronto", "state": "ON", "country": "Canada", "formattedAddress": ["861 York Mills Rd", "Toronto ON M3B 1Y2", "Canada"]}, "categories": [{"id": "4bf58dd8d48988d10e941735", "name": "Greek Restaurant", "pluralName": "Greek Restaurants", "shortName": "Greek", "icon": {"prefix": "https://ss3.4sqi.net/img/categories_v2/food/greek_", "suffix": ".png"}, "primary": true}], "photos": {"count": 0, "groups": []}}, "referralId": "e-0-4ae4da54f964a520d49e21e3-20"}, {"reasons": {"count": 0, "items": [{"summary": "This spot is popular", "type": "general", "reasonName": "globalInteractionReason"}]}, "venue": {"id": "4b53b917f964a52038a927e3", "name": "Swiss Chalet Rotisserie & Grill", "location": {"address": "801 York Mills Rd.", "lat": 43.75333734109435, "lng": -79.35784591691352, "labeledLatLngs": [{"label": "display", "lat": 43.75333734109435, "lng": -79.35784591691352}], "distance": 944, "postalCode": "M3B 1X7", "cc": "CA", "city": "North York", "state": "ON", "country": "Canada", "formattedAddress": ["801 York Mills Rd.", "North York ON M3B 1X7", "Canada"]}, "categories": [{"id": "4bf58dd8d48988d1c4941735", "name": "Restaurant", "pluralName": "Restaurants", "shortName": "Restaurant", "icon": {"prefix": "https://ss3.4sqi.net/img/categories_v2/food/default_", "suffix": ".png"}, "primary": true}], "photos": {"count": 0, "groups": []}}, "referralId": "e-0-4b53b917f964a52038a927e3-21"}, {"reasons": {"count": 0, "items": [{"summary": "This spot is popular", "type": "general", "reasonName": "globalInteractionReason"}]}, "venue": {"id": "4d64085f1a83f04d001c7a2b", "name": "Postmedia Cafeteria", "location": {"address": "1450 Don Mills Rd.", "crossStreet": "Don Mills & York Mills", "lat": 43.75255721877985, "lng": -79.34786928794301, "labeledLatLngs": [{"label": "display", "lat": 43.75255721877985, "lng": -79.34786928794301}], "distance": 817, "postalCode": "M3B 2X7", "cc": "CA", "city": "Toronto", "state": "ON", "country": "Canada", "formattedAddress": ["1450 Don Mills Rd. (Don Mills & York Mills)", "Toronto ON M3B 2X7", "Canada"]}, "categories": [{"id": "4bf58dd8d48988d1e0931735", "name": "Coffee Shop", "pluralName": "Coffee Shops", "shortName": "Coffee Shop", "icon": {"prefix": "https://ss3.4sqi.net/img/categories_v2/food/coffeeshop_", "suffix": ".png"}, "primary": true}], "photos": {"count": 0, "groups": []}}, "referralId": "e-0-4d64085f1a83f04d001c7a2b-22"}, {"reasons": {"count": 0, "items": [{"summary": "This spot is popular", "type": "general", "reasonName": "globalInteractionReason"}]}, "venue": {"id": "4bca4f690687ef3b76d5dbcc", "name": "Rogers", "location": {"address": "808 York Mills Rd, Unit 15-17", "crossStreet": "Leslie St", "lat": 43.75363, "lng": -79.35781, "labeledLatLngs": [{"label": "display", "lat": 43.75363, "lng": -79.35781}], "distance": 971, "postalCode": "M3B 1X8", "cc": "CA", "city": "North York", "state": "ON", "country": "Canada", "formattedAddress": ["808 York Mills Rd, Unit 15-17 (Leslie St)", "North York ON M3B 1X8", "Canada"]}, "categories": [{"id": "4bf58dd8d48988d122951735", "name": "Electronics Store", "pluralName": "Electronics Stores", "shortName": "Electronics", "icon": {"prefix": "https://ss3.4sqi.net/img/categories_v2/shops/technology_", "suffix": ".png"}, "primary": true}], "photos": {"count": 0, "groups": []}}, "referralId": "e-0-4bca4f690687ef3b76d5dbcc-23"}, {"reasons": {"count": 0, "items": [{"summary": "This spot is popular", "type": "general", "reasonName": "globalInteractionReason"}]}, "venue": {"id": "4d8c9179d00a6ea8ebfe8c4f", "name": "Rogers Cafeteria", "location": {"address": "855 York Mills Rd.", "lat": 43.75359359444752, "lng": -79.35447333974949, "labeledLatLngs": [{"label": "display", "lat": 43.75359359444752, "lng": -79.35447333974949}], "distance": 875, "cc": "CA", "city": "Toronto", "state": "ON", "country": "Canada", "formattedAddress": ["855 York Mills Rd.", "Toronto ON", "Canada"]}, "categories": [{"id": "4bf58dd8d48988d128941735", "name": "Cafeteria", "pluralName": "Cafeterias", "shortName": "Cafeteria", "icon": {"prefix": "https://ss3.4sqi.net/img/categories_v2/education/cafeteria_", "suffix": ".png"}, "primary": true}], "photos": {"count": 0, "groups": []}}, "referralId": "e-0-4d8c9179d00a6ea8ebfe8c4f-24"}, {"reasons": {"count": 0, "items": [{"summary": "This spot is popular", "type": "general", "reasonName": "globalInteractionReason"}]}, "venue": {"id": "4df77d2118a8a7a743030a3c", "name": "Rogers Rbs", "location": {"address": "855 York Mills Rd.", "lat": 43.75380979756903, "lng": -79.35358782724202, "labeledLatLngs": [{"label": "display", "lat": 43.75380979756903, "lng": -79.35358782724202}], "distance": 887, "postalCode": "M3B 1Y2", "cc": "CA", "city": "Toronto", "state": "ON", "country": "Canada", "formattedAddress": ["855 York Mills Rd.", "Toronto ON M3B 1Y2", "Canada"]}, "categories": [{"id": "4f04afc02fb6e1c99f3db0bc", "name": "Mobile Phone Shop", "pluralName": "Mobile Phone Shops", "shortName": "Mobile Phones", "icon": {"prefix": "https://ss3.4sqi.net/img/categories_v2/shops/mobilephoneshop_", "suffix": ".png"}, "primary": true}], "photos": {"count": 0, "groups": []}}, "referralId": "e-0-4df77d2118a8a7a743030a3c-25"}, {"reasons": {"count": 0, "items": [{"summary": "This spot is popular", "type": "general", "reasonName": "globalInteractionReason"}]}, "venue": {"id": "586fc92d5a5869791c7d4c97", "name": "California Sandwiches", "location": {"address": "861 York Mills Rd", "crossStreet": "York Mills and Lesmil", "lat": 43.754314, "lng": -79.35123, "labeledLatLngs": [{"label": "display", "lat": 43.754314, "lng": -79.35123}], "distance": 939, "cc": "CA", "city": "North York", "state": "ON", "country": "Canada", "formattedAddress": ["861 York Mills Rd (York Mills and Lesmil)", "North York ON", "Canada"]}, "categories": [{"id": "4bf58dd8d48988d1c5941735", "name": "Sandwich Place", "pluralName": "Sandwich Places", "shortName": "Sandwiches", "icon": {"prefix": "https://ss3.4sqi.net/img/categories_v2/food/deli_", "suffix": ".png"}, "primary": true}], "photos": {"count": 0, "groups": []}}, "referralId": "e-0-586fc92d5a5869791c7d4c97-26"}, {"reasons": {"count": 0, "items": [{"summary": "This spot is popular", "type": "general", "reasonName": "globalInteractionReason"}]}, "venue": {"id": "4bcdefde937ca593f59bad92", "name": "Made In Japan Terayaki Experience", "location": {"lat": 43.754472829346284, "lng": -79.35148126355057, "labeledLatLngs": [{"label": "display", "lat": 43.754472829346284, "lng": -79.35148126355057}], "distance": 955, "cc": "CA", "country": "Canada", "formattedAddress": ["Canada"]}, "categories": [{"id": "4bf58dd8d48988d16e941735", "name": "Fast Food Restaurant", "pluralName": "Fast Food Restaurants", "shortName": "Fast Food", "icon": {"prefix": "https://ss3.4sqi.net/img/categories_v2/food/fastfood_", "suffix": ".png"}, "primary": true}], "photos": {"count": 0, "groups": []}}, "referralId": "e-0-4bcdefde937ca593f59bad92-27"}, {"reasons": {"count": 0, "items": [{"summary": "This spot is popular", "type": "general", "reasonName": "globalInteractionReason"}]}, "venue": {"id": "5070914de4b0c34b5012fdf2", "name": "Northern Karate Schools", "location": {"address": "865 York Mills Road", "lat": 43.75449019937456, "lng": -79.35032620834642, "labeledLatLngs": [{"label": "display", "lat": 43.75449019937456, "lng": -79.35032620834642}], "distance": 967, "cc": "CA", "city": "Toronto", "state": "ON", "country": "Canada", "formattedAddress": ["865 York Mills Road", "Toronto ON", "Canada"]}, "categories": [{"id": "4f4528bc4b90abdf24c9de85", "name": "Athletics & Sports", "pluralName": "Athletics & Sports", "shortName": "Athletics & Sports", "icon": {"prefix": "https://ss3.4sqi.net/img/categories_v2/shops/sports_outdoors_", "suffix": ".png"}, "primary": true}], "photos": {"count": 0, "groups": []}}, "referralId": "e-0-5070914de4b0c34b5012fdf2-28"}, {"reasons": {"count": 0, "items": [{"summary": "This spot is popular", "type": "general", "reasonName": "globalInteractionReason"}]}, "venue": {"id": "4e822d2277c8c566cef8c127", "name": "Liberty Plaza", "location": {"address": "865 York Mills Rd.", "lat": 43.75458909629206, "lng": -79.35014936164622, "labeledLatLngs": [{"label": "display", "lat": 43.75458909629206, "lng": -79.35014936164622}], "distance": 980, "cc": "CA", "city": "Toronto", "state": "ON", "country": "Canada", "formattedAddress": ["865 York Mills Rd.", "Toronto ON", "Canada"]}, "categories": [{"id": "4d4b7105d754a06378d81259", "name": "Shop & Service", "pluralName": "Shops & Services", "shortName": "Shops", "icon": {"prefix": "https://ss3.4sqi.net/img/categories_v2/shops/default_", "suffix": ".png"}, "primary": true}], "photos": {"count": 0, "groups": []}}, "referralId": "e-0-4e822d2277c8c566cef8c127-29"}, {"reasons": {"count": 0, "items": [{"summary": "This spot is popular", "type": "general", "reasonName": "globalInteractionReason"}]}, "venue": {"id": "4c47806089a6c9b6fb819a88", "name": "Country Style", "location": {"address": "799 York Mills Rd.", "crossStreet": "at Leslie St.", "lat": 43.75296220574307, "lng": -79.35978073768551, "labeledLatLngs": [{"label": "display", "lat": 43.75296220574307, "lng": -79.35978073768551}], "distance": 994, "postalCode": "M3B 1X6", "cc": "CA", "city": "Toronto", "state": "ON", "country": "Canada", "formattedAddress": ["799 York Mills Rd. (at Leslie St.)", "Toronto ON M3B 1X6", "Canada"]}, "categories": [{"id": "4bf58dd8d48988d1e0931735", "name": "Coffee Shop", "pluralName": "Coffee Shops", "shortName": "Coffee Shop", "icon": {"prefix": "https://ss3.4sqi.net/img/categories_v2/food/coffeeshop_", "suffix": ".png"}, "primary": true}], "photos": {"count": 0, "groups": []}}, "referralId": "e-0-4c47806089a6c9b6fb819a88-30"}]}]}}