{"meta": {"code": 200, "requestId": "5e1973bbbe61c9001b7348fb"}, "response": {"headerLocation": "Sunnybrook - York Mills", "headerFullLocation": "Sunnybrook - York Mills, Toronto", "headerLocationGranularity": "neighborhood", "totalResults": 50, "suggestedBounds": {"ne": {"lat": 43.735088709189014, "lng": -79.32823111356838}, "sw": {"lat": 43.716710690811, "lng": -79.35361488643163}}, "groups": [{"type": "Recommended Places", "name": "recommended", "items": [{"reasons": {"count": 0, "items": [{"summary": "This spot is popular", "type": "general", "reasonName": "globalInteractionReason"}]}, "venue": {"id": "4b71ff80f964a52035692de3", "name": "Fitness Connection", "location": {"address": "900 Don Mills Road", "lat": 43.72747286430573, "lng": -79.34170684305083, "labeledLatLngs": [{"label": "display", "lat": 43.72747286430573, "lng": -79.34170684305083}], "distance": 186, "cc": "CA", "city": "Toronto", "state": "ON", "country": "Canada", "formattedAddress": ["900 Don Mills Road", "Toronto ON", "Canada"]}, "categories": [{"id": "4bf58dd8d48988d176941735", "name": "Gym", "pluralName": "Gyms", "shortName": "Gym", "icon": {"prefix": "https://ss3.4sqi.net/img/categories_v2/building/gym_", "suffix": ".png"}, "primary": true}], "photos": {"count": 0, "groups": []}}, "referralId": "e-0-4b71ff80f964a52035692de3-0"}, {"reasons": {"count": 0, "items": [{"summary": "This spot is popular", "type": "general", "reasonName": "globalInteractionReason"}]}, "venue": {"id": "4bdaff7463c5c9b67bcb2568", "name": "Sorento Restaurant", "location": {"address": "900 Don Mills Rd.", "lat": 43.72657509457231, "lng": -79.34198930569546, "labeledLatLngs": [{"label": "display", "lat": 43.72657509457231, "lng": -79.34198930569546}], "distance": 114, "cc": "CA", "city": "Toronto", "state": "ON", "country": "Canada", "formattedAddress": ["900 Don Mills Rd.", "Toronto ON", "Canada"]}, "categories": [{"id": "4bf58dd8d48988d110941735", "name": "Italian Restaurant", "pluralName": "Italian Restaurants", "shortName": "Italian", "icon": {"prefix": "https://ss3.4sqi.net/img/categories_v2/food/italian_", "suffix": ".png"}, "primary": true}], "photos": {"count": 0, "groups": []}}, "referralId": "e-0-4bdaff7463c5c9b67bcb2568-1"}, {"reasons": {"count": 0, "items": [{"summary": "This spot is popular", "type": "general", "reasonName": "globalInteractionReason"}]}, "venue": {"id": "5c0c0b1eb9a5a8002c44ca3b", "name": "Oomomo", "location": {"address": "896 Don Mills Rd", "lat": 43.72642908913988, "lng": -79.34328336099873, "labeledLatLngs": [{"label": "display", "lat": 43.72642908913988, "lng": -79.34328336099873}], "distance": 198, "postalCode": "M3C 2H2", "cc": "CA", "city": "North York", "state": "ON", "country": "Canada", "formattedAddress": ["896 Don Mills Rd", "North York ON M3C 2H2", "Canada"]}, "categories": [{"id": "52dea92d3cf9994f4e043dbb", "name": "Discount Store", "pluralName": "Discount Stores", "shortName": "Discount Store", "icon": {"prefix": "https://ss3.4sqi.net/img/categories_v2/shops/discountstore_", "suffix": ".png"}, "primary": true}], "photos": {"count": 0, "groups": []}}, "referralId": "e-0-5c0c0b1eb9a5a8002c44ca3b-2"}, {"reasons": {"count": 0, "items": [{"summary": "This spot is popular", "type": "general", "reasonName": "globalInteractionReason"}]}, "venue": {"id": "4c00004ff61ea5933223eb13", "name": "Aga Khan Museum", "location": {"address": "77 Wynford Dr", "crossStreet": "at Don Valley Pkwy", "lat": 43.725105344569876, "lng": -79.33207588784165, "labeledLatLngs": [{"label": "display", "lat": 43.725105344569876, "lng": -79.33207588784165}], "distance": 717, "cc": "CA", "neighborhood": "Sunnybrook - York Mills", "city": "Toronto", "state": "ON", "country": "Canada", "formattedAddress": ["77 Wynford Dr (at Don Valley Pkwy)", "Toronto ON", "Canada"]}, "categories": [{"id": "4bf58dd8d48988d190941735", "name": "History Museum", "pluralName": "History Museums", "shortName": "History Museum", "icon": {"prefix": "https://ss3.4sqi.net/img/categories_v2/arts_entertainment/museum_history_", "suffix": ".png"}, "primary": true}], "photos": {"count": 0, "groups": []}, "venuePage": {"id": "42645770"}}, "referralId": "e-0-4c00004ff61ea5933223eb13-3"}, {"reasons": {"count": 0, "items": [{"summary": "This spot is popular", "type": "general", "reasonName": "globalInteractionReason"}]}, "venue": {"id": "4b06f192f964a520c1f322e3", "name": "Japanese Canadian Cultural Centre", "location": {"address": "6 Garamond Crt", "crossStreet": "Don Mills Rd. & Eglinton Ave. E", "lat": 43.726429, "lng": -79.334971, "labeledLatLngs": [{"label": "display", "lat": 43.726429, "lng": -79.334971}], "distance": 482, "postalCode": "M3C 1Z5", "cc": "CA", "city": "North York", "state": "ON", "country": "Canada", "formattedAddress": ["6 Garamond Crt (Don Mills Rd. & Eglinton Ave. E)", "North York ON M3C 1Z5", "Canada"]}, "categories": [{"id": "5032792091d4c4b30a586d5c", "name": "Concert Hall", "pluralName": "Concert Halls", "shortName": "Concert Hall", "icon": {"prefix": "https://ss3.4sqi.net/img/categories_v2/arts_entertainment/musicvenue_", "suffix": ".png"}, "primary": true}], "photos": {"count": 0, "groups": []}}, "referralId": "e-0-4b06f192f964a520c1f322e3-4"}, {"reasons": {"count": 0, "items": [{"summary": "This spot is popular", "type": "general", "reasonName": "globalInteractionReason"}]}, "venue": {"id": "4b36ac26f964a520623a25e3", "name": "Kaiseki Yu-Zen Hashimoto", "location": {"address": "6 Garamind Court", "lat": 43.720931369435235, "lng": -79.33718506953988, "labeledLatLngs": [{"label": "display", "lat": 43.720931369435235, "lng": -79.33718506953988}], "distance": 629, "postalCode": "M3C 1Z5", "cc": "CA", "city": "Toronto", "state": "ON", "country": "Canada", "formattedAddress": ["6 Garamind Court", "Toronto ON M3C 1Z5", "Canada"]}, "categories": [{"id": "4bf58dd8d48988d111941735", "name": "Japanese Restaurant", "pluralName": "Japanese Restaurants", "shortName": "Japanese", "icon": {"prefix": "https://ss3.4sqi.net/img/categories_v2/food/japanese_", "suffix": ".png"}, "primary": true}], "photos": {"count": 0, "groups": []}}, "referralId": "e-0-4b36ac26f964a520623a25e3-5"}, {"reasons": {"count": 0, "items": [{"summary": "This spot is popular", "type": "general", "reasonName": "globalInteractionReason"}]}, "venue": {"id": "4b6315b6f964a520d6612ae3", "name": "Swiss Chalet Rotisserie & Grill", "location": {"address": "900 Dufferin St, Unit 3", "lat": 43.7267367878352, "lng": -79.34140272120312, "labeledLatLngs": [{"label": "display", "lat": 43.7267367878352, "lng": -79.34140272120312}], "distance": 100, "postalCode": "M6H 4A9", "cc": "CA", "city": "Don Mills", "state": "ON", "country": "Canada", "formattedAddress": ["900 Dufferin St, Unit 3", "Don Mills ON M6H 4A9", "Canada"]}, "categories": [{"id": "4bf58dd8d48988d1c4941735", "name": "Restaurant", "pluralName": "Restaurants", "shortName": "Restaurant", "icon": {"prefix": "https://ss3.4sqi.net/img/categories_v2/food/default_", "suffix": ".png"}, "primary": true}], "photos": {"count": 0, "groups": []}}, "referralId": "e-0-4b6315b6f964a520d6612ae3-6"}, {"reasons": {"count": 0, "items": [{"summary": "This spot is popular", "type": "general", "reasonName": "globalInteractionReason"}]}, "venue": {"id": "4c21277d9a67a5935a82da87", "name": "Tilley Endurables", "location": {"address": "900 Don Mills Rd.", "crossStreet": "Barber Greene Rd.", "lat": 43.72703319748601, "lng": -79.34292634000684, "labeledLatLngs": [{"label": "display", "lat": 43.72703319748601, "lng": -79.34292634000684}], "distance": 204, "cc": "CA", "city": "Toronto Division", "state": "ON", "country": "Canada", "formattedAddress": ["900 Don Mills Rd. (Barber Greene Rd.)", "Toronto Division ON", "Canada"]}, "categories": [{"id": "4bf58dd8d48988d103951735", "name": "Clothing Store", "pluralName": "Clothing Stores", "shortName": "Apparel", "icon": {"prefix": "https://ss3.4sqi.net/img/categories_v2/shops/apparel_", "suffix": ".png"}, "primary": true}], "photos": {"count": 0, "groups": []}}, "referralId": "e-0-4c21277d9a67a5935a82da87-7"}, {"reasons": {"count": 0, "items": [{"summary": "This spot is popular", "type": "general", "reasonName": "globalInteractionReason"}]}, "venue": {"id": "54af5f6f498e16775481c791", "name": "Diwan", "location": {"address": "77 Wynford Dr", "lat": 43.72500200926036, "lng": -79.33201941694439, "labeledLatLngs": [{"label": "display", "lat": 43.72500200926036, "lng": -79.33201941694439}], "distance": 723, "postalCode": "M3C 1K1", "cc": "CA", "city": "Toronto", "state": "ON", "country": "Canada", "formattedAddress": ["77 Wynford Dr", "Toronto ON M3C 1K1", "Canada"]}, "categories": [{"id": "4bf58dd8d48988d115941735", "name": "Middle Eastern Restaurant", "pluralName": "Middle Eastern Restaurants", "shortName": "Middle Eastern", "icon": {"prefix": "https://ss3.4sqi.net/img/categories_v2/food/middleeastern_", "suffix": ".png"}, "primary": true}], "photos": {"count": 0, "groups": []}}, "referralId": "e-0-54af5f6f498e16775481c791-8"}, {"reasons": {"count": 0, "items": [{"summary": "This spot is popular", "type": "general", "reasonName": "globalInteractionReason"}]}, "venue": {"id": "4c02b933310fc9b64fe1c461", "name": "JOEY Don Mills", "location": {"address": "15 O'Neil Road", "lat": 43.733990328997315, "lng": -79.34473422057377, "labeledLatLngs": [{"label": "display", "lat": 43.733990328997315, "lng": -79.34473422057377}], "distance": 951, "postalCode": "M3C 0H2", "cc": "CA", "city": "North York", "state": "ON", "country": "Canada", "formattedAddress": ["15 O'Neil Road", "North York ON M3C 0H2", "Canada"]}, "categories": [{"id": "4bf58dd8d48988d1c4941735", "name": "Restaurant", "pluralName": "Restaurants", "shortName": "Restaurant", "icon": {"prefix": "https://ss3.4sqi.net/img/categories_v2/food/default_", "suffix": ".png"}, "primary": true}], "photos": {"count": 0, "groups": []}}, "referralId": "e-0-4c02b933310fc9b64fe1c461-9"}, {"reasons": {"count": 0, "items": [{"summary": "This spot is popular", "type": "general", "reasonName": "globalInteractionReason"}]}, "venue": {"id": "4e11eea96284edb6badbaa31", "name": "Aroma Espresso Bar", "location": {"address": "1090 Don Mills Rd.", "crossStreet": "Shops at Don Mills", "lat": 43.73439968185306, "lng": -79.3452038090861, "labeledLatLngs": [{"label": "display", "lat": 43.73439968185306, "lng": -79.3452038090861}], "distance": 1006, "postalCode": "M3C 3R6", "cc": "CA", "city": "Toronto", "state": "ON", "country": "Canada", "formattedAddress": ["1090 Don Mills Rd. (Shops at Don Mills)", "Toronto ON M3C 3R6", "Canada"]}, "categories": [{"id": "4bf58dd8d48988d16d941735", "name": "Caf\u00e9", "pluralName": "Caf\u00e9s", "shortName": "Caf\u00e9", "icon": {"prefix": "https://ss3.4sqi.net/img/categories_v2/food/cafe_", "suffix": ".png"}, "primary": true}], "photos": {"count": 0, "groups": []}}, "referralId": "e-0-4e11eea96284edb6badbaa31-10"}, {"reasons": {"count": 0, "items": [{"summary": "This spot is popular", "type": "general", "reasonName": "globalInteractionReason"}]}, "venue": {"id": "4aec790bf964a5208fc721e3", "name": "Memories of Japan", "location": {"address": "900 Don Mills Rd.", "lat": 43.72734746849249, "lng": -79.34136445237439, "labeledLatLngs": [{"label": "display", "lat": 43.72734746849249, "lng": -79.34136445237439}], "distance": 165, "postalCode": "M3C 1V6", "cc": "CA", "city": "North York", "state": "ON", "country": "Canada", "formattedAddress": ["900 Don Mills Rd.", "North York ON M3C 1V6", "Canada"]}, "categories": [{"id": "4bf58dd8d48988d111941735", "name": "Japanese Restaurant", "pluralName": "Japanese Restaurants", "shortName": "Japanese", "icon": {"prefix": "https://ss3.4sqi.net/img/categories_v2/food/japanese_", "suffix": ".png"}, "primary": true}], "photos": {"count": 0, "groups": []}}, "referralId": "e-0-4aec790bf964a5208fc721e3-11"}, {"reasons": {"count": 0, "items": [{"summary": "This spot is popular", "type": "general", "reasonName": "globalInteractionReason"}]}, "venue": {"id": "4c15a2c2127f95211a102525", "name": "Skiis and Biikes", "location": {"address": "896 Don Mills Rd.", "crossStreet": "lawrence", "lat": 43.726350918006425, "lng": -79.34297712786963, "labeledLatLngs": [{"label": "display", "lat": 43.726350918006425, "lng": -79.34297712786963}], "distance": 172, "postalCode": "M3C 1V6\u200e", "cc": "CA", "city": "North York", "state": "ON", "country": "Canada", "formattedAddress": ["896 Don Mills Rd. (lawrence)", "North York ON M3C 1V6\u200e", "Canada"]}, "categories": [{"id": "4bf58dd8d48988d115951735", "name": "Bike Shop", "pluralName": "Bike Shops", "shortName": "Bike Shop", "icon": {"prefix": "https://ss3.4sqi.net/img/categories_v2/shops/bikeshop_", "suffix": ".png"}, "primary": true}], "photos": {"count": 0, "groups": []}}, "referralId": "e-0-4c15a2c2127f95211a102525-12"}, {"reasons": {"count": 0, "items": [{"summary": "This spot is popular", "type": "general", "reasonName": "globalInteractionReason"}]}, "venue": {"id": "4e16127bfa764fb14aed48a1", "name": "Ice 'n Cake", "location": {"address": "30 Clock Tower Rd.", "crossStreet": "at Shops at Don Mills", "lat": 43.734292228891334, "lng": -79.34519795645626, "labeledLatLngs": [{"label": "display", "lat": 43.734292228891334, "lng": -79.34519795645626}], "distance": 995, "postalCode": "M3C 1P8", "cc": "CA", "city": "Toronto", "state": "ON", "country": "Canada", "formattedAddress": ["30 Clock Tower Rd. (at Shops at Don Mills)", "Toronto ON M3C 1P8", "Canada"]}, "categories": [{"id": "4bf58dd8d48988d1c9941735", "name": "Ice Cream Shop", "pluralName": "Ice Cream Shops", "shortName": "Ice Cream", "icon": {"prefix": "https://ss3.4sqi.net/img/categories_v2/food/icecream_", "suffix": ".png"}, "primary": true}], "photos": {"count": 0, "groups": []}}, "referralId": "e-0-4e16127bfa764fb14aed48a1-13"}, {"reasons": {"count": 0, "items": [{"summary": "This spot is popular", "type": "general", "reasonName": "globalInteractionReason"}]}, "venue": {"id": "4edeeba1be7b760697d35b5e", "name": "Bier Markt", "location": {"address": "7 O'Neill Road", "crossStreet": "at Shops at Don Mills", "lat": 43.73369851588495, "lng": -79.3446775447473, "labeledLatLngs": [{"label": "display", "lat": 43.73369851588495, "lng": -79.3446775447473}], "distance": 919, "postalCode": "M3C 0H2", "cc": "CA", "city": "North York", "state": "ON", "country": "Canada", "formattedAddress": ["7 O'Neill Road (at Shops at Don Mills)", "North York ON M3C 0H2", "Canada"]}, "categories": [{"id": "4bf58dd8d48988d116941735", "name": "Bar", "pluralName": "Bars", "shortName": "Bar", "icon": {"prefix": "https://ss3.4sqi.net/img/categories_v2/nightlife/pub_", "suffix": ".png"}, "primary": true}], "photos": {"count": 0, "groups": []}}, "referralId": "e-0-4edeeba1be7b760697d35b5e-14"}, {"reasons": {"count": 0, "items": [{"summary": "This spot is popular", "type": "general", "reasonName": "globalInteractionReason"}]}, "venue": {"id": "4bec7af349430f4760c807d2", "name": "Tim Hortons", "location": {"address": "843 Don Mills Rd", "crossStreet": "at Wynford Dr. (in Esso)", "lat": 43.72289725323043, "lng": -79.33911703526974, "labeledLatLngs": [{"label": "display", "lat": 43.72289725323043, "lng": -79.33911703526974}], "distance": 364, "postalCode": "M3C 1V4", "cc": "CA", "city": "North York", "state": "ON", "country": "Canada", "formattedAddress": ["843 Don Mills Rd (at Wynford Dr. (in Esso))", "North York ON M3C 1V4", "Canada"]}, "categories": [{"id": "4bf58dd8d48988d1e0931735", "name": "Coffee Shop", "pluralName": "Coffee Shops", "shortName": "Coffee Shop", "icon": {"prefix": "https://ss3.4sqi.net/img/categories_v2/food/coffeeshop_", "suffix": ".png"}, "primary": true}], "photos": {"count": 0, "groups": []}}, "referralId": "e-0-4bec7af349430f4760c807d2-15"}, {"reasons": {"count": 0, "items": [{"summary": "This spot is popular", "type": "general", "reasonName": "globalInteractionReason"}]}, "venue": {"id": "4cb6497f3abd9c74093f572f", "name": "Just Hockey Source For Sports", "location": {"address": "900 Don Mills Road", "crossStreet": "Eglington", "lat": 43.72709513128194, "lng": -79.34259061584578, "labeledLatLngs": [{"label": "display", "lat": 43.72709513128194, "lng": -79.34259061584578}], "distance": 188, "postalCode": "M3C 1V6", "cc": "CA", "city": "Toronto", "state": "ON", "country": "Canada", "formattedAddress": ["900 Don Mills Road (Eglington)", "Toronto ON M3C 1V6", "Canada"]}, "categories": [{"id": "4bf58dd8d48988d1f2941735", "name": "Sporting Goods Shop", "pluralName": "Sporting Goods Shops", "shortName": "Sporting Goods", "icon": {"prefix": "https://ss3.4sqi.net/img/categories_v2/shops/sports_outdoors_", "suffix": ".png"}, "primary": true}], "photos": {"count": 0, "groups": []}}, "referralId": "e-0-4cb6497f3abd9c74093f572f-16"}, {"reasons": {"count": 0, "items": [{"summary": "This spot is popular", "type": "general", "reasonName": "globalInteractionReason"}]}, "venue": {"id": "4b1014fdf964a520b06823e3", "name": "Real Canadian Superstore", "location": {"address": "825 Don Mills Rd", "crossStreet": "at Eglinton Ave. E.", "lat": 43.722704, "lng": -79.337508, "labeledLatLngs": [{"label": "display", "lat": 43.722704, "lng": -79.337508}], "distance": 449, "postalCode": "M3C 1V4", "cc": "CA", "city": "Toronto", "state": "ON", "country": "Canada", "formattedAddress": ["825 Don Mills Rd (at Eglinton Ave. E.)", "Toronto ON M3C 1V4", "Canada"]}, "categories": [{"id": "52f2ab2ebcbc57f1066b8b46", "name": "Supermarket", "pluralName": "Supermarkets", "shortName": "Supermarket", "icon": {"prefix": "https://ss3.4sqi.net/img/categories_v2/shops/food_grocery_", "suffix": ".png"}, "primary": true}], "photos": {"count": 0, "groups": []}}, "referralId": "e-0-4b1014fdf964a520b06823e3-17"}, {"reasons": {"count": 0, "items": [{"summary": "This spot is popular", "type": "general", "reasonName": "globalInteractionReason"}]}, "venue": {"id": "4c041b520b8eef3b0fdcb882", "name": "Anthropologie", "location": {"address": "19 Clock Tower Rd", "lat": 43.73399577300591, "lng": -79.34556371609538, "labeledLatLngs": [{"label": "display", "lat": 43.73399577300591, "lng": -79.34556371609538}], "distance": 975, "postalCode": "M3C 0E1", "cc": "CA", "city": "North York", "state": "ON", "country": "Canada", "formattedAddress": ["19 Clock Tower Rd", "North York ON M3C 0E1", "Canada"]}, "categories": [{"id": "4bf58dd8d48988d108951735", "name": "Women's Store", "pluralName": "Women's Stores", "shortName": "Women's Store", "icon": {"prefix": "https://ss3.4sqi.net/img/categories_v2/shops/apparel_women_", "suffix": ".png"}, "primary": true}], "photos": {"count": 0, "groups": []}}, "referralId": "e-0-4c041b520b8eef3b0fdcb882-18"}, {"reasons": {"count": 0, "items": [{"summary": "This spot is popular", "type": "general", "reasonName": "globalInteractionReason"}]}, "venue": {"id": "51e18448498e7dedbf44ff5c", "name": "The Beer Store", "location": {"address": "900a Don Mills Rd", "crossStreet": "Barber Green Rd", "lat": 43.7269871, "lng": -79.3414943, "labeledLatLngs": [{"label": "display", "lat": 43.7269871, "lng": -79.3414943}], "distance": 129, "postalCode": "M3C 1V6", "cc": "CA", "city": "North York", "state": "ON", "country": "Canada", "formattedAddress": ["900a Don Mills Rd (Barber Green Rd)", "North York ON M3C 1V6", "Canada"]}, "categories": [{"id": "5370f356bcbc57f1066c94c2", "name": "Beer Store", "pluralName": "Beer Stores", "shortName": "Beer Store", "icon": {"prefix": "https://ss3.4sqi.net/img/categories_v2/nightlife/beergarden_", "suffix": ".png"}, "primary": true}], "photos": {"count": 0, "groups": []}}, "referralId": "e-0-51e18448498e7dedbf44ff5c-19"}, {"reasons": {"count": 0, "items": [{"summary": "This spot is popular", "type": "general", "reasonName": "globalInteractionReason"}]}, "venue": {"id": "50bfa5c9e4b06e3ca7404ca8", "name": "Panera Bread", "location": {"address": "1066 Don Mills Road", "crossStreet": "at Sampson Mews", "lat": 43.7348289, "lng": -79.3438876, "labeledLatLngs": [{"label": "display", "lat": 43.7348289, "lng": -79.3438876}], "distance": 1022, "postalCode": "M3C 0H8", "cc": "CA", "neighborhood": "Sunnybrook - York Mills", "city": "Toronto", "state": "ON", "country": "Canada", "formattedAddress": ["1066 Don Mills Road (at Sampson Mews)", "Toronto ON M3C 0H8", "Canada"]}, "categories": [{"id": "4bf58dd8d48988d16a941735", "name": "Bakery", "pluralName": "Bakeries", "shortName": "Bakery", "icon": {"prefix": "https://ss3.4sqi.net/img/categories_v2/food/bakery_", "suffix": ".png"}, "primary": true}], "photos": {"count": 0, "groups": []}}, "referralId": "e-0-50bfa5c9e4b06e3ca7404ca8-20"}, {"reasons": {"count": 0, "items": [{"summary": "This spot is popular", "type": "general", "reasonName": "globalInteractionReason"}]}, "venue": {"id": "4d3b24e8039eb60c7462f29c", "name": "South St. Burger", "location": {"address": "49 Clock Tower Road  G010", "lat": 43.734274151590064, "lng": -79.34365473960722, "labeledLatLngs": [{"label": "display", "lat": 43.734274151590064, "lng": -79.34365473960722}], "distance": 957, "postalCode": "M3C 0G4", "cc": "CA", "city": "North York", "state": "ON", "country": "Canada", "formattedAddress": ["49 Clock Tower Road  G010", "North York ON M3C 0G4", "Canada"]}, "categories": [{"id": "4bf58dd8d48988d16c941735", "name": "Burger Joint", "pluralName": "Burger Joints", "shortName": "Burgers", "icon": {"prefix": "https://ss3.4sqi.net/img/categories_v2/food/burger_", "suffix": ".png"}, "primary": true}], "photos": {"count": 0, "groups": []}}, "referralId": "e-0-4d3b24e8039eb60c7462f29c-21"}, {"reasons": {"count": 0, "items": [{"summary": "This spot is popular", "type": "general", "reasonName": "globalInteractionReason"}]}, "venue": {"id": "4bf6e65f508c0f4741063d31", "name": "TD Canada Trust", "location": {"address": "15 Clock Tower Rd", "crossStreet": "Shops at Don Mills", "lat": 43.7334122, "lng": -79.3456392, "labeledLatLngs": [{"label": "display", "lat": 43.7334122, "lng": -79.3456392}], "distance": 918, "postalCode": "M3C 0E1", "cc": "CA", "neighborhood": "Sunnybrook - York Mills", "city": "Don Mills", "state": "ON", "country": "Canada", "formattedAddress": ["15 Clock Tower Rd (Shops at Don Mills)", "Don Mills ON M3C 0E1", "Canada"]}, "categories": [{"id": "4bf58dd8d48988d10a951735", "name": "Bank", "pluralName": "Banks", "shortName": "Bank", "icon": {"prefix": "https://ss3.4sqi.net/img/categories_v2/shops/financial_", "suffix": ".png"}, "primary": true}], "photos": {"count": 0, "groups": []}}, "referralId": "e-0-4bf6e65f508c0f4741063d31-22"}, {"reasons": {"count": 0, "items": [{"summary": "This spot is popular", "type": "general", "reasonName": "globalInteractionReason"}]}, "venue": {"id": "4b2d6fb4f964a520a5d624e3", "name": "Genghis Khan Mongolian Grill", "location": {"address": "900 Don Mills Rd", "lat": 43.7269059862849, "lng": -79.34121626053623, "labeledLatLngs": [{"label": "display", "lat": 43.7269059862849, "lng": -79.34121626053623}], "distance": 114, "cc": "CA", "city": "North York", "state": "ON", "country": "Canada", "formattedAddress": ["900 Don Mills Rd", "North York ON", "Canada"]}, "categories": [{"id": "4bf58dd8d48988d142941735", "name": "Asian Restaurant", "pluralName": "Asian Restaurants", "shortName": "Asian", "icon": {"prefix": "https://ss3.4sqi.net/img/categories_v2/food/asian_", "suffix": ".png"}, "primary": true}], "photos": {"count": 0, "groups": []}}, "referralId": "e-0-4b2d6fb4f964a520a5d624e3-23"}, {"reasons": {"count": 0, "items": [{"summary": "This spot is popular", "type": "general", "reasonName": "globalInteractionReason"}]}, "venue": {"id": "5686b77338faf7478eb6c6aa", "name": "Asian Legend", "location": {"lat": 43.7265905030894, "lng": -79.34218786843495, "labeledLatLngs": [{"label": "display", "lat": 43.7265905030894, "lng": -79.34218786843495}], "distance": 127, "cc": "CA", "country": "Canada", "formattedAddress": ["Canada"]}, "categories": [{"id": "4bf58dd8d48988d1f5931735", "name": "Dim Sum Restaurant", "pluralName": "Dim Sum Restaurants", "shortName": "Dim Sum", "icon": {"prefix": "https://ss3.4sqi.net/img/categories_v2/food/dimsum_", "suffix": ".png"}, "primary": true}], "photos": {"count": 0, "groups": []}}, "referralId": "e-0-5686b77338faf7478eb6c6aa-24"}, {"reasons": {"count": 0, "items": [{"summary": "This spot is popular", "type": "general", "reasonName": "globalInteractionReason"}]}, "venue": {"id": "575df9d8498e7735831f2f03", "name": "Taylors Landing", "location": {"address": "10 O'Neil Rd.", "lat": 43.733985520359404, "lng": -79.34548008859929, "labeledLatLngs": [{"label": "display", "lat": 43.733985520359404, "lng": -79.34548008859929}], "distance": 971, "postalCode": "M3C 0H1", "cc": "CA", "city": "Don Mills", "state": "ON", "country": "Canada", "formattedAddress": ["10 O'Neil Rd.", "Don Mills ON M3C 0H1", "Canada"]}, "categories": [{"id": "4bf58dd8d48988d14e941735", "name": "American Restaurant", "pluralName": "American Restaurants", "shortName": "American", "icon": {"prefix": "https://ss3.4sqi.net/img/categories_v2/food/default_", "suffix": ".png"}, "primary": true}], "photos": {"count": 0, "groups": []}}, "referralId": "e-0-575df9d8498e7735831f2f03-25"}, {"reasons": {"count": 0, "items": [{"summary": "This spot is popular", "type": "general", "reasonName": "globalInteractionReason"}]}, "venue": {"id": "4ce5aed1f3bda1430f89a6e4", "name": "GoodLife Fitness", "location": {"address": "825 Don Mills Rd", "crossStreet": "at Eglinton Ave. E", "lat": 43.722704, "lng": -79.337508, "labeledLatLngs": [{"label": "display", "lat": 43.722704, "lng": -79.337508}], "distance": 449, "postalCode": "M3C 1V4", "cc": "CA", "city": "North York", "state": "ON", "country": "Canada", "formattedAddress": ["825 Don Mills Rd (at Eglinton Ave. E)", "North York ON M3C 1V4", "Canada"]}, "categories": [{"id": "4bf58dd8d48988d176941735", "name": "Gym", "pluralName": "Gyms", "shortName": "Gym", "icon": {"prefix": "https://ss3.4sqi.net/img/categories_v2/building/gym_", "suffix": ".png"}, "primary": true}], "photos": {"count": 0, "groups": []}}, "referralId": "e-0-4ce5aed1f3bda1430f89a6e4-26"}, {"reasons": {"count": 0, "items": [{"summary": "This spot is popular", "type": "general", "reasonName": "globalInteractionReason"}]}, "venue": {"id": "4afa2709f964a520171722e3", "name": "Metro", "location": {"address": "1050 Don Mills Rd.", "crossStreet": "Lawrence", "lat": 43.734049322838985, "lng": -79.3431359526013, "labeledLatLngs": [{"label": "display", "lat": 43.734049322838985, "lng": -79.3431359526013}], "distance": 924, "postalCode": "M3C 1W6", "cc": "CA", "neighborhood": "Sunnybrook - York Mills", "city": "North York", "state": "ON", "country": "Canada", "formattedAddress": ["1050 Don Mills Rd. (Lawrence)", "North York ON M3C 1W6", "Canada"]}, "categories": [{"id": "52f2ab2ebcbc57f1066b8b46", "name": "Supermarket", "pluralName": "Supermarkets", "shortName": "Supermarket", "icon": {"prefix": "https://ss3.4sqi.net/img/categories_v2/shops/food_grocery_", "suffix": ".png"}, "primary": true}], "photos": {"count": 0, "groups": []}}, "referralId": "e-0-4afa2709f964a520171722e3-27"}, {"reasons": {"count": 0, "items": [{"summary": "This spot is popular", "type": "general", "reasonName": "globalInteractionReason"}]}, "venue": {"id": "4bc10cd9f8219c747cc5b210", "name": "The Beer Store", "location": {"address": "825 Don Mills Rd", "lat": 43.7227042, "lng": -79.3375083, "labeledLatLngs": [{"label": "display", "lat": 43.7227042, "lng": -79.3375083}], "distance": 449, "postalCode": "M3C 1V4", "cc": "CA", "city": "Toronto", "state": "ON", "country": "Canada", "formattedAddress": ["825 Don Mills Rd", "Toronto ON M3C 1V4", "Canada"]}, "categories": [{"id": "5370f356bcbc57f1066c94c2", "name": "Beer Store", "pluralName": "Beer Stores", "shortName": "Beer Store", "icon": {"prefix": "https://ss3.4sqi.net/img/categories_v2/nightlife/beergarden_", "suffix": ".png"}, "primary": true}], "photos": {"count": 0, "groups": []}}, "referralId": "e-0-4bc10cd9f8219c747cc5b210-28"}, {"reasons": {"count": 0, "items": [{"summary": "This spot is popular", "type": "general", "reasonName": "globalInteractionReason"}]}, "venue": {"id": "4b4bd8c0f964a52078a926e3", "name": "Jack Astor's Bar & Grill", "location": {"address": "1060 Don Mills Rd.", "crossStreet": "at Lawrence", "lat": 43.734594205541455, "lng": -79.34379672236949, "labeledLatLngs": [{"label": "display", "lat": 43.734594205541455, "lng": -79.34379672236949}], "distance": 995, "cc": "CA", "neighborhood": "Sunnybrook - York Mills", "city": "Toronto", "state": "ON", "country": "Canada", "formattedAddress": ["1060 Don Mills Rd. (at Lawrence)", "Toronto ON", "Canada"]}, "categories": [{"id": "4bf58dd8d48988d1c4941735", "name": "Restaurant", "pluralName": "Restaurants", "shortName": "Restaurant", "icon": {"prefix": "https://ss3.4sqi.net/img/categories_v2/food/default_", "suffix": ".png"}, "primary": true}], "photos": {"count": 0, "groups": []}}, "referralId": "e-0-4b4bd8c0f964a52078a926e3-29"}, {"reasons": {"count": 0, "items": [{"summary": "This spot is popular", "type": "general", "reasonName": "globalInteractionReason"}]}, "venue": {"id": "4b97d317f964a520161835e3", "name": "Subway", "location": {"address": "29 Gervais Dr", "crossStreet": "Wynford", "lat": 43.72432189860479, "lng": -79.33685838010095, "labeledLatLngs": [{"label": "display", "lat": 43.72432189860479, "lng": -79.33685838010095}], "distance": 371, "postalCode": "M3C 1Y1", "cc": "CA", "city": "Toronto", "state": "ON", "country": "Canada", "formattedAddress": ["29 Gervais Dr (Wynford)", "Toronto ON M3C 1Y1", "Canada"]}, "categories": [{"id": "4bf58dd8d48988d1c5941735", "name": "Sandwich Place", "pluralName": "Sandwich Places", "shortName": "Sandwiches", "icon": {"prefix": "https://ss3.4sqi.net/img/categories_v2/food/deli_", "suffix": ".png"}, "primary": true}], "photos": {"count": 0, "groups": []}}, "referralId": "e-0-4b97d317f964a520161835e3-30"}, {"reasons": {"count": 0, "items": [{"summary": "This spot is popular", "type": "general", "reasonName": "globalInteractionReason"}]}, "venue": {"id": "4b632004f964a520d6642ae3", "name": "Congee Star \u5e1d\u738b\u540d\u7ca5", "location": {"address": "900 Don Mills Rd.", "crossStreet": "at Barber Greene Rd.", "lat": 43.72658622416194, "lng": -79.34183343111253, "labeledLatLngs": [{"label": "display", "lat": 43.72658622416194, "lng": -79.34183343111253}], "distance": 105, "postalCode": "M3C 1V6", "cc": "CA", "city": "Toronto", "state": "ON", "country": "Canada", "formattedAddress": ["900 Don Mills Rd. (at Barber Greene Rd.)", "Toronto ON M3C 1V6", "Canada"]}, "categories": [{"id": "4bf58dd8d48988d145941735", "name": "Chinese Restaurant", "pluralName": "Chinese Restaurants", "shortName": "Chinese", "icon": {"prefix": "https://ss3.4sqi.net/img/categories_v2/food/asian_", "suffix": ".png"}, "primary": true}], "photos": {"count": 0, "groups": []}}, "referralId": "e-0-4b632004f964a520d6642ae3-31"}, {"reasons": {"count": 0, "items": [{"summary": "This spot is popular", "type": "general", "reasonName": "globalInteractionReason"}]}, "venue": {"id": "52fd7d28498e9164b5ba53a2", "name": "Pho 88 \u767c\u767c\u9910\u5ef3", "location": {"address": "900 Don Mills Road", "crossStreet": "Don Mills Road and Lawrence Ave East", "lat": 43.72664201962024, "lng": -79.3423446449432, "labeledLatLngs": [{"label": "display", "lat": 43.72664201962024, "lng": -79.3423446449432}], "distance": 141, "cc": "CA", "city": "Toronto", "state": "ON", "country": "Canada", "formattedAddress": ["900 Don Mills Road (Don Mills Road and Lawrence Ave East)", "Toronto ON", "Canada"]}, "categories": [{"id": "4bf58dd8d48988d142941735", "name": "Asian Restaurant", "pluralName": "Asian Restaurants", "shortName": "Asian", "icon": {"prefix": "https://ss3.4sqi.net/img/categories_v2/food/asian_", "suffix": ".png"}, "primary": true}], "photos": {"count": 0, "groups": []}}, "referralId": "e-0-52fd7d28498e9164b5ba53a2-32"}, {"reasons": {"count": 0, "items": [{"summary": "This spot is popular", "type": "general", "reasonName": "globalInteractionReason"}]}, "venue": {"id": "4af0dc2af964a520b8df21e3", "name": "GoodLife Fitness North York Ferrand and Rochefort", "location": {"address": "250 Ferrand Dr", "lat": 43.719812, "lng": -79.331564, "labeledLatLngs": [{"label": "display", "lat": 43.719812, "lng": -79.331564}], "distance": 1012, "postalCode": "M3C 3G8", "cc": "CA", "city": "North York", "state": "ON", "country": "Canada", "formattedAddress": ["250 Ferrand Dr", "North York ON M3C 3G8", "Canada"]}, "categories": [{"id": "4bf58dd8d48988d176941735", "name": "Gym", "pluralName": "Gyms", "shortName": "Gym", "icon": {"prefix": "https://ss3.4sqi.net/img/categories_v2/building/gym_", "suffix": ".png"}, "primary": true}], "photos": {"count": 0, "groups": []}}, "referralId": "e-0-4af0dc2af964a520b8df21e3-33"}, {"reasons": {"count": 0, "items": [{"summary": "This spot is popular", "type": "general", "reasonName": "globalInteractionReason"}]}, "venue": {"id": "4b046a62f964a520035422e3", "name": "Harvey's", "location": {"address": "898 Don Mills Rd                          Barber Greene Business Park", "lat": 43.726618141963044, "lng": -79.34099700109225, "labeledLatLngs": [{"label": "display", "lat": 43.726618141963044, "lng": -79.34099700109225}], "distance": 80, "postalCode": "M3C 1V6", "cc": "CA", "city": "North York", "state": "ON", "country": "Canada", "formattedAddress": ["898 Don Mills Rd                          Barber Greene Business Park", "North York ON M3C 1V6", "Canada"]}, "categories": [{"id": "4bf58dd8d48988d16e941735", "name": "Fast Food Restaurant", "pluralName": "Fast Food Restaurants", "shortName": "Fast Food", "icon": {"prefix": "https://ss3.4sqi.net/img/categories_v2/food/fastfood_", "suffix": ".png"}, "primary": true}], "photos": {"count": 0, "groups": []}}, "referralId": "e-0-4b046a62f964a520035422e3-34"}, {"reasons": {"count": 0, "items": [{"summary": "This spot is popular", "type": "general", "reasonName": "globalInteractionReason"}]}, "venue": {"id": "5c059f4a088158002bf93710", "name": "Tim Hortons", "location": {"address": "1050 Don Mills Rd", "crossStreet": "Clock Tower Rd", "lat": 43.7338874, "lng": -79.3437127, "labeledLatLngs": [{"label": "display", "lat": 43.7338874, "lng": -79.3437127}], "distance": 917, "postalCode": "M3C 1W6", "cc": "CA", "city": "North York", "state": "ON", "country": "Canada", "formattedAddress": ["1050 Don Mills Rd (Clock Tower Rd)", "North York ON M3C 1W6", "Canada"]}, "categories": [{"id": "4bf58dd8d48988d1e0931735", "name": "Coffee Shop", "pluralName": "Coffee Shops", "shortName": "Coffee Shop", "icon": {"prefix": "https://ss3.4sqi.net/img/categories_v2/food/coffeeshop_", "suffix": ".png"}, "primary": true}], "photos": {"count": 0, "groups": []}}, "referralId": "e-0-5c059f4a088158002bf93710-35"}, {"reasons": {"count": 0, "items": [{"summary": "This spot is popular", "type": "general", "reasonName": "globalInteractionReason"}]}, "venue": {"id": "4b4b7b51f964a520749d26e3", "name": "Delimark Cafe", "location": {"address": "895 Don Mills Road", "crossStreet": "at Green Belt Dr", "lat": 43.72753609649164, "lng": -79.33954737355866, "labeledLatLngs": [{"label": "display", "lat": 43.72753609649164, "lng": -79.33954737355866}], "distance": 213, "cc": "CA", "city": "Toronto", "state": "ON", "country": "Canada", "formattedAddress": ["895 Don Mills Road (at Green Belt Dr)", "Toronto ON", "Canada"]}, "categories": [{"id": "4bf58dd8d48988d1e0931735", "name": "Coffee Shop", "pluralName": "Coffee Shops", "shortName": "Coffee Shop", "icon": {"prefix": "https://ss3.4sqi.net/img/categories_v2/food/coffeeshop_", "suffix": ".png"}, "primary": true}], "photos": {"count": 0, "groups": []}}, "referralId": "e-0-4b4b7b51f964a520749d26e3-36"}, {"reasons": {"count": 0, "items": [{"summary": "This spot is popular", "type": "general", "reasonName": "globalInteractionReason"}]}, "venue": {"id": "5c1c3aca6adbf5002cb37ca7", "name": "Coco", "location": {"lat": 43.725642, "lng": -79.341594, "labeledLatLngs": [{"label": "display", "lat": 43.725642, "lng": -79.341594}], "distance": 61, "postalCode": "M3C 1V6", "cc": "CA", "city": "Toronto", "state": "ON", "country": "Canada", "formattedAddress": ["Toronto ON M3C 1V6", "Canada"]}, "categories": [{"id": "52e81612bcbc57f1066b7a0c", "name": "Bubble Tea Shop", "pluralName": "Bubble Tea Shops", "shortName": "Bubble Tea", "icon": {"prefix": "https://ss3.4sqi.net/img/categories_v2/food/bubble_", "suffix": ".png"}, "primary": true}], "photos": {"count": 0, "groups": []}}, "referralId": "e-0-5c1c3aca6adbf5002cb37ca7-37"}, {"reasons": {"count": 0, "items": [{"summary": "This spot is popular", "type": "general", "reasonName": "globalInteractionReason"}]}, "venue": {"id": "4f34106ee4b0dcbbedc36b22", "name": "Don Mills Rd. & Eglinton Ave E", "location": {"address": "Don Mills Rd.", "crossStreet": "at Eglinton Ave. E.", "lat": 43.72057, "lng": -79.33884, "labeledLatLngs": [{"label": "display", "lat": 43.72057, "lng": -79.33884}], "distance": 616, "postalCode": "M3C", "cc": "CA", "city": "Toronto", "state": "ON", "country": "Canada", "formattedAddress": ["Don Mills Rd. (at Eglinton Ave. E.)", "Toronto ON M3C", "Canada"]}, "categories": [{"id": "52f2ab2ebcbc57f1066b8b4c", "name": "Intersection", "pluralName": "Intersections", "shortName": "Intersection", "icon": {"prefix": "https://ss3.4sqi.net/img/categories_v2/travel/default_", "suffix": ".png"}, "primary": true}], "photos": {"count": 0, "groups": []}}, "referralId": "e-0-4f34106ee4b0dcbbedc36b22-38"}, {"reasons": {"count": 0, "items": [{"summary": "This spot is popular", "type": "general", "reasonName": "globalInteractionReason"}]}, "venue": {"id": "4ba90363f964a52099033ae3", "name": "Druxy's", "location": {"address": "1200 Eglinton Ave. E", "crossStreet": "at Don Mills Rd.", "lat": 43.722452576926294, "lng": -79.3345573665101, "labeledLatLngs": [{"label": "display", "lat": 43.722452576926294, "lng": -79.3345573665101}], "distance": 639, "postalCode": "M3C 1H9", "cc": "CA", "city": "Toronto", "state": "ON", "country": "Canada", "formattedAddress": ["1200 Eglinton Ave. E (at Don Mills Rd.)", "Toronto ON M3C 1H9", "Canada"]}, "categories": [{"id": "4bf58dd8d48988d146941735", "name": "Deli / Bodega", "pluralName": "Delis / Bodegas", "shortName": "Deli / Bodega", "icon": {"prefix": "https://ss3.4sqi.net/img/categories_v2/food/deli_", "suffix": ".png"}, "primary": true}], "photos": {"count": 0, "groups": []}}, "referralId": "e-0-4ba90363f964a52099033ae3-39"}, {"reasons": {"count": 0, "items": [{"summary": "This spot is popular", "type": "general", "reasonName": "globalInteractionReason"}]}, "venue": {"id": "4b91074af964a520e89f33e3", "name": "411.ca", "location": {"address": "1200 Eglinton Avenue East, Suite 300", "crossStreet": "DVP", "lat": 43.72250539869908, "lng": -79.33427521215923, "labeledLatLngs": [{"label": "display", "lat": 43.72250539869908, "lng": -79.33427521215923}], "distance": 654, "postalCode": "M3C 1H9", "cc": "CA", "city": "Toronto", "state": "ON", "country": "Canada", "formattedAddress": ["1200 Eglinton Avenue East, Suite 300 (DVP)", "Toronto ON M3C 1H9", "Canada"]}, "categories": [{"id": "4bf58dd8d48988d124941735", "name": "Office", "pluralName": "Offices", "shortName": "Office", "icon": {"prefix": "https://ss3.4sqi.net/img/categories_v2/building/default_", "suffix": ".png"}, "primary": true}], "photos": {"count": 0, "groups": []}}, "referralId": "e-0-4b91074af964a520e89f33e3-40"}, {"reasons": {"count": 0, "items": [{"summary": "This spot is popular", "type": "general", "reasonName": "globalInteractionReason"}]}, "venue": {"id": "4b2859e5f964a520bb9224e3", "name": "Glow Restaurant", "location": {"address": "7 Marie Labatte Rd., Unit #1", "crossStreet": "at Shops at Don Mills", "lat": 43.73422436980562, "lng": -79.34545443365278, "labeledLatLngs": [{"label": "display", "lat": 43.73422436980562, "lng": -79.34545443365278}], "distance": 995, "postalCode": "M3C 0J1", "cc": "CA", "city": "Toronto", "state": "ON", "country": "Canada", "formattedAddress": ["7 Marie Labatte Rd., Unit #1 (at Shops at Don Mills)", "Toronto ON M3C 0J1", "Canada"]}, "categories": [{"id": "4bf58dd8d48988d14e941735", "name": "American Restaurant", "pluralName": "American Restaurants", "shortName": "American", "icon": {"prefix": "https://ss3.4sqi.net/img/categories_v2/food/default_", "suffix": ".png"}, "primary": true}], "photos": {"count": 0, "groups": []}}, "referralId": "e-0-4b2859e5f964a520bb9224e3-41"}, {"reasons": {"count": 0, "items": [{"summary": "This spot is popular", "type": "general", "reasonName": "globalInteractionReason"}]}, "venue": {"id": "4dc3113945dd26455234a02a", "name": "Moccasin Trail Park", "location": {"lat": 43.73129679204527, "lng": -79.33411541918686, "labeledLatLngs": [{"label": "display", "lat": 43.73129679204527, "lng": -79.33411541918686}], "distance": 812, "cc": "CA", "city": "Toronto", "state": "ON", "country": "Canada", "formattedAddress": ["Toronto ON", "Canada"]}, "categories": [{"id": "4bf58dd8d48988d163941735", "name": "Park", "pluralName": "Parks", "shortName": "Park", "icon": {"prefix": "https://ss3.4sqi.net/img/categories_v2/parks_outdoors/park_", "suffix": ".png"}, "primary": true}], "photos": {"count": 0, "groups": []}}, "referralId": "e-0-4dc3113945dd26455234a02a-42"}, {"reasons": {"count": 0, "items": [{"summary": "This spot is popular", "type": "general", "reasonName": "globalInteractionReason"}]}, "venue": {"id": "4cd57157fb595481692ade50", "name": "Don Mills Civitan Arena", "location": {"address": "1030 Don Mills Rd", "lat": 43.733038750522425, "lng": -79.34331856560732, "labeledLatLngs": [{"label": "display", "lat": 43.733038750522425, "lng": -79.34331856560732}], "distance": 817, "postalCode": "North York", "cc": "CA", "city": "Toronto", "state": "ON", "country": "Canada", "formattedAddress": ["1030 Don Mills Rd", "Toronto ON North York", "Canada"]}, "categories": [{"id": "4bf58dd8d48988d185941735", "name": "Hockey Arena", "pluralName": "Hockey Arenas", "shortName": "Hockey", "icon": {"prefix": "https://ss3.4sqi.net/img/categories_v2/arts_entertainment/stadium_hockey_", "suffix": ".png"}, "primary": true}], "photos": {"count": 0, "groups": []}}, "referralId": "e-0-4cd57157fb595481692ade50-43"}, {"reasons": {"count": 0, "items": [{"summary": "This spot is popular", "type": "general", "reasonName": "globalInteractionReason"}]}, "venue": {"id": "554164b6498e6aee3e1711eb", "name": "Kabuki Sushi Lounge", "location": {"lat": 43.73373330662086, "lng": -79.34477624282924, "labeledLatLngs": [{"label": "display", "lat": 43.73373330662086, "lng": -79.34477624282924}], "distance": 925, "cc": "CA", "country": "Canada", "formattedAddress": ["Canada"]}, "categories": [{"id": "4bf58dd8d48988d1d2941735", "name": "Sushi Restaurant", "pluralName": "Sushi Restaurants", "shortName": "Sushi", "icon": {"prefix": "https://ss3.4sqi.net/img/categories_v2/food/sushi_", "suffix": ".png"}, "primary": true}], "photos": {"count": 0, "groups": []}}, "referralId": "e-0-554164b6498e6aee3e1711eb-44"}, {"reasons": {"count": 0, "items": [{"summary": "This spot is popular", "type": "general", "reasonName": "globalInteractionReason"}]}, "venue": {"id": "4e1b5de5e4cdb1407393ed21", "name": "Dallimore Cir Gym", "location": {"address": "120 Dallimore Cir", "crossStreet": "Green belt", "lat": 43.730705650693224, "lng": -79.3323164909998, "labeledLatLngs": [{"label": "display", "lat": 43.730705650693224, "lng": -79.3323164909998}], "distance": 874, "cc": "CA", "city": "Toronto", "state": "ON", "country": "Canada", "formattedAddress": ["120 Dallimore Cir (Green belt)", "Toronto ON", "Canada"]}, "categories": [{"id": "4bf58dd8d48988d176941735", "name": "Gym", "pluralName": "Gyms", "shortName": "Gym", "icon": {"prefix": "https://ss3.4sqi.net/img/categories_v2/building/gym_", "suffix": ".png"}, "primary": true}], "photos": {"count": 0, "groups": []}}, "referralId": "e-0-4e1b5de5e4cdb1407393ed21-45"}, {"reasons": {"count": 0, "items": [{"summary": "This spot is popular", "type": "general", "reasonName": "globalInteractionReason"}]}, "venue": {"id": "4dea8a9b88774880e31f7dab", "name": "Ferrand Drive Park", "location": {"lat": 43.72040877972205, "lng": -79.33223187471434, "labeledLatLngs": [{"label": "display", "lat": 43.72040877972205, "lng": -79.33223187471434}], "distance": 928, "cc": "CA", "city": "Toronto", "state": "ON", "country": "Canada", "formattedAddress": ["Toronto ON", "Canada"]}, "categories": [{"id": "4bf58dd8d48988d1e7941735", "name": "Playground", "pluralName": "Playgrounds", "shortName": "Playground", "icon": {"prefix": "https://ss3.4sqi.net/img/categories_v2/parks_outdoors/playground_", "suffix": ".png"}, "primary": true}], "photos": {"count": 0, "groups": []}}, "referralId": "e-0-4dea8a9b88774880e31f7dab-46"}, {"reasons": {"count": 0, "items": [{"summary": "This spot is popular", "type": "general", "reasonName": "globalInteractionReason"}]}, "venue": {"id": "4c77e6b0e464b60c7e599399", "name": "LensCrafters", "location": {"address": "37 Clocktower Rd, G-5A", "lat": 43.7341103, "lng": -79.3444474, "labeledLatLngs": [{"label": "display", "lat": 43.7341103, "lng": -79.3444474}], "distance": 956, "postalCode": "M3C 0G4", "cc": "CA", "neighborhood": "Sunnybrook - York Mills", "city": "Toronto", "state": "ON", "country": "Canada", "formattedAddress": ["37 Clocktower Rd, G-5A", "Toronto ON M3C 0G4", "Canada"]}, "categories": [{"id": "4d954afda243a5684865b473", "name": "Optical Shop", "pluralName": "Optical Shops", "shortName": "Optical", "icon": {"prefix": "https://ss3.4sqi.net/img/categories_v2/building/medical_opticalshop_", "suffix": ".png"}, "primary": true}], "photos": {"count": 0, "groups": []}}, "referralId": "e-0-4c77e6b0e464b60c7e599399-47"}, {"reasons": {"count": 0, "items": [{"summary": "This spot is popular", "type": "general", "reasonName": "globalInteractionReason"}]}, "venue": {"id": "4da389a8b1c93704a3d3fca1", "name": "Mendocino", "location": {"address": "1090 Don Mills Rd", "crossStreet": "at Shops at Don Mills", "lat": 43.7344966819924, "lng": -79.34496326391245, "labeledLatLngs": [{"label": "display", "lat": 43.7344966819924, "lng": -79.34496326391245}], "distance": 1010, "postalCode": "M3C 3R6", "cc": "CA", "city": "Toronto", "state": "ON", "country": "Canada", "formattedAddress": ["1090 Don Mills Rd (at Shops at Don Mills)", "Toronto ON M3C 3R6", "Canada"]}, "categories": [{"id": "4bf58dd8d48988d108951735", "name": "Women's Store", "pluralName": "Women's Stores", "shortName": "Women's Store", "icon": {"prefix": "https://ss3.4sqi.net/img/categories_v2/shops/apparel_women_", "suffix": ".png"}, "primary": true}], "photos": {"count": 0, "groups": []}}, "referralId": "e-0-4da389a8b1c93704a3d3fca1-48"}, {"reasons": {"count": 0, "items": [{"summary": "This spot is popular", "type": "general", "reasonName": "globalInteractionReason"}]}, "venue": {"id": "4cdf0185c4f6a35da49fcd6c", "name": "Barbuti Men's Wear", "location": {"address": "Shops@Don Mills", "crossStreet": "Don Mills and Lawrence", "lat": 43.734675929107055, "lng": -79.34463322645286, "labeledLatLngs": [{"label": "display", "lat": 43.734675929107055, "lng": -79.34463322645286}], "distance": 1021, "cc": "CA", "city": "Toronto", "state": "ON", "country": "Canada", "formattedAddress": ["Shops@Don Mills (Don Mills and Lawrence)", "Toronto ON", "Canada"]}, "categories": [{"id": "4bf58dd8d48988d106951735", "name": "Men's Store", "pluralName": "Men's Stores", "shortName": "Men's Store", "icon": {"prefix": "https://ss3.4sqi.net/img/categories_v2/shops/apparel_men_", "suffix": ".png"}, "primary": true}], "photos": {"count": 0, "groups": []}}, "referralId": "e-0-4cdf0185c4f6a35da49fcd6c-49"}]}]}}