{"meta": {"code": 200, "requestId": "5e1973b40de0d9001b7ea548"}, "response": {"suggestedFilters": {"header": "Tap to show:", "filters": [{"name": "Open now", "key": "openNow"}]}, "headerLocation": "Black Creek", "headerFullLocation": "Black Creek, Toronto", "headerLocationGranularity": "neighborhood", "totalResults": 32, "suggestedBounds": {"ne": {"lat": 43.77403331240201, "lng": -79.50385947686178}, "sw": {"lat": 43.749229287597984, "lng": -79.53813932313824}}, "groups": [{"type": "Recommended Places", "name": "recommended", "items": [{"reasons": {"count": 0, "items": [{"summary": "This spot is popular", "type": "general", "reasonName": "globalInteractionReason"}]}, "venue": {"id": "4c5d9b5d94fd0f47a1dccb45", "name": "Rogers Cup", "location": {"address": "Aviva Centre", "crossStreet": "1 Shoreham Dr", "lat": 43.771532540075185, "lng": -79.51202583455225, "labeledLatLngs": [{"label": "display", "lat": 43.771532540075185, "lng": -79.51202583455225}], "distance": 1317, "postalCode": "M3N 3A7", "cc": "CA", "city": "Toronto", "state": "ON", "country": "Canada", "formattedAddress": ["Aviva Centre (1 Shoreham Dr)", "Toronto ON M3N 3A7", "Canada"]}, "categories": [{"id": "4e39a891bd410d7aed40cbc2", "name": "Tennis Stadium", "pluralName": "Tennis Stadiums", "shortName": "Tennis", "icon": {"prefix": "https://ss3.4sqi.net/img/categories_v2/arts_entertainment/stadium_tennis_", "suffix": ".png"}, "primary": true}], "photos": {"count": 0, "groups": []}}, "referralId": "e-0-4c5d9b5d94fd0f47a1dccb45-0"}, {"reasons": {"count": 0, "items": [{"summary": "This spot is popular", "type": "general", "reasonName": "globalInteractionReason"}]}, "venue": {"id": "524f17d9498e873f51833c6d", "name": "Best Western Plus Toronto North York Hotel & Suites", "location": {"address": "50 Norfinch Dr", "lat": 43.756887077444425, "lng": -79.52877948651798, "labeledLatLngs": [{"label": "display", "lat": 43.756887077444425, "lng": -79.52877948651798}], "distance": 818, "postalCode": "M3N 1X1", "cc": "CA", "city": "Toronto", "state": "ON", "country": "Canada", "formattedAddress": ["50 Norfinch Dr", "Toronto ON M3N 1X1", "Canada"]}, "categories": [{"id": "4bf58dd8d48988d1fa931735", "name": "Hotel", "pluralName": "Hotels", "shortName": "Hotel", "icon": {"prefix": "https://ss3.4sqi.net/img/categories_v2/travel/hotel_", "suffix": ".png"}, "primary": true}], "photos": {"count": 0, "groups": []}}, "referralId": "e-0-524f17d9498e873f51833c6d-1"}, {"reasons": {"count": 0, "items": [{"summary": "This spot is popular", "type": "general", "reasonName": "globalInteractionReason"}]}, "venue": {"id": "4ad4c05ef964a52098f620e3", "name": "Black Creek Pioneer Village", "location": {"address": "1000 Murray Ross Pkwy.", "lat": 43.773393430343425, "lng": -79.51699139740164, "labeledLatLngs": [{"label": "display", "lat": 43.773393430343425, "lng": -79.51699139740164}], "distance": 1348, "postalCode": "M3J 3P1", "cc": "CA", "city": "Toronto", "state": "ON", "country": "Canada", "formattedAddress": ["1000 Murray Ross Pkwy.", "Toronto ON M3J 3P1", "Canada"]}, "categories": [{"id": "4deefb944765f83613cdba6e", "name": "Historic Site", "pluralName": "Historic Sites", "shortName": "Historic Site", "icon": {"prefix": "https://ss3.4sqi.net/img/categories_v2/arts_entertainment/historicsite_", "suffix": ".png"}, "primary": true}], "photos": {"count": 0, "groups": []}}, "referralId": "e-0-4ad4c05ef964a52098f620e3-2"}, {"reasons": {"count": 0, "items": [{"summary": "This spot is popular", "type": "general", "reasonName": "globalInteractionReason"}]}, "venue": {"id": "4ad4c064f964a52074f820e3", "name": "Aviva Centre", "location": {"address": "1 Shoreham Dr.", "lat": 43.77155334201711, "lng": -79.51192650368728, "labeledLatLngs": [{"label": "display", "lat": 43.77155334201711, "lng": -79.51192650368728}], "distance": 1323, "postalCode": "M3N 3A6", "cc": "CA", "city": "Toronto", "state": "ON", "country": "Canada", "formattedAddress": ["1 Shoreham Dr.", "Toronto ON M3N 3A6", "Canada"]}, "categories": [{"id": "4e39a891bd410d7aed40cbc2", "name": "Tennis Stadium", "pluralName": "Tennis Stadiums", "shortName": "Tennis", "icon": {"prefix": "https://ss3.4sqi.net/img/categories_v2/arts_entertainment/stadium_tennis_", "suffix": ".png"}, "primary": true}], "photos": {"count": 0, "groups": []}}, "referralId": "e-0-4ad4c064f964a52074f820e3-3"}, {"reasons": {"count": 0, "items": [{"summary": "This spot is popular", "type": "general", "reasonName": "globalInteractionReason"}]}, "venue": {"id": "4b855236f964a520875631e3", "name": "Nella Cutlery", "location": {"address": "148 Norfinch Dr", "lat": 43.763957, "lng": -79.529793, "labeledLatLngs": [{"label": "display", "lat": 43.763957, "lng": -79.529793}], "distance": 752, "postalCode": "M3N 1X8", "cc": "CA", "city": "North York", "state": "ON", "country": "Canada", "formattedAddress": ["148 Norfinch Dr", "North York ON M3N 1X8", "Canada"]}, "categories": [{"id": "58daa1558bbb0b01f18ec1b4", "name": "Kitchen Supply Store", "pluralName": "Kitchen Supply Stores", "shortName": "Kitchen Supply", "icon": {"prefix": "https://ss3.4sqi.net/img/categories_v2/shops/food_butcher_", "suffix": ".png"}, "primary": true}], "photos": {"count": 0, "groups": []}}, "referralId": "e-0-4b855236f964a520875631e3-4"}, {"reasons": {"count": 0, "items": [{"summary": "This spot is popular", "type": "general", "reasonName": "globalInteractionReason"}]}, "venue": {"id": "4cb7afdb4c60a093cd9433ca", "name": "Shoppers Drug Mart", "location": {"address": "3975 Jane St", "crossStreet": "Jane-Finch Mall", "lat": 43.756147, "lng": -79.515843, "labeledLatLngs": [{"label": "display", "lat": 43.756147, "lng": -79.515843}], "distance": 737, "postalCode": "M3N 2K1", "cc": "CA", "city": "North York", "state": "ON", "country": "Canada", "formattedAddress": ["3975 Jane St (Jane-Finch Mall)", "North York ON M3N 2K1", "Canada"]}, "categories": [{"id": "4bf58dd8d48988d10f951735", "name": "Pharmacy", "pluralName": "Pharmacies", "shortName": "Pharmacy", "icon": {"prefix": "https://ss3.4sqi.net/img/categories_v2/shops/pharmacy_", "suffix": ".png"}, "primary": true}], "photos": {"count": 0, "groups": []}}, "referralId": "e-0-4cb7afdb4c60a093cd9433ca-5"}, {"reasons": {"count": 0, "items": [{"summary": "This spot is popular", "type": "general", "reasonName": "globalInteractionReason"}]}, "venue": {"id": "4c23af7eb7b8a593e5413be8", "name": "No Frills", "location": {"address": "1 York Gate Blvd", "crossStreet": "at Jane & Finch", "lat": 43.758178, "lng": -79.51968, "labeledLatLngs": [{"label": "display", "lat": 43.758178, "lng": -79.51968}], "distance": 398, "postalCode": "M3N 3A1", "cc": "CA", "city": "North York", "state": "ON", "country": "Canada", "formattedAddress": ["1 York Gate Blvd (at Jane & Finch)", "North York ON M3N 3A1", "Canada"]}, "categories": [{"id": "4bf58dd8d48988d118951735", "name": "Grocery Store", "pluralName": "Grocery Stores", "shortName": "Grocery Store", "icon": {"prefix": "https://ss3.4sqi.net/img/categories_v2/shops/food_grocery_", "suffix": ".png"}, "primary": true}], "photos": {"count": 0, "groups": []}}, "referralId": "e-0-4c23af7eb7b8a593e5413be8-6"}, {"reasons": {"count": 0, "items": [{"summary": "This spot is popular", "type": "general", "reasonName": "globalInteractionReason"}]}, "venue": {"id": "4f0cac7ee4b0f615a3adedb5", "name": "Pho Com Viet Nam", "location": {"address": "1991 Finch Ave.", "crossStreet": "at Jane St.", "lat": 43.75663119859895, "lng": -79.51833633068185, "labeledLatLngs": [{"label": "display", "lat": 43.75663119859895, "lng": -79.51833633068185}], "distance": 596, "postalCode": "M3N 2V3", "cc": "CA", "neighborhood": "Jane and Finch, Toronto, ON", "city": "Toronto", "state": "ON", "country": "Canada", "formattedAddress": ["1991 Finch Ave. (at Jane St.)", "Toronto ON M3N 2V3", "Canada"]}, "categories": [{"id": "4bf58dd8d48988d14a941735", "name": "Vietnamese Restaurant", "pluralName": "Vietnamese Restaurants", "shortName": "Vietnamese", "icon": {"prefix": "https://ss3.4sqi.net/img/categories_v2/food/vietnamese_", "suffix": ".png"}, "primary": true}], "photos": {"count": 0, "groups": []}}, "referralId": "e-0-4f0cac7ee4b0f615a3adedb5-7"}, {"reasons": {"count": 0, "items": [{"summary": "This spot is popular", "type": "general", "reasonName": "globalInteractionReason"}]}, "venue": {"id": "4e9c997293ada5036e2c9756", "name": "Popeyes Louisiana Kitchen", "location": {"address": "3865 Jane St. Unit 31", "crossStreet": "at Finch Ave. (Jane-Finch Mall)", "lat": 43.75660425382002, "lng": -79.51604685393343, "labeledLatLngs": [{"label": "display", "lat": 43.75660425382002, "lng": -79.51604685393343}], "distance": 686, "postalCode": "M3N 2K1", "cc": "CA", "city": "Toronto", "state": "ON", "country": "Canada", "formattedAddress": ["3865 Jane St. Unit 31 (at Finch Ave. (Jane-Finch Mall))", "Toronto ON M3N 2K1", "Canada"]}, "categories": [{"id": "4d4ae6fc7a7b7dea34424761", "name": "Fried Chicken Joint", "pluralName": "Fried Chicken Joints", "shortName": "Fried Chicken", "icon": {"prefix": "https://ss3.4sqi.net/img/categories_v2/food/friedchicken_", "suffix": ".png"}, "primary": true}], "photos": {"count": 0, "groups": []}}, "referralId": "e-0-4e9c997293ada5036e2c9756-8"}, {"reasons": {"count": 0, "items": [{"summary": "This spot is popular", "type": "general", "reasonName": "globalInteractionReason"}]}, "venue": {"id": "4ee91cd3e300cc66b42ceede", "name": "Pizza Hut", "location": {"address": "1949 Finch Avenue W.", "lat": 43.75633958118749, "lng": -79.51781778764257, "labeledLatLngs": [{"label": "display", "lat": 43.75633958118749, "lng": -79.51781778764257}], "distance": 642, "postalCode": "M3N 2V3", "cc": "CA", "city": "Toronto", "state": "ON", "country": "Canada", "formattedAddress": ["1949 Finch Avenue W.", "Toronto ON M3N 2V3", "Canada"]}, "categories": [{"id": "4bf58dd8d48988d1ca941735", "name": "Pizza Place", "pluralName": "Pizza Places", "shortName": "Pizza", "icon": {"prefix": "https://ss3.4sqi.net/img/categories_v2/food/pizza_", "suffix": ".png"}, "primary": true}], "photos": {"count": 0, "groups": []}}, "referralId": "e-0-4ee91cd3e300cc66b42ceede-9"}, {"reasons": {"count": 0, "items": [{"summary": "This spot is popular", "type": "general", "reasonName": "globalInteractionReason"}]}, "venue": {"id": "4bcf611e0ffdce72b769b2c0", "name": "Holiday Inn Express Toronto-North York", "location": {"address": "30 Norfinch Drive", "crossStreet": "Finch Ave. W", "lat": 43.75623244271852, "lng": -79.52734789199224, "labeledLatLngs": [{"label": "display", "lat": 43.75623244271852, "lng": -79.52734789199224}], "distance": 788, "postalCode": "M3N 1X1", "cc": "CA", "city": "North York", "state": "ON", "country": "Canada", "formattedAddress": ["30 Norfinch Drive (Finch Ave. W)", "North York ON M3N 1X1", "Canada"]}, "categories": [{"id": "4bf58dd8d48988d1fa931735", "name": "Hotel", "pluralName": "Hotels", "shortName": "Hotel", "icon": {"prefix": "https://ss3.4sqi.net/img/categories_v2/travel/hotel_", "suffix": ".png"}, "primary": true}], "photos": {"count": 0, "groups": []}}, "referralId": "e-0-4bcf611e0ffdce72b769b2c0-10"}, {"reasons": {"count": 0, "items": [{"summary": "This spot is popular", "type": "general", "reasonName": "globalInteractionReason"}]}, "venue": {"id": "4bea026b62c0c928fb6be0d4", "name": "KFC", "location": {"address": "1971 Finch Avenue West", "lat": 43.75654938439709, "lng": -79.51904211675189, "labeledLatLngs": [{"label": "display", "lat": 43.75654938439709, "lng": -79.51904211675189}], "distance": 587, "postalCode": "M3N 2V3", "cc": "CA", "city": "North York", "state": "ON", "country": "Canada", "formattedAddress": ["1971 Finch Avenue West", "North York ON M3N 2V3", "Canada"]}, "categories": [{"id": "4bf58dd8d48988d16e941735", "name": "Fast Food Restaurant", "pluralName": "Fast Food Restaurants", "shortName": "Fast Food", "icon": {"prefix": "https://ss3.4sqi.net/img/categories_v2/food/fastfood_", "suffix": ".png"}, "primary": true}], "photos": {"count": 0, "groups": []}}, "referralId": "e-0-4bea026b62c0c928fb6be0d4-11"}, {"reasons": {"count": 0, "items": [{"summary": "This spot is popular", "type": "general", "reasonName": "globalInteractionReason"}]}, "venue": {"id": "4c253b89136d20a1de3fe361", "name": "The Beer Store", "location": {"address": "2005 Finch Ave. W", "lat": 43.7560941, "lng": -79.5162392, "labeledLatLngs": [{"label": "display", "lat": 43.7560941, "lng": -79.5162392}], "distance": 725, "postalCode": "M3N 2V3", "cc": "CA", "city": "North York", "state": "ON", "country": "Canada", "formattedAddress": ["2005 Finch Ave. W", "North York ON M3N 2V3", "Canada"]}, "categories": [{"id": "5370f356bcbc57f1066c94c2", "name": "Beer Store", "pluralName": "Beer Stores", "shortName": "Beer Store", "icon": {"prefix": "https://ss3.4sqi.net/img/categories_v2/nightlife/beergarden_", "suffix": ".png"}, "primary": true}], "photos": {"count": 0, "groups": []}}, "referralId": "e-0-4c253b89136d20a1de3fe361-12"}, {"reasons": {"count": 0, "items": [{"summary": "This spot is popular", "type": "general", "reasonName": "globalInteractionReason"}]}, "venue": {"id": "4e8673fbd66a9b178e911dd3", "name": "Petro-Canada", "location": {"address": "3900 Jane St", "lat": 43.757187, "lng": -79.517778, "labeledLatLngs": [{"label": "display", "lat": 43.757187, "lng": -79.517778}], "distance": 558, "postalCode": "M3N 2Z2", "cc": "CA", "city": "North York", "state": "ON", "country": "Canada", "formattedAddress": ["3900 Jane St", "North York ON M3N 2Z2", "Canada"]}, "categories": [{"id": "4bf58dd8d48988d113951735", "name": "Gas Station", "pluralName": "Gas Stations", "shortName": "Gas Station", "icon": {"prefix": "https://ss3.4sqi.net/img/categories_v2/shops/gas_", "suffix": ".png"}, "primary": true}], "photos": {"count": 0, "groups": []}}, "referralId": "e-0-4e8673fbd66a9b178e911dd3-13"}, {"reasons": {"count": 0, "items": [{"summary": "This spot is popular", "type": "general", "reasonName": "globalInteractionReason"}]}, "venue": {"id": "4ca539bfd971b1f7bf0ef5e0", "name": "Pizza Pizza", "location": {"address": "1837 Finch Avenue West, Unit T-3", "lat": 43.756185976894656, "lng": -79.5154595375061, "labeledLatLngs": [{"label": "display", "lat": 43.756185976894656, "lng": -79.5154595375061}], "distance": 752, "postalCode": "M3N 2H1", "cc": "CA", "city": "North York", "state": "ON", "country": "Canada", "formattedAddress": ["1837 Finch Avenue West, Unit T-3", "North York ON M3N 2H1", "Canada"]}, "categories": [{"id": "4bf58dd8d48988d1ca941735", "name": "Pizza Place", "pluralName": "Pizza Places", "shortName": "Pizza", "icon": {"prefix": "https://ss3.4sqi.net/img/categories_v2/food/pizza_", "suffix": ".png"}, "primary": true}], "photos": {"count": 0, "groups": []}}, "referralId": "e-0-4ca539bfd971b1f7bf0ef5e0-14"}, {"reasons": {"count": 0, "items": [{"summary": "This spot is popular", "type": "general", "reasonName": "globalInteractionReason"}]}, "venue": {"id": "4dcaf597ae60f20544050d55", "name": "McDonald's", "location": {"address": "1831 Finch Avenue W.", "crossStreet": "Jane St", "lat": 43.757325, "lng": -79.514091, "labeledLatLngs": [{"label": "display", "lat": 43.757325, "lng": -79.514091}], "distance": 733, "postalCode": "M3N 1M7", "cc": "CA", "city": "Downsview", "state": "ON", "country": "Canada", "formattedAddress": ["1831 Finch Avenue W. (Jane St)", "Downsview ON M3N 1M7", "Canada"]}, "categories": [{"id": "4bf58dd8d48988d16e941735", "name": "Fast Food Restaurant", "pluralName": "Fast Food Restaurants", "shortName": "Fast Food", "icon": {"prefix": "https://ss3.4sqi.net/img/categories_v2/food/fastfood_", "suffix": ".png"}, "primary": true}], "photos": {"count": 0, "groups": []}}, "referralId": "e-0-4dcaf597ae60f20544050d55-15"}, {"reasons": {"count": 0, "items": [{"summary": "This spot is popular", "type": "general", "reasonName": "globalInteractionReason"}]}, "venue": {"id": "4c3da166980320a1c2358ce4", "name": "Petro-Canada", "location": {"address": "4650 Jane St", "crossStreet": "at Shoreham Dr", "lat": 43.766586, "lng": -79.51987, "labeledLatLngs": [{"label": "display", "lat": 43.766586, "lng": -79.51987}], "distance": 558, "postalCode": "M3N 2L2", "cc": "CA", "city": "Downsview", "state": "ON", "country": "Canada", "formattedAddress": ["4650 Jane St (at Shoreham Dr)", "Downsview ON M3N 2L2", "Canada"]}, "categories": [{"id": "4bf58dd8d48988d113951735", "name": "Gas Station", "pluralName": "Gas Stations", "shortName": "Gas Station", "icon": {"prefix": "https://ss3.4sqi.net/img/categories_v2/shops/gas_", "suffix": ".png"}, "primary": true}], "photos": {"count": 0, "groups": []}}, "referralId": "e-0-4c3da166980320a1c2358ce4-16"}, {"reasons": {"count": 0, "items": [{"summary": "This spot is popular", "type": "general", "reasonName": "globalInteractionReason"}]}, "venue": {"id": "4c7da6e89221236ae20b803d", "name": "Subway", "location": {"address": "1961 Finch Ave West", "crossStreet": "Jane st", "lat": 43.75617104020033, "lng": -79.5182508987524, "labeledLatLngs": [{"label": "display", "lat": 43.75617104020033, "lng": -79.5182508987524}], "distance": 646, "postalCode": "M3N 2V3", "cc": "CA", "city": "Toronto", "state": "ON", "country": "Canada", "formattedAddress": ["1961 Finch Ave West (Jane st)", "Toronto ON M3N 2V3", "Canada"]}, "categories": [{"id": "4bf58dd8d48988d1c5941735", "name": "Sandwich Place", "pluralName": "Sandwich Places", "shortName": "Sandwiches", "icon": {"prefix": "https://ss3.4sqi.net/img/categories_v2/food/deli_", "suffix": ".png"}, "primary": true}], "photos": {"count": 0, "groups": []}}, "referralId": "e-0-4c7da6e89221236ae20b803d-17"}, {"reasons": {"count": 0, "items": [{"summary": "This spot is popular", "type": "general", "reasonName": "globalInteractionReason"}]}, "venue": {"id": "4be56bfbbcef2d7fd0be03e5", "name": "Tim Hortons", "location": {"address": "3981 Jane St", "crossStreet": "at Finch", "lat": 43.7561284, "lng": -79.5162657, "labeledLatLngs": [{"label": "display", "lat": 43.7561284, "lng": -79.5162657}], "distance": 721, "postalCode": "M3N 2K1", "cc": "CA", "city": "North York", "state": "ON", "country": "Canada", "formattedAddress": ["3981 Jane St (at Finch)", "North York ON M3N 2K1", "Canada"]}, "categories": [{"id": "4bf58dd8d48988d1e0931735", "name": "Coffee Shop", "pluralName": "Coffee Shops", "shortName": "Coffee Shop", "icon": {"prefix": "https://ss3.4sqi.net/img/categories_v2/food/coffeeshop_", "suffix": ".png"}, "primary": true}], "photos": {"count": 0, "groups": []}}, "referralId": "e-0-4be56bfbbcef2d7fd0be03e5-18"}, {"reasons": {"count": 0, "items": [{"summary": "This spot is popular", "type": "general", "reasonName": "globalInteractionReason"}]}, "venue": {"id": "4e8b66cf61afcc24d9b41fd5", "name": "Tim Hortons", "location": {"address": "2111 Finch Ave. W", "crossStreet": "at Oakdale Rd. (in Humber River Hospital)", "lat": 43.75434420900222, "lng": -79.52702411134463, "labeledLatLngs": [{"label": "display", "lat": 43.75434420900222, "lng": -79.52702411134463}], "distance": 944, "postalCode": "M3N 1N1", "cc": "CA", "city": "Downsview", "state": "ON", "country": "Canada", "formattedAddress": ["2111 Finch Ave. W (at Oakdale Rd. (in Humber River Hospital))", "Downsview ON M3N 1N1", "Canada"]}, "categories": [{"id": "4bf58dd8d48988d1e0931735", "name": "Coffee Shop", "pluralName": "Coffee Shops", "shortName": "Coffee Shop", "icon": {"prefix": "https://ss3.4sqi.net/img/categories_v2/food/coffeeshop_", "suffix": ".png"}, "primary": true}], "photos": {"count": 0, "groups": []}}, "referralId": "e-0-4e8b66cf61afcc24d9b41fd5-19"}, {"reasons": {"count": 0, "items": [{"summary": "This spot is popular", "type": "general", "reasonName": "globalInteractionReason"}]}, "venue": {"id": "4c366f043849c928ab15bcb1", "name": "Rexall", "location": {"address": "4702 Jane St", "lat": 43.76659, "lng": -79.519852, "labeledLatLngs": [{"label": "display", "lat": 43.76659, "lng": -79.519852}], "distance": 559, "postalCode": "M3N 2L3", "cc": "CA", "city": "Downsview", "state": "ON", "country": "Canada", "formattedAddress": ["4702 Jane St", "Downsview ON M3N 2L3", "Canada"]}, "categories": [{"id": "4bf58dd8d48988d10f951735", "name": "Pharmacy", "pluralName": "Pharmacies", "shortName": "Pharmacy", "icon": {"prefix": "https://ss3.4sqi.net/img/categories_v2/shops/pharmacy_", "suffix": ".png"}, "primary": true}], "photos": {"count": 0, "groups": []}}, "referralId": "e-0-4c366f043849c928ab15bcb1-20"}, {"reasons": {"count": 0, "items": [{"summary": "This spot is popular", "type": "general", "reasonName": "globalInteractionReason"}]}, "venue": {"id": "4e7e0b117ee6ec38252d3886", "name": "Jian Hing Supermarket", "location": {"address": "1989 Finch Ave W", "crossStreet": "at Jane St", "lat": 43.75667320052111, "lng": -79.51844367991136, "labeledLatLngs": [{"label": "display", "lat": 43.75667320052111, "lng": -79.51844367991136}], "distance": 588, "postalCode": "M3N 2K2", "cc": "CA", "city": "Toronto", "state": "ON", "country": "Canada", "formattedAddress": ["1989 Finch Ave W (at Jane St)", "Toronto ON M3N 2K2", "Canada"]}, "categories": [{"id": "4bf58dd8d48988d118951735", "name": "Grocery Store", "pluralName": "Grocery Stores", "shortName": "Grocery Store", "icon": {"prefix": "https://ss3.4sqi.net/img/categories_v2/shops/food_grocery_", "suffix": ".png"}, "primary": true}], "photos": {"count": 0, "groups": []}}, "referralId": "e-0-4e7e0b117ee6ec38252d3886-21"}, {"reasons": {"count": 0, "items": [{"summary": "This spot is popular", "type": "general", "reasonName": "globalInteractionReason"}]}, "venue": {"id": "4f298aebe4b015f8e4c4e8e7", "name": "Pita Land", "location": {"address": "1841 Finch Ave W", "lat": 43.757520253440326, "lng": -79.51462786652858, "labeledLatLngs": [{"label": "display", "lat": 43.757520253440326, "lng": -79.51462786652858}], "distance": 686, "postalCode": "M3N 2V2", "cc": "CA", "city": "Toronto", "state": "ON", "country": "Canada", "formattedAddress": ["1841 Finch Ave W", "Toronto ON M3N 2V2", "Canada"]}, "categories": [{"id": "4bf58dd8d48988d10b941735", "name": "Falafel Restaurant", "pluralName": "Falafel Restaurants", "shortName": "Falafel", "icon": {"prefix": "https://ss3.4sqi.net/img/categories_v2/food/falafel_", "suffix": ".png"}, "primary": true}], "photos": {"count": 0, "groups": []}}, "referralId": "e-0-4f298aebe4b015f8e4c4e8e7-22"}, {"reasons": {"count": 0, "items": [{"summary": "This spot is popular", "type": "general", "reasonName": "globalInteractionReason"}]}, "venue": {"id": "5a01087a31ac6c68c64d5347", "name": "Dollarama", "location": {"address": "1911 Finch Ave W,Jane Finch Mall", "lat": 43.75677, "lng": -79.515084, "labeledLatLngs": [{"label": "display", "lat": 43.75677, "lng": -79.515084}], "distance": 720, "postalCode": "M3N 2V2", "cc": "CA", "city": "North York", "state": "ON", "country": "Canada", "formattedAddress": ["1911 Finch Ave W,Jane Finch Mall", "North York ON M3N 2V2", "Canada"]}, "categories": [{"id": "52dea92d3cf9994f4e043dbb", "name": "Discount Store", "pluralName": "Discount Stores", "shortName": "Discount Store", "icon": {"prefix": "https://ss3.4sqi.net/img/categories_v2/shops/discountstore_", "suffix": ".png"}, "primary": true}], "photos": {"count": 0, "groups": []}}, "referralId": "e-0-5a01087a31ac6c68c64d5347-23"}, {"reasons": {"count": 0, "items": [{"summary": "This spot is popular", "type": "general", "reasonName": "globalInteractionReason"}]}, "venue": {"id": "4cbfb1588db3b60cc21f7a78", "name": "Shoreham Plaza", "location": {"address": "4700 Jane St", "crossStreet": "Shoreham", "lat": 43.76880310069173, "lng": -79.52048054521903, "labeledLatLngs": [{"label": "display", "lat": 43.76880310069173, "lng": -79.52048054521903}], "distance": 799, "cc": "CA", "city": "Toronto", "state": "ON", "country": "Canada", "formattedAddress": ["4700 Jane St (Shoreham)", "Toronto ON", "Canada"]}, "categories": [{"id": "4bf58dd8d48988d1fd941735", "name": "Shopping Mall", "pluralName": "Shopping Malls", "shortName": "Mall", "icon": {"prefix": "https://ss3.4sqi.net/img/categories_v2/shops/mall_", "suffix": ".png"}, "primary": true}], "photos": {"count": 0, "groups": []}}, "referralId": "e-0-4cbfb1588db3b60cc21f7a78-24"}, {"reasons": {"count": 0, "items": [{"summary": "This spot is popular", "type": "general", "reasonName": "globalInteractionReason"}]}, "venue": {"id": "4f5bb679e4b05eaca40ffdd6", "name": "Mac's Convenience Store", "location": {"address": "4710 Jane St", "lat": 43.76933566288619, "lng": -79.52110641923016, "labeledLatLngs": [{"label": "display", "lat": 43.76933566288619, "lng": -79.52110641923016}], "distance": 857, "cc": "CA", "city": "Toronto", "state": "ON", "country": "Canada", "formattedAddress": ["4710 Jane St", "Toronto ON", "Canada"]}, "categories": [{"id": "4bf58dd8d48988d1c7941735", "name": "Snack Place", "pluralName": "Snack Places", "shortName": "Snacks", "icon": {"prefix": "https://ss3.4sqi.net/img/categories_v2/food/snacks_", "suffix": ".png"}, "primary": true}], "photos": {"count": 0, "groups": []}}, "referralId": "e-0-4f5bb679e4b05eaca40ffdd6-25"}, {"reasons": {"count": 0, "items": [{"summary": "This spot is popular", "type": "general", "reasonName": "globalInteractionReason"}]}, "venue": {"id": "4e06233c62e100e581678192", "name": "Tri Star Restaurant", "location": {"address": "4724 Jane Street", "lat": 43.76933638194449, "lng": -79.52024995897516, "labeledLatLngs": [{"label": "display", "lat": 43.76933638194449, "lng": -79.52024995897516}], "distance": 859, "postalCode": "M3N 2L2", "cc": "CA", "city": "Toronto", "state": "ON", "country": "Canada", "formattedAddress": ["4724 Jane Street", "Toronto ON M3N 2L2", "Canada"]}, "categories": [{"id": "4bf58dd8d48988d145941735", "name": "Chinese Restaurant", "pluralName": "Chinese Restaurants", "shortName": "Chinese", "icon": {"prefix": "https://ss3.4sqi.net/img/categories_v2/food/asian_", "suffix": ".png"}, "primary": true}], "photos": {"count": 0, "groups": []}}, "referralId": "e-0-4e06233c62e100e581678192-26"}, {"reasons": {"count": 0, "items": [{"summary": "This spot is popular", "type": "general", "reasonName": "globalInteractionReason"}]}, "venue": {"id": "4c9bc9fe0e9bb1f7cae6cd5f", "name": "John Booth Memorial Arena", "location": {"address": "230 Gosford Ave", "crossStreet": "Jane and Shoreham Dr", "lat": 43.769548855413575, "lng": -79.52324753470374, "labeledLatLngs": [{"label": "display", "lat": 43.769548855413575, "lng": -79.52324753470374}], "distance": 899, "cc": "CA", "city": "North York", "state": "ON", "country": "Canada", "formattedAddress": ["230 Gosford Ave (Jane and Shoreham Dr)", "North York ON", "Canada"]}, "categories": [{"id": "4bf58dd8d48988d168941735", "name": "Skating Rink", "pluralName": "Skating Rinks", "shortName": "Skating Rink", "icon": {"prefix": "https://ss3.4sqi.net/img/categories_v2/parks_outdoors/skatingrink_", "suffix": ".png"}, "primary": true}], "photos": {"count": 0, "groups": []}}, "referralId": "e-0-4c9bc9fe0e9bb1f7cae6cd5f-27"}, {"reasons": {"count": 0, "items": [{"summary": "This spot is popular", "type": "general", "reasonName": "globalInteractionReason"}]}, "venue": {"id": "4be2368b1dd22d7f61bf93bd", "name": "Yorkwoods Library Theatre", "location": {"address": "1785 Finch Avenue West", "crossStreet": "Tobermory Drive", "lat": 43.759066879664786, "lng": -79.5075343183943, "labeledLatLngs": [{"label": "display", "lat": 43.759066879664786, "lng": -79.5075343183943}], "distance": 1119, "cc": "CA", "city": "Toronto", "state": "ON", "country": "Canada", "formattedAddress": ["1785 Finch Avenue West (Tobermory Drive)", "Toronto ON", "Canada"]}, "categories": [{"id": "4bf58dd8d48988d137941735", "name": "Theater", "pluralName": "Theaters", "shortName": "Theater", "icon": {"prefix": "https://ss3.4sqi.net/img/categories_v2/arts_entertainment/performingarts_theater_", "suffix": ".png"}, "primary": true}], "photos": {"count": 0, "groups": []}}, "referralId": "e-0-4be2368b1dd22d7f61bf93bd-28"}, {"reasons": {"count": 0, "items": [{"summary": "This spot is popular", "type": "general", "reasonName": "globalInteractionReason"}]}, "venue": {"id": "4bdcaa8cafe8c9b6cf775085", "name": "York Woods Library Theatre", "location": {"address": "Finch", "crossStreet": "Tobermory", "lat": 43.75873643074413, "lng": -79.50745150940088, "labeledLatLngs": [{"label": "display", "lat": 43.75873643074413, "lng": -79.50745150940088}], "distance": 1135, "cc": "CA", "city": "Toronto", "state": "ON", "country": "Canada", "formattedAddress": ["Finch (Tobermory)", "Toronto ON", "Canada"]}, "categories": [{"id": "4bf58dd8d48988d137941735", "name": "Theater", "pluralName": "Theaters", "shortName": "Theater", "icon": {"prefix": "https://ss3.4sqi.net/img/categories_v2/arts_entertainment/performingarts_theater_", "suffix": ".png"}, "primary": true}], "photos": {"count": 0, "groups": []}}, "referralId": "e-0-4bdcaa8cafe8c9b6cf775085-29"}, {"reasons": {"count": 0, "items": [{"summary": "This spot is popular", "type": "general", "reasonName": "globalInteractionReason"}]}, "venue": {"id": "50aff572e4b0ed6fa8a5f8f4", "name": "84 Sheppard Bus At Jane", "location": {"lat": 43.75176832893496, "lng": -79.51295325060212, "labeledLatLngs": [{"label": "display", "lat": 43.75176832893496, "lng": -79.51295325060212}], "distance": 1274, "cc": "CA", "country": "Canada", "formattedAddress": ["Canada"]}, "categories": [{"id": "4f2a23984b9023bd5841ed2c", "name": "Moving Target", "pluralName": "Moving Targets", "shortName": "Moving Target", "icon": {"prefix": "https://ss3.4sqi.net/img/categories_v2/travel/movingtarget_", "suffix": ".png"}, "primary": true}], "photos": {"count": 0, "groups": []}}, "referralId": "e-0-50aff572e4b0ed6fa8a5f8f4-30"}, {"reasons": {"count": 0, "items": [{"summary": "This spot is popular", "type": "general", "reasonName": "globalInteractionReason"}]}, "venue": {"id": "4b54cb44f964a520c4cc27e3", "name": "Yorkwoods Plaza", "location": {"address": "2845 Jane St.", "lat": 43.75013936233313, "lng": -79.51505063356379, "labeledLatLngs": [{"label": "display", "lat": 43.75013936233313, "lng": -79.51505063356379}], "distance": 1365, "cc": "CA", "city": "Toronto", "state": "ON", "country": "Canada", "formattedAddress": ["2845 Jane St.", "Toronto ON", "Canada"]}, "categories": [{"id": "4bf58dd8d48988d164941735", "name": "Plaza", "pluralName": "Plazas", "shortName": "Plaza", "icon": {"prefix": "https://ss3.4sqi.net/img/categories_v2/parks_outdoors/plaza_", "suffix": ".png"}, "primary": true}], "photos": {"count": 0, "groups": []}}, "referralId": "e-0-4b54cb44f964a520c4cc27e3-31"}]}]}}