{"meta": {"code": 200, "requestId": "5e1973a47828ae001b2b906f"}, "response": {"headerLocation": "The Beaches", "headerFullLocation": "The Beaches, Toronto", "headerLocationGranularity": "neighborhood", "totalResults": 78, "suggestedBounds": {"ne": {"lat": 43.685321408964, "lng": -79.28066031126512}, "sw": {"lat": 43.667393391035986, "lng": -79.30540208873488}}, "groups": [{"type": "Recommended Places", "name": "recommended", "items": [{"reasons": {"count": 0, "items": [{"summary": "This spot is popular", "type": "general", "reasonName": "globalInteractionReason"}]}, "venue": {"id": "4bd461bc77b29c74a07d9282", "name": "Glen Manor Ravine", "location": {"address": "Glen Manor", "crossStreet": "Queen St.", "lat": 43.67682094413784, "lng": -79.29394208780985, "labeledLatLngs": [{"label": "display", "lat": 43.67682094413784, "lng": -79.29394208780985}], "distance": 89, "cc": "CA", "city": "Toronto", "state": "ON", "country": "Canada", "formattedAddress": ["Glen Manor (Queen St.)", "Toronto ON", "Canada"]}, "categories": [{"id": "4bf58dd8d48988d159941735", "name": "Trail", "pluralName": "Trails", "shortName": "Trail", "icon": {"prefix": "https://ss3.4sqi.net/img/categories_v2/parks_outdoors/hikingtrail_", "suffix": ".png"}, "primary": true}], "photos": {"count": 0, "groups": []}}, "referralId": "e-0-4bd461bc77b29c74a07d9282-0"}, {"reasons": {"count": 0, "items": [{"summary": "This spot is popular", "type": "general", "reasonName": "globalInteractionReason"}]}, "venue": {"id": "4f5a855be4b0a4baa1ae0063", "name": "Tori's Bakeshop", "location": {"address": "2188 Queen Street E", "crossStreet": "Balsam Ave", "lat": 43.672113947269565, "lng": -79.29033140068843, "labeledLatLngs": [{"label": "display", "lat": 43.672113947269565, "lng": -79.29033140068843}], "distance": 519, "postalCode": "M431E6", "cc": "CA", "city": "Toronto", "state": "ON", "country": "Canada", "formattedAddress": ["2188 Queen Street E (Balsam Ave)", "Toronto ON M431E6", "Canada"]}, "categories": [{"id": "4bf58dd8d48988d1d3941735", "name": "Vegetarian / Vegan Restaurant", "pluralName": "Vegetarian / Vegan Restaurants", "shortName": "Vegetarian / Vegan", "icon": {"prefix": "https://ss3.4sqi.net/img/categories_v2/food/vegetarian_", "suffix": ".png"}, "primary": true}], "photos": {"count": 0, "groups": []}, "venuePage": {"id": "43778861"}}, "referralId": "e-0-4f5a855be4b0a4baa1ae0063-1"}, {"reasons": {"count": 0, "items": [{"summary": "This spot is popular", "type": "general", "reasonName": "globalInteractionReason"}]}, "venue": {"id": "4ad4c062f964a520c4f720e3", "name": "The Fox Theatre", "location": {"address": "2236 Queen St East", "crossStreet": "at Beech Ave", "lat": 43.67280115048827, "lng": -79.28727198292374, "labeledLatLngs": [{"label": "display", "lat": 43.67280115048827, "lng": -79.28727198292374}], "distance": 609, "postalCode": "M4E 1G2", "cc": "CA", "city": "Toronto", "state": "ON", "country": "Canada", "formattedAddress": ["2236 Queen St East (at Beech Ave)", "Toronto ON M4E 1G2", "Canada"]}, "categories": [{"id": "4bf58dd8d48988d17e941735", "name": "Indie Movie Theater", "pluralName": "Indie Movie Theaters", "shortName": "Indie Movies", "icon": {"prefix": "https://ss3.4sqi.net/img/categories_v2/arts_entertainment/movietheater_", "suffix": ".png"}, "primary": true}], "events": {"count": 7, "summary": "7 movies"}, "photos": {"count": 0, "groups": []}, "venuePage": {"id": "51838921"}}, "referralId": "e-0-4ad4c062f964a520c4f720e3-2"}, {"reasons": {"count": 0, "items": [{"summary": "This spot is popular", "type": "general", "reasonName": "globalInteractionReason"}]}, "venue": {"id": "4c0e40c0c700c9b6e185a3dd", "name": "Beaches Bake Shop", "location": {"address": "900 Kingston Rd.", "crossStreet": "Pickering Ave.", "lat": 43.68036312619922, "lng": -79.28969173416124, "labeledLatLngs": [{"label": "display", "lat": 43.68036312619922, "lng": -79.28969173416124}], "distance": 520, "cc": "CA", "city": "Toronto", "state": "ON", "country": "Canada", "formattedAddress": ["900 Kingston Rd. (Pickering Ave.)", "Toronto ON", "Canada"]}, "categories": [{"id": "4bf58dd8d48988d16a941735", "name": "Bakery", "pluralName": "Bakeries", "shortName": "Bakery", "icon": {"prefix": "https://ss3.4sqi.net/img/categories_v2/food/bakery_", "suffix": ".png"}, "primary": true}], "photos": {"count": 0, "groups": []}}, "referralId": "e-0-4c0e40c0c700c9b6e185a3dd-3"}, {"reasons": {"count": 0, "items": [{"summary": "This spot is popular", "type": "general", "reasonName": "globalInteractionReason"}]}, "venue": {"id": "5286b7dd498e8b747c1dfe71", "name": "The Beech Tree", "location": {"address": "924 Kingston Rd.", "lat": 43.680493, "lng": -79.288846, "labeledLatLngs": [{"label": "display", "lat": 43.680493, "lng": -79.288846}], "distance": 570, "cc": "CA", "city": "Toronto", "state": "ON", "country": "Canada", "formattedAddress": ["924 Kingston Rd.", "Toronto ON", "Canada"]}, "categories": [{"id": "4bf58dd8d48988d155941735", "name": "Gastropub", "pluralName": "Gastropubs", "shortName": "Gastropub", "icon": {"prefix": "https://ss3.4sqi.net/img/categories_v2/food/gastropub_", "suffix": ".png"}, "primary": true}], "photos": {"count": 0, "groups": []}}, "referralId": "e-0-5286b7dd498e8b747c1dfe71-4"}, {"reasons": {"count": 0, "items": [{"summary": "This spot is popular", "type": "general", "reasonName": "globalInteractionReason"}]}, "venue": {"id": "4b37c839f964a5200e4625e3", "name": "Ed's Real Scoop", "location": {"address": "2224 Queen St. E", "crossStreet": "btwn Spruce Hill & Beech", "lat": 43.67262965222451, "lng": -79.28799338520771, "labeledLatLngs": [{"label": "display", "lat": 43.67262965222451, "lng": -79.28799338520771}], "distance": 580, "postalCode": "M4E 1E9", "cc": "CA", "city": "Toronto", "state": "ON", "country": "Canada", "formattedAddress": ["2224 Queen St. E (btwn Spruce Hill & Beech)", "Toronto ON M4E 1E9", "Canada"]}, "categories": [{"id": "4bf58dd8d48988d1c9941735", "name": "Ice Cream Shop", "pluralName": "Ice Cream Shops", "shortName": "Ice Cream", "icon": {"prefix": "https://ss3.4sqi.net/img/categories_v2/food/icecream_", "suffix": ".png"}, "primary": true}], "photos": {"count": 0, "groups": []}}, "referralId": "e-0-4b37c839f964a5200e4625e3-5"}, {"reasons": {"count": 0, "items": [{"summary": "This spot is popular", "type": "general", "reasonName": "globalInteractionReason"}]}, "venue": {"id": "51e2a41f498ec07b5f39be58", "name": "Bagels On Fire", "location": {"address": "2248 Queen St. East", "lat": 43.672864007619, "lng": -79.28678355423988, "labeledLatLngs": [{"label": "display", "lat": 43.672864007619, "lng": -79.28678355423988}], "distance": 635, "cc": "CA", "city": "Toronto", "state": "ON", "country": "Canada", "formattedAddress": ["2248 Queen St. East", "Toronto ON", "Canada"]}, "categories": [{"id": "4bf58dd8d48988d179941735", "name": "Bagel Shop", "pluralName": "Bagel Shops", "shortName": "Bagels", "icon": {"prefix": "https://ss3.4sqi.net/img/categories_v2/food/bagels_", "suffix": ".png"}, "primary": true}], "photos": {"count": 0, "groups": []}}, "referralId": "e-0-51e2a41f498ec07b5f39be58-6"}, {"reasons": {"count": 0, "items": [{"summary": "This spot is popular", "type": "general", "reasonName": "globalInteractionReason"}]}, "venue": {"id": "4bb7944653649c74c6e845fb", "name": "Mastermind Toys", "location": {"address": "2134 Queen St E", "lat": 43.67145295439717, "lng": -79.29397108948247, "labeledLatLngs": [{"label": "display", "lat": 43.67145295439717, "lng": -79.29397108948247}], "distance": 551, "postalCode": "M4E 1E3", "cc": "CA", "city": "Toronto", "state": "ON", "country": "Canada", "formattedAddress": ["2134 Queen St E", "Toronto ON M4E 1E3", "Canada"]}, "categories": [{"id": "4bf58dd8d48988d1f3941735", "name": "Toy / Game Store", "pluralName": "Toy / Game Stores", "shortName": "Toys & Games", "icon": {"prefix": "https://ss3.4sqi.net/img/categories_v2/shops/toys_", "suffix": ".png"}, "primary": true}], "photos": {"count": 0, "groups": []}}, "referralId": "e-0-4bb7944653649c74c6e845fb-7"}, {"reasons": {"count": 0, "items": [{"summary": "This spot is popular", "type": "general", "reasonName": "globalInteractionReason"}]}, "venue": {"id": "4ad795aff964a520740c21e3", "name": "The Remarkable Bean", "location": {"address": "2242 Queen St E", "crossStreet": "Beech Ave", "lat": 43.67280091854837, "lng": -79.28703802232461, "labeledLatLngs": [{"label": "display", "lat": 43.67280091854837, "lng": -79.28703802232461}], "distance": 624, "postalCode": "M4E 1G2", "cc": "CA", "city": "Toronto", "state": "ON", "country": "Canada", "formattedAddress": ["2242 Queen St E (Beech Ave)", "Toronto ON M4E 1G2", "Canada"]}, "categories": [{"id": "4bf58dd8d48988d1e0931735", "name": "Coffee Shop", "pluralName": "Coffee Shops", "shortName": "Coffee Shop", "icon": {"prefix": "https://ss3.4sqi.net/img/categories_v2/food/coffeeshop_", "suffix": ".png"}, "primary": true}], "photos": {"count": 0, "groups": []}}, "referralId": "e-0-4ad795aff964a520740c21e3-8"}, {"reasons": {"count": 0, "items": [{"summary": "This spot is popular", "type": "general", "reasonName": "globalInteractionReason"}]}, "venue": {"id": "4ad4c062f964a52011f820e3", "name": "The Big Carrot Natural Food Market", "location": {"address": "125 Southwood Dr", "lat": 43.678879, "lng": -79.297734, "labeledLatLngs": [{"label": "display", "lat": 43.678879, "lng": -79.297734}], "distance": 471, "postalCode": "M4E 0B8", "cc": "CA", "city": "Toronto", "state": "ON", "country": "Canada", "formattedAddress": ["125 Southwood Dr", "Toronto ON M4E 0B8", "Canada"]}, "categories": [{"id": "50aa9e744b90af0d42d5de0e", "name": "Health Food Store", "pluralName": "Health Food Stores", "shortName": "Health Food Store", "icon": {"prefix": "https://ss3.4sqi.net/img/categories_v2/shops/food_grocery_", "suffix": ".png"}, "primary": true}], "photos": {"count": 0, "groups": []}, "venuePage": {"id": "75150878"}}, "referralId": "e-0-4ad4c062f964a52011f820e3-9"}, {"reasons": {"count": 0, "items": [{"summary": "This spot is popular", "type": "general", "reasonName": "globalInteractionReason"}]}, "venue": {"id": "4e261a1118a81b3b73a9e1e9", "name": "Veloute Bistro", "location": {"address": "2343 Queen St E", "lat": 43.672267, "lng": -79.289584, "labeledLatLngs": [{"label": "display", "lat": 43.672267, "lng": -79.289584}], "distance": 533, "postalCode": "M4E 1H2", "cc": "CA", "city": "Toronto", "state": "ON", "country": "Canada", "formattedAddress": ["2343 Queen St E", "Toronto ON M4E 1H2", "Canada"]}, "categories": [{"id": "4bf58dd8d48988d10c941735", "name": "French Restaurant", "pluralName": "French Restaurants", "shortName": "French", "icon": {"prefix": "https://ss3.4sqi.net/img/categories_v2/food/french_", "suffix": ".png"}, "primary": true}], "photos": {"count": 0, "groups": []}}, "referralId": "e-0-4e261a1118a81b3b73a9e1e9-10"}, {"reasons": {"count": 0, "items": [{"summary": "This spot is popular", "type": "general", "reasonName": "globalInteractionReason"}]}, "venue": {"id": "4ae33773f964a520ca9121e3", "name": "Beacher Cafe", "location": {"address": "2162 Queen St E", "crossStreet": "Maclean Ave", "lat": 43.67193800612107, "lng": -79.29123801741737, "labeledLatLngs": [{"label": "display", "lat": 43.67193800612107, "lng": -79.29123801741737}], "distance": 512, "cc": "CA", "city": "Toronto", "state": "ON", "country": "Canada", "formattedAddress": ["2162 Queen St E (Maclean Ave)", "Toronto ON", "Canada"]}, "categories": [{"id": "4bf58dd8d48988d143941735", "name": "Breakfast Spot", "pluralName": "Breakfast Spots", "shortName": "Breakfast", "icon": {"prefix": "https://ss3.4sqi.net/img/categories_v2/food/breakfast_", "suffix": ".png"}, "primary": true}], "photos": {"count": 0, "groups": []}}, "referralId": "e-0-4ae33773f964a520ca9121e3-11"}, {"reasons": {"count": 0, "items": [{"summary": "This spot is popular", "type": "general", "reasonName": "globalInteractionReason"}]}, "venue": {"id": "4bae1ed7f964a520ba863be3", "name": "Kew Gardens", "location": {"address": "2075 Queen Street East", "crossStreet": "btwn Waverly Rd. & Lee Ave.", "lat": 43.66903821389327, "lng": -79.29853750338029, "labeledLatLngs": [{"label": "display", "lat": 43.66903821389327, "lng": -79.29853750338029}], "distance": 927, "postalCode": "M4L 1J1", "cc": "CA", "city": "Toronto", "state": "ON", "country": "Canada", "formattedAddress": ["2075 Queen Street East (btwn Waverly Rd. & Lee Ave.)", "Toronto ON M4L 1J1", "Canada"]}, "categories": [{"id": "4bf58dd8d48988d163941735", "name": "Park", "pluralName": "Parks", "shortName": "Park", "icon": {"prefix": "https://ss3.4sqi.net/img/categories_v2/parks_outdoors/park_", "suffix": ".png"}, "primary": true}], "photos": {"count": 0, "groups": []}}, "referralId": "e-0-4bae1ed7f964a520ba863be3-12"}, {"reasons": {"count": 0, "items": [{"summary": "This spot is popular", "type": "general", "reasonName": "globalInteractionReason"}]}, "venue": {"id": "4c4a6282f7cc1b8d7da94e3e", "name": "I'm On The Beach", "location": {"lat": 43.67036350292171, "lng": -79.28469553696922, "labeledLatLngs": [{"label": "display", "lat": 43.67036350292171, "lng": -79.28469553696922}], "distance": 946, "cc": "CA", "city": "Toronto", "state": "ON", "country": "Canada", "formattedAddress": ["Toronto ON", "Canada"]}, "categories": [{"id": "4bf58dd8d48988d1e2941735", "name": "Beach", "pluralName": "Beaches", "shortName": "Beach", "icon": {"prefix": "https://ss3.4sqi.net/img/categories_v2/parks_outdoors/beach_", "suffix": ".png"}, "primary": true}], "photos": {"count": 0, "groups": []}}, "referralId": "e-0-4c4a6282f7cc1b8d7da94e3e-13"}, {"reasons": {"count": 0, "items": [{"summary": "This spot is popular", "type": "general", "reasonName": "globalInteractionReason"}]}, "venue": {"id": "4b083628f964a5205f0623e3", "name": "The Feathers Pub", "location": {"address": "962 Kingston Rd", "crossStreet": "Scarborough Rd", "lat": 43.68056998773574, "lng": -79.2874727412641, "labeledLatLngs": [{"label": "display", "lat": 43.68056998773574, "lng": -79.2874727412641}], "distance": 648, "postalCode": "M4E 1S7", "cc": "CA", "city": "Toronto", "state": "ON", "country": "Canada", "formattedAddress": ["962 Kingston Rd (Scarborough Rd)", "Toronto ON M4E 1S7", "Canada"]}, "categories": [{"id": "4bf58dd8d48988d11b941735", "name": "Pub", "pluralName": "Pubs", "shortName": "Pub", "icon": {"prefix": "https://ss3.4sqi.net/img/categories_v2/nightlife/pub_", "suffix": ".png"}, "primary": true}], "photos": {"count": 0, "groups": []}}, "referralId": "e-0-4b083628f964a5205f0623e3-14"}, {"reasons": {"count": 0, "items": [{"summary": "This spot is popular", "type": "general", "reasonName": "globalInteractionReason"}]}, "venue": {"id": "51fd37b5498e5b11f3af7068", "name": "Xola", "location": {"address": "2222A Queen St. E.", "lat": 43.67260275638694, "lng": -79.28808039792285, "labeledLatLngs": [{"label": "display", "lat": 43.67260275638694, "lng": -79.28808039792285}], "distance": 577, "postalCode": "M4E 1H2", "cc": "CA", "city": "Toronto", "state": "ON", "country": "Canada", "formattedAddress": ["2222A Queen St. E.", "Toronto ON M4E 1H2", "Canada"]}, "categories": [{"id": "4bf58dd8d48988d1c1941735", "name": "Mexican Restaurant", "pluralName": "Mexican Restaurants", "shortName": "Mexican", "icon": {"prefix": "https://ss3.4sqi.net/img/categories_v2/food/mexican_", "suffix": ".png"}, "primary": true}], "photos": {"count": 0, "groups": []}, "venuePage": {"id": "131939296"}}, "referralId": "e-0-51fd37b5498e5b11f3af7068-15"}, {"reasons": {"count": 0, "items": [{"summary": "This spot is popular", "type": "general", "reasonName": "globalInteractionReason"}]}, "venue": {"id": "52fa6d6d498e17e0ae5cf9e7", "name": "Balmy Beach", "location": {"lat": 43.668168578916216, "lng": -79.29135534728574, "labeledLatLngs": [{"label": "display", "lat": 43.668168578916216, "lng": -79.29135534728574}], "distance": 921, "cc": "CA", "city": "Toronto", "state": "ON", "country": "Canada", "formattedAddress": ["Toronto ON", "Canada"]}, "categories": [{"id": "4bf58dd8d48988d1e2941735", "name": "Beach", "pluralName": "Beaches", "shortName": "Beach", "icon": {"prefix": "https://ss3.4sqi.net/img/categories_v2/parks_outdoors/beach_", "suffix": ".png"}, "primary": true}], "photos": {"count": 0, "groups": []}}, "referralId": "e-0-52fa6d6d498e17e0ae5cf9e7-16"}, {"reasons": {"count": 0, "items": [{"summary": "This spot is popular", "type": "general", "reasonName": "globalInteractionReason"}]}, "venue": {"id": "5aa5509cbed48336116ed8a8", "name": "Green Eggplant", "location": {"address": "2022 Queen Street East", "lat": 43.670517, "lng": -79.29866, "labeledLatLngs": [{"label": "display", "lat": 43.670517, "lng": -79.29866}], "distance": 792, "postalCode": "M4L 1J4", "cc": "CA", "city": "Toronto", "state": "ON", "country": "Canada", "formattedAddress": ["2022 Queen Street East", "Toronto ON M4L 1J4", "Canada"]}, "categories": [{"id": "4bf58dd8d48988d1c0941735", "name": "Mediterranean Restaurant", "pluralName": "Mediterranean Restaurants", "shortName": "Mediterranean", "icon": {"prefix": "https://ss3.4sqi.net/img/categories_v2/food/mediterranean_", "suffix": ".png"}, "primary": true}], "photos": {"count": 0, "groups": []}}, "referralId": "e-0-5aa5509cbed48336116ed8a8-17"}, {"reasons": {"count": 0, "items": [{"summary": "This spot is popular", "type": "general", "reasonName": "globalInteractionReason"}]}, "venue": {"id": "4b79d0c5f964a520ef132fe3", "name": "Vi Vetha", "location": {"address": "2485 Queen St E", "crossStreet": "Neville Park", "lat": 43.67372046319636, "lng": -79.28215483901357, "labeledLatLngs": [{"label": "display", "lat": 43.67372046319636, "lng": -79.28215483901357}], "distance": 923, "postalCode": "M4E 1H9", "cc": "CA", "city": "Toronto", "state": "ON", "country": "Canada", "formattedAddress": ["2485 Queen St E (Neville Park)", "Toronto ON M4E 1H9", "Canada"]}, "categories": [{"id": "4bf58dd8d48988d143941735", "name": "Breakfast Spot", "pluralName": "Breakfast Spots", "shortName": "Breakfast", "icon": {"prefix": "https://ss3.4sqi.net/img/categories_v2/food/breakfast_", "suffix": ".png"}, "primary": true}], "photos": {"count": 0, "groups": []}}, "referralId": "e-0-4b79d0c5f964a520ef132fe3-18"}, {"reasons": {"count": 0, "items": [{"summary": "This spot is popular", "type": "general", "reasonName": "globalInteractionReason"}]}, "venue": {"id": "5144681ce4b082070dff7210", "name": "The Ten Spot", "location": {"address": "2012 Queen St. E.", "lat": 43.6703404552084, "lng": -79.29936300317976, "labeledLatLngs": [{"label": "display", "lat": 43.6703404552084, "lng": -79.29936300317976}], "distance": 841, "cc": "CA", "city": "Toronto", "state": "ON", "country": "Canada", "formattedAddress": ["2012 Queen St. E.", "Toronto ON", "Canada"]}, "categories": [{"id": "4f04aa0c2fb6e1c99f3db0b8", "name": "Nail Salon", "pluralName": "Nail Salons", "shortName": "Nail Salon", "icon": {"prefix": "https://ss3.4sqi.net/img/categories_v2/shops/nailsalon_", "suffix": ".png"}, "primary": true}], "photos": {"count": 0, "groups": []}}, "referralId": "e-0-5144681ce4b082070dff7210-19"}, {"reasons": {"count": 0, "items": [{"summary": "This spot is popular", "type": "general", "reasonName": "globalInteractionReason"}]}, "venue": {"id": "4bd36093046076b0ecf17571", "name": "Castro's Lounge", "location": {"address": "2116 Queen Street E", "crossStreet": "Wineva Ave.", "lat": 43.671103559068854, "lng": -79.29510713657004, "labeledLatLngs": [{"label": "display", "lat": 43.671103559068854, "lng": -79.29510713657004}], "distance": 608, "postalCode": "M4E 1E2", "cc": "CA", "city": "Toronto", "state": "ON", "country": "Canada", "formattedAddress": ["2116 Queen Street E (Wineva Ave.)", "Toronto ON M4E 1E2", "Canada"]}, "categories": [{"id": "4bf58dd8d48988d116941735", "name": "Bar", "pluralName": "Bars", "shortName": "Bar", "icon": {"prefix": "https://ss3.4sqi.net/img/categories_v2/nightlife/pub_", "suffix": ".png"}, "primary": true}], "photos": {"count": 0, "groups": []}, "venuePage": {"id": "53685858"}}, "referralId": "e-0-4bd36093046076b0ecf17571-20"}, {"reasons": {"count": 0, "items": [{"summary": "This spot is popular", "type": "general", "reasonName": "globalInteractionReason"}]}, "venue": {"id": "52f1344511d24bedb97f262e", "name": "Sanna's Farmacia", "location": {"address": "2096 Queen Street East", "lat": 43.670929268214614, "lng": -79.29596900939941, "labeledLatLngs": [{"label": "display", "lat": 43.670929268214614, "lng": -79.29596900939941}], "distance": 648, "postalCode": "M4E 1E1", "cc": "CA", "city": "Toronto", "state": "ON", "country": "Canada", "formattedAddress": ["2096 Queen Street East", "Toronto ON M4E 1E1", "Canada"]}, "categories": [{"id": "4bf58dd8d48988d112941735", "name": "Juice Bar", "pluralName": "Juice Bars", "shortName": "Juice Bar", "icon": {"prefix": "https://ss3.4sqi.net/img/categories_v2/food/juicebar_", "suffix": ".png"}, "primary": true}], "photos": {"count": 0, "groups": []}, "venuePage": {"id": "78216786"}}, "referralId": "e-0-52f1344511d24bedb97f262e-21"}, {"reasons": {"count": 0, "items": [{"summary": "This spot is popular", "type": "general", "reasonName": "globalInteractionReason"}]}, "venue": {"id": "587bae87286804584acd2a7a", "name": "Isabella\u2019s Boutique Restaurant", "location": {"address": "2328 Queen St E", "lat": 43.673767, "lng": -79.282703, "labeledLatLngs": [{"label": "display", "lat": 43.673767, "lng": -79.282703}], "distance": 880, "cc": "CA", "neighborhood": "The Beaches", "city": "Toronto", "state": "ON", "country": "Canada", "formattedAddress": ["2328 Queen St E", "Toronto ON", "Canada"]}, "categories": [{"id": "4bf58dd8d48988d111941735", "name": "Japanese Restaurant", "pluralName": "Japanese Restaurants", "shortName": "Japanese", "icon": {"prefix": "https://ss3.4sqi.net/img/categories_v2/food/japanese_", "suffix": ".png"}, "primary": true}], "photos": {"count": 0, "groups": []}}, "referralId": "e-0-587bae87286804584acd2a7a-22"}, {"reasons": {"count": 0, "items": [{"summary": "This spot is popular", "type": "general", "reasonName": "globalInteractionReason"}]}, "venue": {"id": "4ad886bbf964a520051221e3", "name": "Sunset Grill", "location": {"address": "2006 Queen St. E", "crossStreet": "at Lee Ave.", "lat": 43.67021370116725, "lng": -79.29965336344807, "labeledLatLngs": [{"label": "display", "lat": 43.67021370116725, "lng": -79.29965336344807}], "distance": 867, "postalCode": "M5H 3W4", "cc": "CA", "city": "Toronto", "state": "ON", "country": "Canada", "formattedAddress": ["2006 Queen St. E (at Lee Ave.)", "Toronto ON M5H 3W4", "Canada"]}, "categories": [{"id": "4bf58dd8d48988d147941735", "name": "Diner", "pluralName": "Diners", "shortName": "Diner", "icon": {"prefix": "https://ss3.4sqi.net/img/categories_v2/food/diner_", "suffix": ".png"}, "primary": true}], "photos": {"count": 0, "groups": []}}, "referralId": "e-0-4ad886bbf964a520051221e3-23"}, {"reasons": {"count": 0, "items": [{"summary": "This spot is popular", "type": "general", "reasonName": "globalInteractionReason"}]}, "venue": {"id": "4b467238f964a520402126e3", "name": "The Fill Station", "location": {"address": "2282 Queen St. E.", "lat": 43.673255571124315, "lng": -79.28494255033982, "labeledLatLngs": [{"label": "display", "lat": 43.673255571124315, "lng": -79.28494255033982}], "distance": 737, "cc": "CA", "city": "Toronto", "state": "ON", "country": "Canada", "formattedAddress": ["2282 Queen St. E.", "Toronto ON", "Canada"]}, "categories": [{"id": "4bf58dd8d48988d11b941735", "name": "Pub", "pluralName": "Pubs", "shortName": "Pub", "icon": {"prefix": "https://ss3.4sqi.net/img/categories_v2/nightlife/pub_", "suffix": ".png"}, "primary": true}], "photos": {"count": 0, "groups": []}}, "referralId": "e-0-4b467238f964a520402126e3-24"}, {"reasons": {"count": 0, "items": [{"summary": "This spot is popular", "type": "general", "reasonName": "globalInteractionReason"}]}, "venue": {"id": "539b3958498e08a9ddb4f7c6", "name": "LCBO", "location": {"lat": 43.66999339203174, "lng": -79.30038317305332, "labeledLatLngs": [{"label": "display", "lat": 43.66999339203174, "lng": -79.30038317305332}], "distance": 923, "cc": "CA", "city": "Toronto", "state": "ON", "country": "Canada", "formattedAddress": ["Toronto ON", "Canada"]}, "categories": [{"id": "4bf58dd8d48988d186941735", "name": "Liquor Store", "pluralName": "Liquor Stores", "shortName": "Liquor Store", "icon": {"prefix": "https://ss3.4sqi.net/img/categories_v2/shops/food_liquor_", "suffix": ".png"}, "primary": true}], "photos": {"count": 0, "groups": []}}, "referralId": "e-0-539b3958498e08a9ddb4f7c6-25"}, {"reasons": {"count": 0, "items": [{"summary": "This spot is popular", "type": "general", "reasonName": "globalInteractionReason"}]}, "venue": {"id": "4ec02b2b6d8654fb6403141b", "name": "DAVIDsTEA", "location": {"address": "2010 Queen St E", "lat": 43.67016854057715, "lng": -79.29949845013677, "labeledLatLngs": [{"label": "display", "lat": 43.67016854057715, "lng": -79.29949845013677}], "distance": 863, "postalCode": "M4L 1J3", "cc": "CA", "city": "Toronto", "state": "ON", "country": "Canada", "formattedAddress": ["2010 Queen St E", "Toronto ON M4L 1J3", "Canada"]}, "categories": [{"id": "4bf58dd8d48988d1dc931735", "name": "Tea Room", "pluralName": "Tea Rooms", "shortName": "Tea Room", "icon": {"prefix": "https://ss3.4sqi.net/img/categories_v2/food/tearoom_", "suffix": ".png"}, "primary": true}], "photos": {"count": 0, "groups": []}}, "referralId": "e-0-4ec02b2b6d8654fb6403141b-26"}, {"reasons": {"count": 0, "items": [{"summary": "This spot is popular", "type": "general", "reasonName": "globalInteractionReason"}]}, "venue": {"id": "4b7af66ef964a520ac482fe3", "name": "Life Is Sweet", "location": {"address": "2345 Queen St E", "crossStreet": "at Balsam Ave", "lat": 43.67373911278509, "lng": -79.28261255174259, "labeledLatLngs": [{"label": "display", "lat": 43.67373911278509, "lng": -79.28261255174259}], "distance": 888, "cc": "CA", "city": "Toronto", "state": "ON", "country": "Canada", "formattedAddress": ["2345 Queen St E (at Balsam Ave)", "Toronto ON", "Canada"]}, "categories": [{"id": "4bf58dd8d48988d1bc941735", "name": "Cupcake Shop", "pluralName": "Cupcake Shops", "shortName": "Cupcakes", "icon": {"prefix": "https://ss3.4sqi.net/img/categories_v2/food/cupcakes_", "suffix": ".png"}, "primary": true}], "photos": {"count": 0, "groups": []}}, "referralId": "e-0-4b7af66ef964a520ac482fe3-27"}, {"reasons": {"count": 0, "items": [{"summary": "This spot is popular", "type": "general", "reasonName": "globalInteractionReason"}]}, "venue": {"id": "4cb32a6539458cfaaf5a18a0", "name": "Kew Gardens Play Park", "location": {"lat": 43.66926676521643, "lng": -79.29968375785205, "labeledLatLngs": [{"label": "display", "lat": 43.66926676521643, "lng": -79.29968375785205}], "distance": 953, "cc": "CA", "country": "Canada", "formattedAddress": ["Canada"]}, "categories": [{"id": "4bf58dd8d48988d163941735", "name": "Park", "pluralName": "Parks", "shortName": "Park", "icon": {"prefix": "https://ss3.4sqi.net/img/categories_v2/parks_outdoors/park_", "suffix": ".png"}, "primary": true}], "photos": {"count": 0, "groups": []}}, "referralId": "e-0-4cb32a6539458cfaaf5a18a0-28"}, {"reasons": {"count": 0, "items": [{"summary": "This spot is popular", "type": "general", "reasonName": "globalInteractionReason"}]}, "venue": {"id": "4aff4c2df964a520103722e3", "name": "Yumei Sushi", "location": {"address": "2116 Queen St E", "lat": 43.67110753520725, "lng": -79.29506363969708, "labeledLatLngs": [{"label": "display", "lat": 43.67110753520725, "lng": -79.29506363969708}], "distance": 606, "cc": "CA", "city": "Toronto", "state": "ON", "country": "Canada", "formattedAddress": ["2116 Queen St E", "Toronto ON", "Canada"]}, "categories": [{"id": "4bf58dd8d48988d111941735", "name": "Japanese Restaurant", "pluralName": "Japanese Restaurants", "shortName": "Japanese", "icon": {"prefix": "https://ss3.4sqi.net/img/categories_v2/food/japanese_", "suffix": ".png"}, "primary": true}], "photos": {"count": 0, "groups": []}}, "referralId": "e-0-4aff4c2df964a520103722e3-29"}, {"reasons": {"count": 0, "items": [{"summary": "This spot is popular", "type": "general", "reasonName": "globalInteractionReason"}]}, "venue": {"id": "4bec7426b68520a1aa231287", "name": "Shoppers Drug Mart", "location": {"address": "2000 Queen St E", "crossStreet": "Bellefair Ave", "lat": 43.670639, "lng": -79.29769, "labeledLatLngs": [{"label": "display", "lat": 43.670639, "lng": -79.29769}], "distance": 738, "postalCode": "M4L 1J2", "cc": "CA", "city": "Toronto", "state": "ON", "country": "Canada", "formattedAddress": ["2000 Queen St E (Bellefair Ave)", "Toronto ON M4L 1J2", "Canada"]}, "categories": [{"id": "4bf58dd8d48988d10f951735", "name": "Pharmacy", "pluralName": "Pharmacies", "shortName": "Pharmacy", "icon": {"prefix": "https://ss3.4sqi.net/img/categories_v2/shops/pharmacy_", "suffix": ".png"}, "primary": true}], "photos": {"count": 0, "groups": []}}, "referralId": "e-0-4bec7426b68520a1aa231287-30"}, {"reasons": {"count": 0, "items": [{"summary": "This spot is popular", "type": "general", "reasonName": "globalInteractionReason"}]}, "venue": {"id": "4caf386e75ebb60c8b5dbaad", "name": "Pippins Tea Company", "location": {"address": "2098 Queen St E", "crossStreet": "Wineva Ave", "lat": 43.670992, "lng": -79.29590463638306, "labeledLatLngs": [{"label": "display", "lat": 43.670992, "lng": -79.29590463638306}], "distance": 640, "postalCode": "M4E 1R1", "cc": "CA", "city": "Toronto", "state": "ON", "country": "Canada", "formattedAddress": ["2098 Queen St E (Wineva Ave)", "Toronto ON M4E 1R1", "Canada"]}, "categories": [{"id": "4bf58dd8d48988d1dc931735", "name": "Tea Room", "pluralName": "Tea Rooms", "shortName": "Tea Room", "icon": {"prefix": "https://ss3.4sqi.net/img/categories_v2/food/tearoom_", "suffix": ".png"}, "primary": true}], "photos": {"count": 0, "groups": []}}, "referralId": "e-0-4caf386e75ebb60c8b5dbaad-31"}, {"reasons": {"count": 0, "items": [{"summary": "This spot is popular", "type": "general", "reasonName": "globalInteractionReason"}]}, "venue": {"id": "4d0e5be2dc932c0f09690bac", "name": "COBS Bread", "location": {"address": "1975 Queen St E", "lat": 43.66988072784326, "lng": -79.30082792210273, "labeledLatLngs": [{"label": "display", "lat": 43.66988072784326, "lng": -79.30082792210273}], "distance": 955, "postalCode": "M4L 1J1", "cc": "CA", "city": "Toronto", "state": "ON", "country": "Canada", "formattedAddress": ["1975 Queen St E", "Toronto ON M4L 1J1", "Canada"]}, "categories": [{"id": "4bf58dd8d48988d16a941735", "name": "Bakery", "pluralName": "Bakeries", "shortName": "Bakery", "icon": {"prefix": "https://ss3.4sqi.net/img/categories_v2/food/bakery_", "suffix": ".png"}, "primary": true}], "photos": {"count": 0, "groups": []}}, "referralId": "e-0-4d0e5be2dc932c0f09690bac-32"}, {"reasons": {"count": 0, "items": [{"summary": "This spot is popular", "type": "general", "reasonName": "globalInteractionReason"}]}, "venue": {"id": "4d570ac5ba5b224b2fb62214", "name": "Coles", "location": {"address": "2169 Queen St E", "crossStreet": "Lee Ave", "lat": 43.67045360766755, "lng": -79.29809417635019, "labeledLatLngs": [{"label": "display", "lat": 43.67045360766755, "lng": -79.29809417635019}], "distance": 773, "postalCode": "M4L 1J1", "cc": "CA", "city": "Toronto", "state": "ON", "country": "Canada", "formattedAddress": ["2169 Queen St E (Lee Ave)", "Toronto ON M4L 1J1", "Canada"]}, "categories": [{"id": "4bf58dd8d48988d114951735", "name": "Bookstore", "pluralName": "Bookstores", "shortName": "Bookstore", "icon": {"prefix": "https://ss3.4sqi.net/img/categories_v2/shops/bookstore_", "suffix": ".png"}, "primary": true}], "photos": {"count": 0, "groups": []}}, "referralId": "e-0-4d570ac5ba5b224b2fb62214-33"}, {"reasons": {"count": 0, "items": [{"summary": "This spot is popular", "type": "general", "reasonName": "globalInteractionReason"}]}, "venue": {"id": "4dcd7c6352b1f8915b7e7f7e", "name": "Delhi Bistro", "location": {"address": "2214 Queen Street East", "crossStreet": "Spruce Hill Road", "lat": 43.67250606883317, "lng": -79.288353, "labeledLatLngs": [{"label": "display", "lat": 43.67250606883317, "lng": -79.288353}], "distance": 570, "postalCode": "M4E 1E9", "cc": "CA", "city": "Toronto", "state": "ON", "country": "Canada", "formattedAddress": ["2214 Queen Street East (Spruce Hill Road)", "Toronto ON M4E 1E9", "Canada"]}, "categories": [{"id": "4bf58dd8d48988d10f941735", "name": "Indian Restaurant", "pluralName": "Indian Restaurants", "shortName": "Indian", "icon": {"prefix": "https://ss3.4sqi.net/img/categories_v2/food/indian_", "suffix": ".png"}, "primary": true}], "photos": {"count": 0, "groups": []}}, "referralId": "e-0-4dcd7c6352b1f8915b7e7f7e-34"}, {"reasons": {"count": 0, "items": [{"summary": "This spot is popular", "type": "general", "reasonName": "globalInteractionReason"}]}, "venue": {"id": "4d4d9acf1a2d721e0e31991d", "name": "Cool Runnings", "location": {"address": "146 Main St", "crossStreet": "Gerrard St E", "lat": 43.68349688997171, "lng": -79.30001696869618, "labeledLatLngs": [{"label": "display", "lat": 43.68349688997171, "lng": -79.30001696869618}], "distance": 973, "postalCode": "M4E 2V8", "cc": "CA", "city": "Toronto", "state": "ON", "country": "Canada", "formattedAddress": ["146 Main St (Gerrard St E)", "Toronto ON M4E 2V8", "Canada"]}, "categories": [{"id": "4bf58dd8d48988d144941735", "name": "Caribbean Restaurant", "pluralName": "Caribbean Restaurants", "shortName": "Caribbean", "icon": {"prefix": "https://ss3.4sqi.net/img/categories_v2/food/caribbean_", "suffix": ".png"}, "primary": true}], "photos": {"count": 0, "groups": []}}, "referralId": "e-0-4d4d9acf1a2d721e0e31991d-35"}, {"reasons": {"count": 0, "items": [{"summary": "This spot is popular", "type": "general", "reasonName": "globalInteractionReason"}]}, "venue": {"id": "4adb78e8f964a520d82721e3", "name": "Green Basil", "location": {"address": "2120 Queen St E", "crossStreet": "Hammersmith Ave", "lat": 43.67120043400348, "lng": -79.29471710812898, "labeledLatLngs": [{"label": "display", "lat": 43.67120043400348, "lng": -79.29471710812898}], "distance": 589, "cc": "CA", "city": "Toronto", "state": "ON", "country": "Canada", "formattedAddress": ["2120 Queen St E (Hammersmith Ave)", "Toronto ON", "Canada"]}, "categories": [{"id": "4bf58dd8d48988d149941735", "name": "Thai Restaurant", "pluralName": "Thai Restaurants", "shortName": "Thai", "icon": {"prefix": "https://ss3.4sqi.net/img/categories_v2/food/thai_", "suffix": ".png"}, "primary": true}], "photos": {"count": 0, "groups": []}}, "referralId": "e-0-4adb78e8f964a520d82721e3-36"}, {"reasons": {"count": 0, "items": [{"summary": "This spot is popular", "type": "general", "reasonName": "globalInteractionReason"}]}, "venue": {"id": "4c9651da01dd76b00367c248", "name": "Foodland - Toronto", "location": {"address": "2040 Queen St E", "crossStreet": "Lee Ave", "lat": 43.670736, "lng": -79.298267, "labeledLatLngs": [{"label": "display", "lat": 43.670736, "lng": -79.298267}], "distance": 754, "postalCode": "M4L 1J4", "cc": "CA", "city": "Toronto", "state": "ON", "country": "Canada", "formattedAddress": ["2040 Queen St E (Lee Ave)", "Toronto ON M4L 1J4", "Canada"]}, "categories": [{"id": "4bf58dd8d48988d118951735", "name": "Grocery Store", "pluralName": "Grocery Stores", "shortName": "Grocery Store", "icon": {"prefix": "https://ss3.4sqi.net/img/categories_v2/shops/food_grocery_", "suffix": ".png"}, "primary": true}], "photos": {"count": 0, "groups": []}}, "referralId": "e-0-4c9651da01dd76b00367c248-37"}, {"reasons": {"count": 0, "items": [{"summary": "This spot is popular", "type": "general", "reasonName": "globalInteractionReason"}]}, "venue": {"id": "4b0f33d9f964a520556023e3", "name": "The Green Dragon", "location": {"address": "1032 Kingston Road", "crossStreet": "At Victoria Park", "lat": 43.68083357358925, "lng": -79.28471180245829, "labeledLatLngs": [{"label": "display", "lat": 43.68083357358925, "lng": -79.28471180245829}], "distance": 834, "cc": "CA", "city": "Toronto", "state": "ON", "country": "Canada", "formattedAddress": ["1032 Kingston Road (At Victoria Park)", "Toronto ON", "Canada"]}, "categories": [{"id": "4bf58dd8d48988d11b941735", "name": "Pub", "pluralName": "Pubs", "shortName": "Pub", "icon": {"prefix": "https://ss3.4sqi.net/img/categories_v2/nightlife/pub_", "suffix": ".png"}, "primary": true}], "photos": {"count": 0, "groups": []}}, "referralId": "e-0-4b0f33d9f964a520556023e3-38"}, {"reasons": {"count": 0, "items": [{"summary": "This spot is popular", "type": "general", "reasonName": "globalInteractionReason"}]}, "venue": {"id": "5179b2b4e4b00ac936bb9b1e", "name": "Souvlaki Hut", "location": {"address": "2100 Queen St E", "crossStreet": "Wineva Ave", "lat": 43.671048072091374, "lng": -79.29575766112751, "labeledLatLngs": [{"label": "display", "lat": 43.671048072091374, "lng": -79.29575766112751}], "distance": 630, "postalCode": "M4E 1E8", "cc": "CA", "city": "Toronto", "state": "ON", "country": "Canada", "formattedAddress": ["2100 Queen St E (Wineva Ave)", "Toronto ON M4E 1E8", "Canada"]}, "categories": [{"id": "4bf58dd8d48988d10e941735", "name": "Greek Restaurant", "pluralName": "Greek Restaurants", "shortName": "Greek", "icon": {"prefix": "https://ss3.4sqi.net/img/categories_v2/food/greek_", "suffix": ".png"}, "primary": true}], "photos": {"count": 0, "groups": []}}, "referralId": "e-0-5179b2b4e4b00ac936bb9b1e-39"}, {"reasons": {"count": 0, "items": [{"summary": "This spot is popular", "type": "general", "reasonName": "globalInteractionReason"}]}, "venue": {"id": "553588fb498ea7ca06504fc8", "name": "The Real Jerk Beaches", "location": {"address": "1004 Kingston", "crossStreet": "Victoria Park", "lat": 43.680781, "lng": -79.285727, "labeledLatLngs": [{"label": "display", "lat": 43.680781, "lng": -79.285727}], "distance": 767, "cc": "CA", "city": "Toronto", "state": "ON", "country": "Canada", "formattedAddress": ["1004 Kingston (Victoria Park)", "Toronto ON", "Canada"]}, "categories": [{"id": "4bf58dd8d48988d144941735", "name": "Caribbean Restaurant", "pluralName": "Caribbean Restaurants", "shortName": "Caribbean", "icon": {"prefix": "https://ss3.4sqi.net/img/categories_v2/food/caribbean_", "suffix": ".png"}, "primary": true}], "photos": {"count": 0, "groups": []}, "venuePage": {"id": "199863071"}}, "referralId": "e-0-553588fb498ea7ca06504fc8-40"}, {"reasons": {"count": 0, "items": [{"summary": "This spot is popular", "type": "general", "reasonName": "globalInteractionReason"}]}, "venue": {"id": "4bd64cfdcfa7b7138a7a27da", "name": "Subway", "location": {"address": "2229 Queen Street East", "crossStreet": "at Wineva Ave.", "lat": 43.670812083087675, "lng": -79.29552581655025, "labeledLatLngs": [{"label": "display", "lat": 43.670812083087675, "lng": -79.29552581655025}], "distance": 649, "postalCode": "M4E 1E8", "cc": "CA", "city": "Toronto", "state": "ON", "country": "Canada", "formattedAddress": ["2229 Queen Street East (at Wineva Ave.)", "Toronto ON M4E 1E8", "Canada"]}, "categories": [{"id": "4bf58dd8d48988d1c5941735", "name": "Sandwich Place", "pluralName": "Sandwich Places", "shortName": "Sandwiches", "icon": {"prefix": "https://ss3.4sqi.net/img/categories_v2/food/deli_", "suffix": ".png"}, "primary": true}], "photos": {"count": 0, "groups": []}}, "referralId": "e-0-4bd64cfdcfa7b7138a7a27da-41"}, {"reasons": {"count": 0, "items": [{"summary": "This spot is popular", "type": "general", "reasonName": "globalInteractionReason"}]}, "venue": {"id": "51df585f498ef3df406f9857", "name": "No Bull Burger", "location": {"address": "1019 Kingston Rd.", "crossStreet": "at Bingham Ave.", "lat": 43.680760634916616, "lng": -79.28501935257889, "labeledLatLngs": [{"label": "display", "lat": 43.680760634916616, "lng": -79.28501935257889}], "distance": 810, "postalCode": "M4E 3T9", "cc": "CA", "city": "Toronto", "state": "ON", "country": "Canada", "formattedAddress": ["1019 Kingston Rd. (at Bingham Ave.)", "Toronto ON M4E 3T9", "Canada"]}, "categories": [{"id": "4bf58dd8d48988d16c941735", "name": "Burger Joint", "pluralName": "Burger Joints", "shortName": "Burgers", "icon": {"prefix": "https://ss3.4sqi.net/img/categories_v2/food/burger_", "suffix": ".png"}, "primary": true}], "photos": {"count": 0, "groups": []}}, "referralId": "e-0-51df585f498ef3df406f9857-42"}, {"reasons": {"count": 0, "items": [{"summary": "This spot is popular", "type": "general", "reasonName": "globalInteractionReason"}]}, "venue": {"id": "4e2ca34b227197a112e6850e", "name": "The Loop", "location": {"address": "971 Kingston Road", "crossStreet": "Scarborough Road", "lat": 43.680478733085074, "lng": -79.28725143648605, "labeledLatLngs": [{"label": "display", "lat": 43.680478733085074, "lng": -79.28725143648605}], "distance": 653, "cc": "CA", "city": "Toronto", "state": "ON", "country": "Canada", "formattedAddress": ["971 Kingston Road (Scarborough Road)", "Toronto ON", "Canada"]}, "categories": [{"id": "4bf58dd8d48988d116941735", "name": "Bar", "pluralName": "Bars", "shortName": "Bar", "icon": {"prefix": "https://ss3.4sqi.net/img/categories_v2/nightlife/pub_", "suffix": ".png"}, "primary": true}], "photos": {"count": 0, "groups": []}}, "referralId": "e-0-4e2ca34b227197a112e6850e-43"}, {"reasons": {"count": 0, "items": [{"summary": "This spot is popular", "type": "general", "reasonName": "globalInteractionReason"}]}, "venue": {"id": "5622e665498ecd5d33424dcf", "name": "Kyouka Ramen", "location": {"address": "2222 Queen St E", "crossStreet": "Beech", "lat": 43.672574, "lng": -79.287992, "labeledLatLngs": [{"label": "display", "lat": 43.672574, "lng": -79.287992}], "distance": 584, "postalCode": "M4E 1E9", "cc": "CA", "city": "Toronto", "state": "ON", "country": "Canada", "formattedAddress": ["2222 Queen St E (Beech)", "Toronto ON M4E 1E9", "Canada"]}, "categories": [{"id": "55a59bace4b013909087cb24", "name": "Ramen Restaurant", "pluralName": "Ramen Restaurants", "shortName": "Ramen", "icon": {"prefix": "https://ss3.4sqi.net/img/categories_v2/food/ramen_", "suffix": ".png"}, "primary": true}], "photos": {"count": 0, "groups": []}}, "referralId": "e-0-5622e665498ecd5d33424dcf-44"}, {"reasons": {"count": 0, "items": [{"summary": "This spot is popular", "type": "general", "reasonName": "globalInteractionReason"}]}, "venue": {"id": "4b281c1af964a520268f24e3", "name": "Juice and Java", "location": {"address": "2102 Queen St E", "crossStreet": "Wineva Ave", "lat": 43.67106189021513, "lng": -79.29575478082984, "labeledLatLngs": [{"label": "display", "lat": 43.67106189021513, "lng": -79.29575478082984}], "distance": 628, "cc": "CA", "city": "Toronto", "state": "ON", "country": "Canada", "formattedAddress": ["2102 Queen St E (Wineva Ave)", "Toronto ON", "Canada"]}, "categories": [{"id": "4bf58dd8d48988d16d941735", "name": "Caf\u00e9", "pluralName": "Caf\u00e9s", "shortName": "Caf\u00e9", "icon": {"prefix": "https://ss3.4sqi.net/img/categories_v2/food/cafe_", "suffix": ".png"}, "primary": true}], "photos": {"count": 0, "groups": []}}, "referralId": "e-0-4b281c1af964a520268f24e3-45"}, {"reasons": {"count": 0, "items": [{"summary": "This spot is popular", "type": "general", "reasonName": "globalInteractionReason"}]}, "venue": {"id": "4b32ba7df964a520bf1225e3", "name": "The Nutty Chocolatier", "location": {"address": "2179 Queen St. E", "lat": 43.67056725243875, "lng": -79.29759833250185, "labeledLatLngs": [{"label": "display", "lat": 43.67056725243875, "lng": -79.29759833250185}], "distance": 742, "postalCode": "M4E 1E5", "cc": "CA", "city": "Toronto", "state": "ON", "country": "Canada", "formattedAddress": ["2179 Queen St. E", "Toronto ON M4E 1E5", "Canada"]}, "categories": [{"id": "52f2ab2ebcbc57f1066b8b31", "name": "Chocolate Shop", "pluralName": "Chocolate Shops", "shortName": "Chocolate Shop", "icon": {"prefix": "https://ss3.4sqi.net/img/categories_v2/shops/candystore_", "suffix": ".png"}, "primary": true}], "photos": {"count": 0, "groups": []}}, "referralId": "e-0-4b32ba7df964a520bf1225e3-46"}, {"reasons": {"count": 0, "items": [{"summary": "This spot is popular", "type": "general", "reasonName": "globalInteractionReason"}]}, "venue": {"id": "4ad8d41df964a520121521e3", "name": "Grinder", "location": {"address": "126 Main St", "crossStreet": "at Gerrard St", "lat": 43.68307273557906, "lng": -79.2998748093593, "labeledLatLngs": [{"label": "display", "lat": 43.68307273557906, "lng": -79.2998748093593}], "distance": 928, "cc": "CA", "city": "Toronto", "state": "ON", "country": "Canada", "formattedAddress": ["126 Main St (at Gerrard St)", "Toronto ON", "Canada"]}, "categories": [{"id": "4bf58dd8d48988d1e0931735", "name": "Coffee Shop", "pluralName": "Coffee Shops", "shortName": "Coffee Shop", "icon": {"prefix": "https://ss3.4sqi.net/img/categories_v2/food/coffeeshop_", "suffix": ".png"}, "primary": true}], "photos": {"count": 0, "groups": []}}, "referralId": "e-0-4ad8d41df964a520121521e3-47"}, {"reasons": {"count": 0, "items": [{"summary": "This spot is popular", "type": "general", "reasonName": "globalInteractionReason"}]}, "venue": {"id": "4b8daea1f964a520480833e3", "name": "Grover Pub and Grub", "location": {"address": "676 Kingston Rd.", "crossStreet": "at Main St.", "lat": 43.679181434941015, "lng": -79.29721535878515, "labeledLatLngs": [{"label": "display", "lat": 43.679181434941015, "lng": -79.29721535878515}], "distance": 460, "postalCode": "M4E 1R4", "cc": "CA", "city": "Toronto", "state": "ON", "country": "Canada", "formattedAddress": ["676 Kingston Rd. (at Main St.)", "Toronto ON M4E 1R4", "Canada"]}, "categories": [{"id": "4bf58dd8d48988d11b941735", "name": "Pub", "pluralName": "Pubs", "shortName": "Pub", "icon": {"prefix": "https://ss3.4sqi.net/img/categories_v2/nightlife/pub_", "suffix": ".png"}, "primary": true}], "photos": {"count": 0, "groups": []}}, "referralId": "e-0-4b8daea1f964a520480833e3-48"}, {"reasons": {"count": 0, "items": [{"summary": "This spot is popular", "type": "general", "reasonName": "globalInteractionReason"}]}, "venue": {"id": "51314fc6e4b008f25ed4363d", "name": "Outrigger Tap & Table", "location": {"address": "2232 Queen St East", "lat": 43.67276131307108, "lng": -79.28776380031663, "labeledLatLngs": [{"label": "display", "lat": 43.67276131307108, "lng": -79.28776380031663}], "distance": 583, "cc": "CA", "city": "Toronto", "state": "ON", "country": "Canada", "formattedAddress": ["2232 Queen St East", "Toronto ON", "Canada"]}, "categories": [{"id": "4bf58dd8d48988d11b941735", "name": "Pub", "pluralName": "Pubs", "shortName": "Pub", "icon": {"prefix": "https://ss3.4sqi.net/img/categories_v2/nightlife/pub_", "suffix": ".png"}, "primary": true}], "photos": {"count": 0, "groups": []}}, "referralId": "e-0-51314fc6e4b008f25ed4363d-49"}]}]}}