{"meta": {"code": 200, "requestId": "5e1972f2aba297001c996749"}, "response": {"headerLocation": "Greektown", "headerFullLocation": "Greektown, Toronto", "headerLocationGranularity": "neighborhood", "totalResults": 79, "suggestedBounds": {"ne": {"lat": 43.685425105868, "lng": -79.34408935584017}, "sw": {"lat": 43.673689094131994, "lng": -79.36028664415983}}, "groups": [{"type": "Recommended Places", "name": "recommended", "items": [{"reasons": {"count": 0, "items": [{"summary": "This spot is popular", "type": "general", "reasonName": "globalInteractionReason"}]}, "venue": {"id": "4bce4183ef10952197da8386", "name": "Pantheon", "location": {"address": "407 Danforth Ave.", "crossStreet": "at Chester Ave.", "lat": 43.67762124481265, "lng": -79.35143390043564, "labeledLatLngs": [{"label": "display", "lat": 43.67762124481265, "lng": -79.35143390043564}], "distance": 223, "postalCode": "M4K 1P1", "cc": "CA", "city": "Toronto", "state": "ON", "country": "Canada", "formattedAddress": ["407 Danforth Ave. (at Chester Ave.)", "Toronto ON M4K 1P1", "Canada"]}, "categories": [{"id": "4bf58dd8d48988d10e941735", "name": "Greek Restaurant", "pluralName": "Greek Restaurants", "shortName": "Greek", "icon": {"prefix": "https://ss3.4sqi.net/img/categories_v2/food/greek_", "suffix": ".png"}, "primary": true}], "photos": {"count": 0, "groups": []}}, "referralId": "e-0-4bce4183ef10952197da8386-0"}, {"reasons": {"count": 0, "items": [{"summary": "This spot is popular", "type": "general", "reasonName": "globalInteractionReason"}]}, "venue": {"id": "4e3dbb5e45dd68e3273e03b7", "name": "Cafe Fiorentina", "location": {"address": "463 Danforth Ave", "crossStreet": "Logan Ave", "lat": 43.677743, "lng": -79.350115, "labeledLatLngs": [{"label": "display", "lat": 43.677743, "lng": -79.350115}], "distance": 261, "postalCode": "M4K 1P1", "cc": "CA", "city": "Toronto", "state": "ON", "country": "Canada", "formattedAddress": ["463 Danforth Ave (Logan Ave)", "Toronto ON M4K 1P1", "Canada"]}, "categories": [{"id": "4bf58dd8d48988d110941735", "name": "Italian Restaurant", "pluralName": "Italian Restaurants", "shortName": "Italian", "icon": {"prefix": "https://ss3.4sqi.net/img/categories_v2/food/italian_", "suffix": ".png"}, "primary": true}], "photos": {"count": 0, "groups": []}}, "referralId": "e-0-4e3dbb5e45dd68e3273e03b7-1"}, {"reasons": {"count": 0, "items": [{"summary": "This spot is popular", "type": "general", "reasonName": "globalInteractionReason"}]}, "venue": {"id": "5102df8df13673cd7084ac39", "name": "MenEssentials", "location": {"address": "412 Danforth Ave.", "crossStreet": "Near Danforth and Chester", "lat": 43.677820068604575, "lng": -79.35126543045044, "labeledLatLngs": [{"label": "display", "lat": 43.677820068604575, "lng": -79.35126543045044}], "distance": 207, "postalCode": "M4K 1P3", "cc": "CA", "city": "Toronto", "state": "ON", "country": "Canada", "formattedAddress": ["412 Danforth Ave. (Near Danforth and Chester)", "Toronto ON M4K 1P3", "Canada"]}, "categories": [{"id": "4bf58dd8d48988d10c951735", "name": "Cosmetics Shop", "pluralName": "Cosmetics Shops", "shortName": "Cosmetics", "icon": {"prefix": "https://ss3.4sqi.net/img/categories_v2/shops/beauty_cosmetic_", "suffix": ".png"}, "primary": true}], "photos": {"count": 0, "groups": []}, "venuePage": {"id": "50073247"}}, "referralId": "e-0-5102df8df13673cd7084ac39-2"}, {"reasons": {"count": 0, "items": [{"summary": "This spot is popular", "type": "general", "reasonName": "globalInteractionReason"}]}, "venue": {"id": "4dc72844d22dafda2fcf75e6", "name": "Dolce Gelato", "location": {"address": "414 Danforth Ave", "lat": 43.677772998450614, "lng": -79.35118737317053, "labeledLatLngs": [{"label": "display", "lat": 43.677772998450614, "lng": -79.35118737317053}], "distance": 214, "postalCode": "M4K 1P3", "cc": "CA", "city": "Toronto", "state": "ON", "country": "Canada", "formattedAddress": ["414 Danforth Ave", "Toronto ON M4K 1P3", "Canada"]}, "categories": [{"id": "4bf58dd8d48988d1c9941735", "name": "Ice Cream Shop", "pluralName": "Ice Cream Shops", "shortName": "Ice Cream", "icon": {"prefix": "https://ss3.4sqi.net/img/categories_v2/food/icecream_", "suffix": ".png"}, "primary": true}], "photos": {"count": 0, "groups": []}}, "referralId": "e-0-4dc72844d22dafda2fcf75e6-3"}, {"reasons": {"count": 0, "items": [{"summary": "This spot is popular", "type": "general", "reasonName": "globalInteractionReason"}]}, "venue": {"id": "4afdfadff964a520a52c22e3", "name": "Mezes", "location": {"address": "456 Danforth Ave", "crossStreet": "at Logan Ave.", "lat": 43.6779622615441, "lng": -79.35019606997218, "labeledLatLngs": [{"label": "display", "lat": 43.6779622615441, "lng": -79.35019606997218}], "distance": 239, "postalCode": "M4K 1P4", "cc": "CA", "city": "Toronto", "state": "ON", "country": "Canada", "formattedAddress": ["456 Danforth Ave (at Logan Ave.)", "Toronto ON M4K 1P4", "Canada"]}, "categories": [{"id": "4bf58dd8d48988d10e941735", "name": "Greek Restaurant", "pluralName": "Greek Restaurants", "shortName": "Greek", "icon": {"prefix": "https://ss3.4sqi.net/img/categories_v2/food/greek_", "suffix": ".png"}, "primary": true}], "photos": {"count": 0, "groups": []}}, "referralId": "e-0-4afdfadff964a520a52c22e3-4"}, {"reasons": {"count": 0, "items": [{"summary": "This spot is popular", "type": "general", "reasonName": "globalInteractionReason"}]}, "venue": {"id": "541ed0a3498e7ff705517bcd", "name": "Louis Cifer Brew Works", "location": {"address": "417 Danforth Ave", "crossStreet": "at Chester Ave", "lat": 43.677662745359996, "lng": -79.3513125762371, "labeledLatLngs": [{"label": "display", "lat": 43.677662745359996, "lng": -79.3513125762371}], "distance": 222, "postalCode": "M4K 1P1", "cc": "CA", "city": "Toronto", "state": "ON", "country": "Canada", "formattedAddress": ["417 Danforth Ave (at Chester Ave)", "Toronto ON M4K 1P1", "Canada"]}, "categories": [{"id": "50327c8591d4c4b30a586d5d", "name": "Brewery", "pluralName": "Breweries", "shortName": "Brewery", "icon": {"prefix": "https://ss3.4sqi.net/img/categories_v2/food/brewery_", "suffix": ".png"}, "primary": true}], "photos": {"count": 0, "groups": []}, "venuePage": {"id": "95245706"}}, "referralId": "e-0-541ed0a3498e7ff705517bcd-5"}, {"reasons": {"count": 0, "items": [{"summary": "This spot is popular", "type": "general", "reasonName": "globalInteractionReason"}]}, "venue": {"id": "4b677c35f964a520c7512be3", "name": "Moksha Yoga Danforth", "location": {"address": "372 Danforth Ave", "crossStreet": "at Chester Ave", "lat": 43.67762174479883, "lng": -79.3521159367257, "labeledLatLngs": [{"label": "display", "lat": 43.67762174479883, "lng": -79.3521159367257}], "distance": 215, "postalCode": "M4K 1N8", "cc": "CA", "city": "Toronto", "state": "ON", "country": "Canada", "formattedAddress": ["372 Danforth Ave (at Chester Ave)", "Toronto ON M4K 1N8", "Canada"]}, "categories": [{"id": "4bf58dd8d48988d102941735", "name": "Yoga Studio", "pluralName": "Yoga Studios", "shortName": "Yoga Studio", "icon": {"prefix": "https://ss3.4sqi.net/img/categories_v2/shops/gym_yogastudio_", "suffix": ".png"}, "primary": true}], "photos": {"count": 0, "groups": []}}, "referralId": "e-0-4b677c35f964a520c7512be3-6"}, {"reasons": {"count": 0, "items": [{"summary": "This spot is popular", "type": "general", "reasonName": "globalInteractionReason"}]}, "venue": {"id": "57799e91498e189817c91ead", "name": "La Diperie", "location": {"address": "372 Danforth Ave", "lat": 43.67753, "lng": -79.352295, "labeledLatLngs": [{"label": "display", "lat": 43.67753, "lng": -79.352295}], "distance": 225, "postalCode": "M4K 1P1", "cc": "CA", "city": "Toronto", "state": "ON", "country": "Canada", "formattedAddress": ["372 Danforth Ave", "Toronto ON M4K 1P1", "Canada"]}, "categories": [{"id": "4bf58dd8d48988d1c9941735", "name": "Ice Cream Shop", "pluralName": "Ice Cream Shops", "shortName": "Ice Cream", "icon": {"prefix": "https://ss3.4sqi.net/img/categories_v2/food/icecream_", "suffix": ".png"}, "primary": true}], "photos": {"count": 0, "groups": []}}, "referralId": "e-0-57799e91498e189817c91ead-7"}, {"reasons": {"count": 0, "items": [{"summary": "This spot is popular", "type": "general", "reasonName": "globalInteractionReason"}]}, "venue": {"id": "4ae29e2af964a520338f21e3", "name": "Alexandros", "location": {"address": "484 Danforth Ave", "crossStreet": "Logan Ave", "lat": 43.67830448799868, "lng": -79.34948556208978, "labeledLatLngs": [{"label": "display", "lat": 43.67830448799868, "lng": -79.34948556208978}], "distance": 258, "cc": "CA", "city": "Toronto", "state": "ON", "country": "Canada", "formattedAddress": ["484 Danforth Ave (Logan Ave)", "Toronto ON", "Canada"]}, "categories": [{"id": "4bf58dd8d48988d10e941735", "name": "Greek Restaurant", "pluralName": "Greek Restaurants", "shortName": "Greek", "icon": {"prefix": "https://ss3.4sqi.net/img/categories_v2/food/greek_", "suffix": ".png"}, "primary": true}], "photos": {"count": 0, "groups": []}}, "referralId": "e-0-4ae29e2af964a520338f21e3-8"}, {"reasons": {"count": 0, "items": [{"summary": "This spot is popular", "type": "general", "reasonName": "globalInteractionReason"}]}, "venue": {"id": "4af4e0d0f964a5202ff721e3", "name": "7 Numbers", "location": {"address": "307 Danforth Ave.", "crossStreet": "at Bowden St", "lat": 43.677061774959824, "lng": -79.35393428891682, "labeledLatLngs": [{"label": "display", "lat": 43.677061774959824, "lng": -79.35393428891682}], "distance": 311, "cc": "CA", "city": "Toronto", "state": "ON", "country": "Canada", "formattedAddress": ["307 Danforth Ave. (at Bowden St)", "Toronto ON", "Canada"]}, "categories": [{"id": "4bf58dd8d48988d110941735", "name": "Italian Restaurant", "pluralName": "Italian Restaurants", "shortName": "Italian", "icon": {"prefix": "https://ss3.4sqi.net/img/categories_v2/food/italian_", "suffix": ".png"}, "primary": true}], "photos": {"count": 0, "groups": []}}, "referralId": "e-0-4af4e0d0f964a5202ff721e3-9"}, {"reasons": {"count": 0, "items": [{"summary": "This spot is popular", "type": "general", "reasonName": "globalInteractionReason"}]}, "venue": {"id": "4aeb268bf964a52006bf21e3", "name": "Messini Authentic Gyros", "location": {"address": "445 Danforth Ave", "crossStreet": "at Logan Ave", "lat": 43.677827494513096, "lng": -79.35056873157725, "labeledLatLngs": [{"label": "display", "lat": 43.677827494513096, "lng": -79.35056873157725}], "distance": 232, "postalCode": "M4K 1P1", "cc": "CA", "city": "Toronto", "state": "ON", "country": "Canada", "formattedAddress": ["445 Danforth Ave (at Logan Ave)", "Toronto ON M4K 1P1", "Canada"]}, "categories": [{"id": "4bf58dd8d48988d10e941735", "name": "Greek Restaurant", "pluralName": "Greek Restaurants", "shortName": "Greek", "icon": {"prefix": "https://ss3.4sqi.net/img/categories_v2/food/greek_", "suffix": ".png"}, "primary": true}], "photos": {"count": 0, "groups": []}}, "referralId": "e-0-4aeb268bf964a52006bf21e3-10"}, {"reasons": {"count": 0, "items": [{"summary": "This spot is popular", "type": "general", "reasonName": "globalInteractionReason"}]}, "venue": {"id": "4ec857560e6158baffa4fc3c", "name": "Pizzeria Libretto", "location": {"address": "550 Danforth Ave", "crossStreet": "at Carlaw Ave", "lat": 43.678488633358, "lng": -79.34757579277853, "labeledLatLngs": [{"label": "display", "lat": 43.678488633358, "lng": -79.34757579277853}], "distance": 389, "postalCode": "M4K 1P7", "cc": "CA", "city": "Toronto", "state": "ON", "country": "Canada", "formattedAddress": ["550 Danforth Ave (at Carlaw Ave)", "Toronto ON M4K 1P7", "Canada"]}, "categories": [{"id": "4bf58dd8d48988d1ca941735", "name": "Pizza Place", "pluralName": "Pizza Places", "shortName": "Pizza", "icon": {"prefix": "https://ss3.4sqi.net/img/categories_v2/food/pizza_", "suffix": ".png"}, "primary": true}], "photos": {"count": 0, "groups": []}}, "referralId": "e-0-4ec857560e6158baffa4fc3c-11"}, {"reasons": {"count": 0, "items": [{"summary": "This spot is popular", "type": "general", "reasonName": "globalInteractionReason"}]}, "venue": {"id": "4bb2727135f0c9b66749bb83", "name": "Valley Farm Produce", "location": {"address": "466 Danforth Ave", "crossStreet": "at Logan Ave", "lat": 43.677999294687275, "lng": -79.3499690927287, "labeledLatLngs": [{"label": "display", "lat": 43.677999294687275, "lng": -79.3499690927287}], "distance": 248, "postalCode": "M4K 1P4", "cc": "CA", "city": "Toronto", "state": "ON", "country": "Canada", "formattedAddress": ["466 Danforth Ave (at Logan Ave)", "Toronto ON M4K 1P4", "Canada"]}, "categories": [{"id": "52f2ab2ebcbc57f1066b8b1c", "name": "Fruit & Vegetable Store", "pluralName": "Fruit & Vegetable Stores", "shortName": "Fruit & Vegetable Store", "icon": {"prefix": "https://ss3.4sqi.net/img/categories_v2/shops/food_grocery_", "suffix": ".png"}, "primary": true}], "photos": {"count": 0, "groups": []}}, "referralId": "e-0-4bb2727135f0c9b66749bb83-12"}, {"reasons": {"count": 0, "items": [{"summary": "This spot is popular", "type": "general", "reasonName": "globalInteractionReason"}]}, "venue": {"id": "4b26a6a9f964a520ff7e24e3", "name": "Re: Reading", "location": {"address": "548 Danforth Ave.", "crossStreet": "Carlaw", "lat": 43.678506570428084, "lng": -79.34767758382526, "labeledLatLngs": [{"label": "display", "lat": 43.678506570428084, "lng": -79.34767758382526}], "distance": 381, "postalCode": "M4K 1P8", "cc": "CA", "city": "Toronto", "state": "ON", "country": "Canada", "formattedAddress": ["548 Danforth Ave. (Carlaw)", "Toronto ON M4K 1P8", "Canada"]}, "categories": [{"id": "4bf58dd8d48988d114951735", "name": "Bookstore", "pluralName": "Bookstores", "shortName": "Bookstore", "icon": {"prefix": "https://ss3.4sqi.net/img/categories_v2/shops/bookstore_", "suffix": ".png"}, "primary": true}], "photos": {"count": 0, "groups": []}}, "referralId": "e-0-4b26a6a9f964a520ff7e24e3-13"}, {"reasons": {"count": 0, "items": [{"summary": "This spot is popular", "type": "general", "reasonName": "globalInteractionReason"}]}, "venue": {"id": "5916090a69e77b035ceb1a86", "name": "Rikkochez", "location": {"address": "341 Danforth Ave", "crossStreet": "across from Carrot Common \u2014 TTC: Chester", "lat": 43.677267, "lng": -79.353274, "labeledLatLngs": [{"label": "display", "lat": 43.677267, "lng": -79.353274}], "distance": 269, "postalCode": "M4K 1N7", "cc": "CA", "city": "Toronto", "state": "ON", "country": "Canada", "formattedAddress": ["341 Danforth Ave (across from Carrot Common \u2014 TTC: Chester)", "Toronto ON M4K 1N7", "Canada"]}, "categories": [{"id": "4bf58dd8d48988d1c4941735", "name": "Restaurant", "pluralName": "Restaurants", "shortName": "Restaurant", "icon": {"prefix": "https://ss3.4sqi.net/img/categories_v2/food/default_", "suffix": ".png"}, "primary": true}], "photos": {"count": 0, "groups": []}, "venuePage": {"id": "419057819"}}, "referralId": "e-0-5916090a69e77b035ceb1a86-14"}, {"reasons": {"count": 0, "items": [{"summary": "This spot is popular", "type": "general", "reasonName": "globalInteractionReason"}]}, "venue": {"id": "4bd1db4e046076b0f1a57271", "name": "The Big Carrot Organic Juice Bar", "location": {"address": "348 Danforth Ave", "crossStreet": "Hampton Avenue", "lat": 43.677438, "lng": -79.352683, "labeledLatLngs": [{"label": "display", "lat": 43.677438, "lng": -79.352683}], "distance": 239, "postalCode": "M4K 1N8", "cc": "CA", "city": "Toronto", "state": "ON", "country": "Canada", "formattedAddress": ["348 Danforth Ave (Hampton Avenue)", "Toronto ON M4K 1N8", "Canada"]}, "categories": [{"id": "4bf58dd8d48988d112941735", "name": "Juice Bar", "pluralName": "Juice Bars", "shortName": "Juice Bar", "icon": {"prefix": "https://ss3.4sqi.net/img/categories_v2/food/juicebar_", "suffix": ".png"}, "primary": true}], "photos": {"count": 0, "groups": []}}, "referralId": "e-0-4bd1db4e046076b0f1a57271-15"}, {"reasons": {"count": 0, "items": [{"summary": "This spot is popular", "type": "general", "reasonName": "globalInteractionReason"}]}, "venue": {"id": "4ae24088f964a5206b8c21e3", "name": "The Auld Spot Pub", "location": {"address": "347 Danforth Ave", "crossStreet": "at Hampton Ave", "lat": 43.67733505610778, "lng": -79.35312964755529, "labeledLatLngs": [{"label": "display", "lat": 43.67733505610778, "lng": -79.35312964755529}], "distance": 258, "postalCode": "M4K 1N7", "cc": "CA", "city": "Toronto", "state": "ON", "country": "Canada", "formattedAddress": ["347 Danforth Ave (at Hampton Ave)", "Toronto ON M4K 1N7", "Canada"]}, "categories": [{"id": "4bf58dd8d48988d11b941735", "name": "Pub", "pluralName": "Pubs", "shortName": "Pub", "icon": {"prefix": "https://ss3.4sqi.net/img/categories_v2/nightlife/pub_", "suffix": ".png"}, "primary": true}], "photos": {"count": 0, "groups": []}, "venuePage": {"id": "569228947"}}, "referralId": "e-0-4ae24088f964a5206b8c21e3-16"}, {"reasons": {"count": 0, "items": [{"summary": "This spot is popular", "type": "general", "reasonName": "globalInteractionReason"}]}, "venue": {"id": "4ae4bc2ff964a520909d21e3", "name": "Urban Nails", "location": {"address": "179 Danforth Ave", "lat": 43.676667789021906, "lng": -79.35660190332753, "labeledLatLngs": [{"label": "display", "lat": 43.676667789021906, "lng": -79.35660190332753}], "distance": 479, "cc": "CA", "city": "Toronto", "state": "ON", "country": "Canada", "formattedAddress": ["179 Danforth Ave", "Toronto ON", "Canada"]}, "categories": [{"id": "4bf58dd8d48988d1ed941735", "name": "Spa", "pluralName": "Spas", "shortName": "Spa", "icon": {"prefix": "https://ss3.4sqi.net/img/categories_v2/shops/spa_", "suffix": ".png"}, "primary": true}], "photos": {"count": 0, "groups": []}}, "referralId": "e-0-4ae4bc2ff964a520909d21e3-17"}, {"reasons": {"count": 0, "items": [{"summary": "This spot is popular", "type": "general", "reasonName": "globalInteractionReason"}]}, "venue": {"id": "4be9a0a46295c9b697738508", "name": "Don Valley Trail", "location": {"lat": 43.67633091997674, "lng": -79.35392333297455, "labeledLatLngs": [{"label": "display", "lat": 43.67633091997674, "lng": -79.35392333297455}], "distance": 385, "cc": "CA", "city": "Toronto", "state": "ON", "country": "Canada", "formattedAddress": ["Toronto ON", "Canada"]}, "categories": [{"id": "4bf58dd8d48988d159941735", "name": "Trail", "pluralName": "Trails", "shortName": "Trail", "icon": {"prefix": "https://ss3.4sqi.net/img/categories_v2/parks_outdoors/hikingtrail_", "suffix": ".png"}, "primary": true}], "photos": {"count": 0, "groups": []}}, "referralId": "e-0-4be9a0a46295c9b697738508-18"}, {"reasons": {"count": 0, "items": [{"summary": "This spot is popular", "type": "general", "reasonName": "globalInteractionReason"}]}, "venue": {"id": "548b33b0498e29d276209eca", "name": "IQ Living", "location": {"address": "542 Danforth Ave", "crossStreet": "at Carlaw Ave", "lat": 43.678477, "lng": -79.347811, "labeledLatLngs": [{"label": "display", "lat": 43.678477, "lng": -79.347811}], "distance": 372, "postalCode": "M4K 1P8", "cc": "CA", "neighborhood": "Greektown", "city": "Toronto", "state": "ON", "country": "Canada", "formattedAddress": ["542 Danforth Ave (at Carlaw Ave)", "Toronto ON M4K 1P8", "Canada"]}, "categories": [{"id": "4bf58dd8d48988d1f8941735", "name": "Furniture / Home Store", "pluralName": "Furniture / Home Stores", "shortName": "Furniture / Home", "icon": {"prefix": "https://ss3.4sqi.net/img/categories_v2/shops/furniture_", "suffix": ".png"}, "primary": true}], "photos": {"count": 0, "groups": []}}, "referralId": "e-0-548b33b0498e29d276209eca-19"}, {"reasons": {"count": 0, "items": [{"summary": "This spot is popular", "type": "general", "reasonName": "globalInteractionReason"}]}, "venue": {"id": "4b64ce4af964a52084d12ae3", "name": "Christina's On The Danforth", "location": {"address": "492 Danforth Avenue", "crossStreet": "& Logan Av", "lat": 43.678239784878826, "lng": -79.34918494943804, "labeledLatLngs": [{"label": "display", "lat": 43.678239784878826, "lng": -79.34918494943804}], "distance": 282, "postalCode": "M4K 1P6", "cc": "CA", "city": "Toronto", "state": "ON", "country": "Canada", "formattedAddress": ["492 Danforth Avenue (& Logan Av)", "Toronto ON M4K 1P6", "Canada"]}, "categories": [{"id": "4bf58dd8d48988d10e941735", "name": "Greek Restaurant", "pluralName": "Greek Restaurants", "shortName": "Greek", "icon": {"prefix": "https://ss3.4sqi.net/img/categories_v2/food/greek_", "suffix": ".png"}, "primary": true}], "photos": {"count": 0, "groups": []}}, "referralId": "e-0-4b64ce4af964a52084d12ae3-20"}, {"reasons": {"count": 0, "items": [{"summary": "This spot is popular", "type": "general", "reasonName": "globalInteractionReason"}]}, "venue": {"id": "4c508ae15ee81b8d9ee3c5fe", "name": "Tsaa Tea Shop", "location": {"address": "Danforth", "crossStreet": "Chester", "lat": 43.67776898684133, "lng": -79.35130446081268, "labeledLatLngs": [{"label": "display", "lat": 43.67776898684133, "lng": -79.35130446081268}], "distance": 211, "postalCode": "M4k 3e3", "cc": "CA", "city": "Toronto", "state": "ON", "country": "Canada", "formattedAddress": ["Danforth (Chester)", "Toronto ON M4k 3e3", "Canada"]}, "categories": [{"id": "52e81612bcbc57f1066b7a0c", "name": "Bubble Tea Shop", "pluralName": "Bubble Tea Shops", "shortName": "Bubble Tea", "icon": {"prefix": "https://ss3.4sqi.net/img/categories_v2/food/bubble_", "suffix": ".png"}, "primary": true}], "photos": {"count": 0, "groups": []}}, "referralId": "e-0-4c508ae15ee81b8d9ee3c5fe-21"}, {"reasons": {"count": 0, "items": [{"summary": "This spot is popular", "type": "general", "reasonName": "globalInteractionReason"}]}, "venue": {"id": "4b396a9ef964a520495c25e3", "name": "Pan on the Danforth", "location": {"address": "516 Danforth Ave.", "lat": 43.678263168189865, "lng": -79.34864777195595, "labeledLatLngs": [{"label": "display", "lat": 43.678263168189865, "lng": -79.34864777195595}], "distance": 319, "postalCode": "M4K 1P6", "cc": "CA", "city": "Toronto", "state": "ON", "country": "Canada", "formattedAddress": ["516 Danforth Ave.", "Toronto ON M4K 1P6", "Canada"]}, "categories": [{"id": "4bf58dd8d48988d10e941735", "name": "Greek Restaurant", "pluralName": "Greek Restaurants", "shortName": "Greek", "icon": {"prefix": "https://ss3.4sqi.net/img/categories_v2/food/greek_", "suffix": ".png"}, "primary": true}], "photos": {"count": 0, "groups": []}}, "referralId": "e-0-4b396a9ef964a520495c25e3-22"}, {"reasons": {"count": 0, "items": [{"summary": "This spot is popular", "type": "general", "reasonName": "globalInteractionReason"}]}, "venue": {"id": "4ad4c062f964a520f2f720e3", "name": "The Danforth Music Hall", "location": {"address": "147 Danforth Ave.", "crossStreet": "at Broadview Ave.", "lat": 43.676338261234214, "lng": -79.35707059920209, "labeledLatLngs": [{"label": "display", "lat": 43.676338261234214, "lng": -79.35707059920209}], "distance": 531, "postalCode": "M4K 1N2", "cc": "CA", "city": "Toronto", "state": "ON", "country": "Canada", "formattedAddress": ["147 Danforth Ave. (at Broadview Ave.)", "Toronto ON M4K 1N2", "Canada"]}, "categories": [{"id": "5032792091d4c4b30a586d5c", "name": "Concert Hall", "pluralName": "Concert Halls", "shortName": "Concert Hall", "icon": {"prefix": "https://ss3.4sqi.net/img/categories_v2/arts_entertainment/musicvenue_", "suffix": ".png"}, "primary": true}], "photos": {"count": 0, "groups": []}}, "referralId": "e-0-4ad4c062f964a520f2f720e3-23"}, {"reasons": {"count": 0, "items": [{"summary": "This spot is popular", "type": "general", "reasonName": "globalInteractionReason"}]}, "venue": {"id": "51520f12e4b0506736121eaf", "name": "Bulk Barn", "location": {"address": "213 Danforth Ave", "lat": 43.67678989740336, "lng": -79.35586511284247, "labeledLatLngs": [{"label": "display", "lat": 43.67678989740336, "lng": -79.35586511284247}], "distance": 427, "postalCode": "M4K 1N2", "cc": "CA", "city": "Toronto", "state": "ON", "country": "Canada", "formattedAddress": ["213 Danforth Ave", "Toronto ON M4K 1N2", "Canada"]}, "categories": [{"id": "4bf58dd8d48988d118951735", "name": "Grocery Store", "pluralName": "Grocery Stores", "shortName": "Grocery Store", "icon": {"prefix": "https://ss3.4sqi.net/img/categories_v2/shops/food_grocery_", "suffix": ".png"}, "primary": true}], "photos": {"count": 0, "groups": []}}, "referralId": "e-0-51520f12e4b0506736121eaf-24"}, {"reasons": {"count": 0, "items": [{"summary": "This spot is popular", "type": "general", "reasonName": "globalInteractionReason"}]}, "venue": {"id": "4bb75e0f6edc76b03212321c", "name": "Serano Bakery", "location": {"address": "830 Pape Ave", "lat": 43.683139418786745, "lng": -79.34653122970155, "labeledLatLngs": [{"label": "display", "lat": 43.683139418786745, "lng": -79.34653122970155}], "distance": 605, "postalCode": "M4K 3T5", "cc": "CA", "city": "Toronto", "state": "ON", "country": "Canada", "formattedAddress": ["830 Pape Ave", "Toronto ON M4K 3T5", "Canada"]}, "categories": [{"id": "4bf58dd8d48988d16a941735", "name": "Bakery", "pluralName": "Bakeries", "shortName": "Bakery", "icon": {"prefix": "https://ss3.4sqi.net/img/categories_v2/food/bakery_", "suffix": ".png"}, "primary": true}], "photos": {"count": 0, "groups": []}}, "referralId": "e-0-4bb75e0f6edc76b03212321c-25"}, {"reasons": {"count": 0, "items": [{"summary": "This spot is popular", "type": "general", "reasonName": "globalInteractionReason"}]}, "venue": {"id": "4bf079c06f8aa59336f2c13c", "name": "Withrow Park", "location": {"address": "725 Logan Ave.", "crossStreet": "btwn Bain Ave. & McConnell Ave.", "lat": 43.67489949057737, "lng": -79.34843681570193, "labeledLatLngs": [{"label": "display", "lat": 43.67489949057737, "lng": -79.34843681570193}], "distance": 600, "cc": "CA", "city": "Toronto", "state": "ON", "country": "Canada", "formattedAddress": ["725 Logan Ave. (btwn Bain Ave. & McConnell Ave.)", "Toronto ON", "Canada"]}, "categories": [{"id": "4bf58dd8d48988d163941735", "name": "Park", "pluralName": "Parks", "shortName": "Park", "icon": {"prefix": "https://ss3.4sqi.net/img/categories_v2/parks_outdoors/park_", "suffix": ".png"}, "primary": true}], "photos": {"count": 0, "groups": []}}, "referralId": "e-0-4bf079c06f8aa59336f2c13c-26"}, {"reasons": {"count": 0, "items": [{"summary": "This spot is popular", "type": "general", "reasonName": "globalInteractionReason"}]}, "venue": {"id": "4ad4c05ff964a52042f720e3", "name": "Astoria Shish Kebob House", "location": {"address": "390 Danforth Ave", "crossStreet": "at Chester Ave", "lat": 43.677596, "lng": -79.351738, "labeledLatLngs": [{"label": "display", "lat": 43.677596, "lng": -79.351738}], "distance": 221, "postalCode": "M4K 1P3", "cc": "CA", "city": "Toronto", "state": "ON", "country": "Canada", "formattedAddress": ["390 Danforth Ave (at Chester Ave)", "Toronto ON M4K 1P3", "Canada"]}, "categories": [{"id": "4bf58dd8d48988d10e941735", "name": "Greek Restaurant", "pluralName": "Greek Restaurants", "shortName": "Greek", "icon": {"prefix": "https://ss3.4sqi.net/img/categories_v2/food/greek_", "suffix": ".png"}, "primary": true}], "photos": {"count": 0, "groups": []}}, "referralId": "e-0-4ad4c05ff964a52042f720e3-27"}, {"reasons": {"count": 0, "items": [{"summary": "This spot is popular", "type": "general", "reasonName": "globalInteractionReason"}]}, "venue": {"id": "4bc10b17461576b00f537b32", "name": "Detroit Eatery", "location": {"address": "389 Danforth Ave.", "crossStreet": "Chester", "lat": 43.67759437002395, "lng": -79.35176144372598, "labeledLatLngs": [{"label": "display", "lat": 43.67759437002395, "lng": -79.35176144372598}], "distance": 221, "postalCode": "M4K 1P1", "cc": "CA", "city": "Toronto", "state": "ON", "country": "Canada", "formattedAddress": ["389 Danforth Ave. (Chester)", "Toronto ON M4K 1P1", "Canada"]}, "categories": [{"id": "4bf58dd8d48988d147941735", "name": "Diner", "pluralName": "Diners", "shortName": "Diner", "icon": {"prefix": "https://ss3.4sqi.net/img/categories_v2/food/diner_", "suffix": ".png"}, "primary": true}], "photos": {"count": 0, "groups": []}}, "referralId": "e-0-4bc10b17461576b00f537b32-28"}, {"reasons": {"count": 0, "items": [{"summary": "This spot is popular", "type": "general", "reasonName": "globalInteractionReason"}]}, "venue": {"id": "55fc0110498ecbc14aa76933", "name": "Marvel Coffee Co.", "location": {"address": "792 Carlaw Ave.", "crossStreet": "Danforth", "lat": 43.678629530863844, "lng": -79.34746013725268, "labeledLatLngs": [{"label": "display", "lat": 43.678629530863844, "lng": -79.34746013725268}], "distance": 394, "cc": "CA", "city": "Toronto", "state": "ON", "country": "Canada", "formattedAddress": ["792 Carlaw Ave. (Danforth)", "Toronto ON", "Canada"]}, "categories": [{"id": "4bf58dd8d48988d1e0931735", "name": "Coffee Shop", "pluralName": "Coffee Shops", "shortName": "Coffee Shop", "icon": {"prefix": "https://ss3.4sqi.net/img/categories_v2/food/coffeeshop_", "suffix": ".png"}, "primary": true}], "photos": {"count": 0, "groups": []}}, "referralId": "e-0-55fc0110498ecbc14aa76933-29"}, {"reasons": {"count": 0, "items": [{"summary": "This spot is popular", "type": "general", "reasonName": "globalInteractionReason"}]}, "venue": {"id": "51fbc61e7dd275b44893070a", "name": "Tapas at Embrujo", "location": {"address": "97 Danforth ave.", "crossStreet": "Broadview", "lat": 43.67617503951251, "lng": -79.35841083526611, "labeledLatLngs": [{"label": "display", "lat": 43.67617503951251, "lng": -79.35841083526611}], "distance": 626, "postalCode": "m4k1n2", "cc": "CA", "city": "Toronto", "state": "ON", "country": "Canada", "formattedAddress": ["97 Danforth ave. (Broadview)", "Toronto ON m4k1n2", "Canada"]}, "categories": [{"id": "4bf58dd8d48988d1db931735", "name": "Tapas Restaurant", "pluralName": "Tapas Restaurants", "shortName": "Tapas", "icon": {"prefix": "https://ss3.4sqi.net/img/categories_v2/food/tapas_", "suffix": ".png"}, "primary": true}], "photos": {"count": 0, "groups": []}, "venuePage": {"id": "68732593"}}, "referralId": "e-0-51fbc61e7dd275b44893070a-30"}, {"reasons": {"count": 0, "items": [{"summary": "This spot is popular", "type": "general", "reasonName": "globalInteractionReason"}]}, "venue": {"id": "5269ba3c498ea63de3eb987b", "name": "Simone's Caribbean Restaurant", "location": {"address": "596 Danforth Avenue", "crossStreet": "Pape And Danforth", "lat": 43.67865547474292, "lng": -79.34658157954753, "labeledLatLngs": [{"label": "display", "lat": 43.67865547474292, "lng": -79.34658157954753}], "distance": 462, "postalCode": "M4K 1R1", "cc": "CA", "city": "Toronto", "state": "ON", "country": "Canada", "formattedAddress": ["596 Danforth Avenue (Pape And Danforth)", "Toronto ON M4K 1R1", "Canada"]}, "categories": [{"id": "4bf58dd8d48988d144941735", "name": "Caribbean Restaurant", "pluralName": "Caribbean Restaurants", "shortName": "Caribbean", "icon": {"prefix": "https://ss3.4sqi.net/img/categories_v2/food/caribbean_", "suffix": ".png"}, "primary": true}], "photos": {"count": 0, "groups": []}}, "referralId": "e-0-5269ba3c498ea63de3eb987b-31"}, {"reasons": {"count": 0, "items": [{"summary": "This spot is popular", "type": "general", "reasonName": "globalInteractionReason"}]}, "venue": {"id": "4bbe3c929474c9b6d54cd9b6", "name": "Athen's Pastries", "location": {"address": "509 Danforth Ave.", "crossStreet": "at Fenwick Ave.", "lat": 43.67816589533113, "lng": -79.34892679522846, "labeledLatLngs": [{"label": "display", "lat": 43.67816589533113, "lng": -79.34892679522846}], "distance": 304, "cc": "CA", "neighborhood": "Riverdale", "city": "Toronto", "state": "ON", "country": "Canada", "formattedAddress": ["509 Danforth Ave. (at Fenwick Ave.)", "Toronto ON", "Canada"]}, "categories": [{"id": "4bf58dd8d48988d10e941735", "name": "Greek Restaurant", "pluralName": "Greek Restaurants", "shortName": "Greek", "icon": {"prefix": "https://ss3.4sqi.net/img/categories_v2/food/greek_", "suffix": ".png"}, "primary": true}], "photos": {"count": 0, "groups": []}}, "referralId": "e-0-4bbe3c929474c9b6d54cd9b6-32"}, {"reasons": {"count": 0, "items": [{"summary": "This spot is popular", "type": "general", "reasonName": "globalInteractionReason"}]}, "venue": {"id": "4b466804f964a520ed1f26e3", "name": "Caff\u00e9 Demetre", "location": {"address": "400 Danforth Ave", "crossStreet": "Chester & Arundel", "lat": 43.67768266377745, "lng": -79.35160842812537, "labeledLatLngs": [{"label": "display", "lat": 43.67768266377745, "lng": -79.35160842812537}], "distance": 213, "postalCode": "M4K 1P3", "cc": "CA", "city": "Toronto", "state": "ON", "country": "Canada", "formattedAddress": ["400 Danforth Ave (Chester & Arundel)", "Toronto ON M4K 1P3", "Canada"]}, "categories": [{"id": "4bf58dd8d48988d1d0941735", "name": "Dessert Shop", "pluralName": "Dessert Shops", "shortName": "Desserts", "icon": {"prefix": "https://ss3.4sqi.net/img/categories_v2/food/dessert_", "suffix": ".png"}, "primary": true}], "photos": {"count": 0, "groups": []}}, "referralId": "e-0-4b466804f964a520ed1f26e3-33"}, {"reasons": {"count": 0, "items": [{"summary": "This spot is popular", "type": "general", "reasonName": "globalInteractionReason"}]}, "venue": {"id": "5a6bd7ec6661160f9355c448", "name": "Sidebar", "location": {"lat": 43.676441, "lng": -79.356745, "labeledLatLngs": [{"label": "display", "lat": 43.676441, "lng": -79.356745}], "distance": 504, "postalCode": "M4K 1N2", "cc": "CA", "city": "Toronto", "state": "ON", "country": "Canada", "formattedAddress": ["Toronto ON M4K 1N2", "Canada"]}, "categories": [{"id": "4bf58dd8d48988d11e941735", "name": "Cocktail Bar", "pluralName": "Cocktail Bars", "shortName": "Cocktail", "icon": {"prefix": "https://ss3.4sqi.net/img/categories_v2/nightlife/cocktails_", "suffix": ".png"}, "primary": true}], "photos": {"count": 0, "groups": []}}, "referralId": "e-0-5a6bd7ec6661160f9355c448-34"}, {"reasons": {"count": 0, "items": [{"summary": "This spot is popular", "type": "general", "reasonName": "globalInteractionReason"}]}, "venue": {"id": "4aec8fe3f964a520bcc821e3", "name": "Dough Bakeshop", "location": {"address": "173 Danforth Ave.", "crossStreet": "Broadview", "lat": 43.67664308520287, "lng": -79.35684634585105, "labeledLatLngs": [{"label": "display", "lat": 43.67664308520287, "lng": -79.35684634585105}], "distance": 495, "postalCode": "M4K 1N2", "cc": "CA", "city": "Toronto", "state": "ON", "country": "Canada", "formattedAddress": ["173 Danforth Ave. (Broadview)", "Toronto ON M4K 1N2", "Canada"]}, "categories": [{"id": "4bf58dd8d48988d16a941735", "name": "Bakery", "pluralName": "Bakeries", "shortName": "Bakery", "icon": {"prefix": "https://ss3.4sqi.net/img/categories_v2/food/bakery_", "suffix": ".png"}, "primary": true}], "photos": {"count": 0, "groups": []}}, "referralId": "e-0-4aec8fe3f964a520bcc821e3-35"}, {"reasons": {"count": 0, "items": [{"summary": "This spot is popular", "type": "general", "reasonName": "globalInteractionReason"}]}, "venue": {"id": "52e8c520498e5826f697fddd", "name": "Greenwood Smokehouse BBQ", "location": {"address": "673 Danforth Ave", "crossStreet": "at Pape Ave", "lat": 43.679023116774175, "lng": -79.34437939575473, "labeledLatLngs": [{"label": "display", "lat": 43.679023116774175, "lng": -79.34437939575473}], "distance": 631, "postalCode": "M4J 1L3", "cc": "CA", "city": "Toronto", "state": "ON", "country": "Canada", "formattedAddress": ["673 Danforth Ave (at Pape Ave)", "Toronto ON M4J 1L3", "Canada"]}, "categories": [{"id": "4bf58dd8d48988d1df931735", "name": "BBQ Joint", "pluralName": "BBQ Joints", "shortName": "BBQ", "icon": {"prefix": "https://ss3.4sqi.net/img/categories_v2/food/bbqalt_", "suffix": ".png"}, "primary": true}], "photos": {"count": 0, "groups": []}}, "referralId": "e-0-52e8c520498e5826f697fddd-36"}, {"reasons": {"count": 0, "items": [{"summary": "This spot is popular", "type": "general", "reasonName": "globalInteractionReason"}]}, "venue": {"id": "4adf84b2f964a520627b21e3", "name": "Broadview Espresso", "location": {"address": "817 Broadview Ave", "crossStreet": "at Pretoria Ave", "lat": 43.67836631426999, "lng": -79.35836661201425, "labeledLatLngs": [{"label": "display", "lat": 43.67836631426999, "lng": -79.35836661201425}], "distance": 514, "postalCode": "M4K 2P9", "cc": "CA", "city": "Toronto", "state": "ON", "country": "Canada", "formattedAddress": ["817 Broadview Ave (at Pretoria Ave)", "Toronto ON M4K 2P9", "Canada"]}, "categories": [{"id": "4bf58dd8d48988d16d941735", "name": "Caf\u00e9", "pluralName": "Caf\u00e9s", "shortName": "Caf\u00e9", "icon": {"prefix": "https://ss3.4sqi.net/img/categories_v2/food/cafe_", "suffix": ".png"}, "primary": true}], "photos": {"count": 0, "groups": []}}, "referralId": "e-0-4adf84b2f964a520627b21e3-37"}, {"reasons": {"count": 0, "items": [{"summary": "This spot is popular", "type": "general", "reasonName": "globalInteractionReason"}]}, "venue": {"id": "4b02e5fbf964a520d14a22e3", "name": "Joy of Dance Studios", "location": {"address": "95 Danforth Ave", "crossStreet": "Broadview and Danforth", "lat": 43.676230731425775, "lng": -79.35841548937343, "labeledLatLngs": [{"label": "display", "lat": 43.676230731425775, "lng": -79.35841548937343}], "distance": 623, "postalCode": "M4K 1N2", "cc": "CA", "city": "Toronto", "state": "ON", "country": "Canada", "formattedAddress": ["95 Danforth Ave (Broadview and Danforth)", "Toronto ON M4K 1N2", "Canada"]}, "categories": [{"id": "4bf58dd8d48988d134941735", "name": "Dance Studio", "pluralName": "Dance Studios", "shortName": "Dance Studio", "icon": {"prefix": "https://ss3.4sqi.net/img/categories_v2/arts_entertainment/performingarts_dancestudio_", "suffix": ".png"}, "primary": true}], "photos": {"count": 0, "groups": []}, "venuePage": {"id": "486269461"}}, "referralId": "e-0-4b02e5fbf964a520d14a22e3-38"}, {"reasons": {"count": 0, "items": [{"summary": "This spot is popular", "type": "general", "reasonName": "globalInteractionReason"}]}, "venue": {"id": "4ada126ff964a520041e21e3", "name": "Allen's", "location": {"address": "143 Danforth Ave", "lat": 43.67644563314147, "lng": -79.3573034983213, "labeledLatLngs": [{"label": "display", "lat": 43.67644563314147, "lng": -79.3573034983213}], "distance": 538, "cc": "CA", "neighborhood": "Riverdale", "city": "Toronto", "state": "ON", "country": "Canada", "formattedAddress": ["143 Danforth Ave", "Toronto ON", "Canada"]}, "categories": [{"id": "4bf58dd8d48988d16c941735", "name": "Burger Joint", "pluralName": "Burger Joints", "shortName": "Burgers", "icon": {"prefix": "https://ss3.4sqi.net/img/categories_v2/food/burger_", "suffix": ".png"}, "primary": true}], "photos": {"count": 0, "groups": []}, "venuePage": {"id": "85420375"}}, "referralId": "e-0-4ada126ff964a520041e21e3-39"}, {"reasons": {"count": 0, "items": [{"summary": "This spot is popular", "type": "general", "reasonName": "globalInteractionReason"}]}, "venue": {"id": "4c1d5337eac020a1cb1048c2", "name": "Sher-E-Punjab", "location": {"address": "351 Danforth Ave", "crossStreet": "at Jackman Ave", "lat": 43.67730788939673, "lng": -79.35306551709385, "labeledLatLngs": [{"label": "display", "lat": 43.67730788939673, "lng": -79.35306551709385}], "distance": 260, "postalCode": "M4K 1N7", "cc": "CA", "city": "Toronto", "state": "ON", "country": "Canada", "formattedAddress": ["351 Danforth Ave (at Jackman Ave)", "Toronto ON M4K 1N7", "Canada"]}, "categories": [{"id": "4bf58dd8d48988d10f941735", "name": "Indian Restaurant", "pluralName": "Indian Restaurants", "shortName": "Indian", "icon": {"prefix": "https://ss3.4sqi.net/img/categories_v2/food/indian_", "suffix": ".png"}, "primary": true}], "photos": {"count": 0, "groups": []}}, "referralId": "e-0-4c1d5337eac020a1cb1048c2-40"}, {"reasons": {"count": 0, "items": [{"summary": "This spot is popular", "type": "general", "reasonName": "globalInteractionReason"}]}, "venue": {"id": "4b76b3d2f964a52064592ee3", "name": "Carrot Commons", "location": {"address": "348 Danforth Ave.", "crossStreet": "Jackman Ave.", "lat": 43.6774845518262, "lng": -79.35307562861175, "labeledLatLngs": [{"label": "display", "lat": 43.6774845518262, "lng": -79.35307562861175}], "distance": 241, "postalCode": "M4K 2Z1", "cc": "CA", "city": "Toronto", "state": "ON", "country": "Canada", "formattedAddress": ["348 Danforth Ave. (Jackman Ave.)", "Toronto ON M4K 2Z1", "Canada"]}, "categories": [{"id": "4bf58dd8d48988d1c4941735", "name": "Restaurant", "pluralName": "Restaurants", "shortName": "Restaurant", "icon": {"prefix": "https://ss3.4sqi.net/img/categories_v2/food/default_", "suffix": ".png"}, "primary": true}], "photos": {"count": 0, "groups": []}}, "referralId": "e-0-4b76b3d2f964a52064592ee3-41"}, {"reasons": {"count": 0, "items": [{"summary": "This spot is popular", "type": "general", "reasonName": "globalInteractionReason"}]}, "venue": {"id": "4afc9333f964a5200c2422e3", "name": "Kalyvia", "location": {"address": "420 Danforth Ave", "lat": 43.6779727, "lng": -79.3512077, "labeledLatLngs": [{"label": "display", "lat": 43.6779727, "lng": -79.3512077}], "distance": 193, "postalCode": "M4K 1P3", "cc": "CA", "city": "Toronto", "state": "ON", "country": "Canada", "formattedAddress": ["420 Danforth Ave", "Toronto ON M4K 1P3", "Canada"]}, "categories": [{"id": "4bf58dd8d48988d10e941735", "name": "Greek Restaurant", "pluralName": "Greek Restaurants", "shortName": "Greek", "icon": {"prefix": "https://ss3.4sqi.net/img/categories_v2/food/greek_", "suffix": ".png"}, "primary": true}], "photos": {"count": 0, "groups": []}}, "referralId": "e-0-4afc9333f964a5200c2422e3-42"}, {"reasons": {"count": 0, "items": [{"summary": "This spot is popular", "type": "general", "reasonName": "globalInteractionReason"}]}, "venue": {"id": "4af5de4ff964a5200cfe21e3", "name": "Second Cup", "location": {"address": "355 Danforth Avenue", "crossStreet": "at Hampton Ave", "lat": 43.677232, "lng": -79.3528982, "labeledLatLngs": [{"label": "display", "lat": 43.677232, "lng": -79.3528982}], "distance": 265, "postalCode": "M4K 1N7", "cc": "CA", "city": "Toronto", "state": "ON", "country": "Canada", "formattedAddress": ["355 Danforth Avenue (at Hampton Ave)", "Toronto ON M4K 1N7", "Canada"]}, "categories": [{"id": "4bf58dd8d48988d1e0931735", "name": "Coffee Shop", "pluralName": "Coffee Shops", "shortName": "Coffee Shop", "icon": {"prefix": "https://ss3.4sqi.net/img/categories_v2/food/coffeeshop_", "suffix": ".png"}, "primary": true}], "photos": {"count": 0, "groups": []}}, "referralId": "e-0-4af5de4ff964a5200cfe21e3-43"}, {"reasons": {"count": 0, "items": [{"summary": "This spot is popular", "type": "general", "reasonName": "globalInteractionReason"}]}, "venue": {"id": "4b7846f5f964a52079c12ee3", "name": "Book City", "location": {"address": "348 Danforth Avenue", "crossStreet": "near Chester", "lat": 43.67741319707514, "lng": -79.3527341009978, "labeledLatLngs": [{"label": "display", "lat": 43.67741319707514, "lng": -79.3527341009978}], "distance": 242, "cc": "CA", "city": "Toronto", "state": "ON", "country": "Canada", "formattedAddress": ["348 Danforth Avenue (near Chester)", "Toronto ON", "Canada"]}, "categories": [{"id": "4bf58dd8d48988d114951735", "name": "Bookstore", "pluralName": "Bookstores", "shortName": "Bookstore", "icon": {"prefix": "https://ss3.4sqi.net/img/categories_v2/shops/bookstore_", "suffix": ".png"}, "primary": true}], "photos": {"count": 0, "groups": []}}, "referralId": "e-0-4b7846f5f964a52079c12ee3-44"}, {"reasons": {"count": 0, "items": [{"summary": "This spot is popular", "type": "general", "reasonName": "globalInteractionReason"}]}, "venue": {"id": "4b8d7b70f964a52063fe32e3", "name": "Cafe Frappe", "location": {"address": "521 Danforth Ave.", "crossStreet": "Fenwick Avenue", "lat": 43.67812618087551, "lng": -79.34843379217203, "labeledLatLngs": [{"label": "display", "lat": 43.67812618087551, "lng": -79.34843379217203}], "distance": 341, "postalCode": "M4K 1P5", "cc": "CA", "city": "Toronto", "state": "ON", "country": "Canada", "formattedAddress": ["521 Danforth Ave. (Fenwick Avenue)", "Toronto ON M4K 1P5", "Canada"]}, "categories": [{"id": "4bf58dd8d48988d1e0931735", "name": "Coffee Shop", "pluralName": "Coffee Shops", "shortName": "Coffee Shop", "icon": {"prefix": "https://ss3.4sqi.net/img/categories_v2/food/coffeeshop_", "suffix": ".png"}, "primary": true}], "photos": {"count": 0, "groups": []}}, "referralId": "e-0-4b8d7b70f964a52063fe32e3-45"}, {"reasons": {"count": 0, "items": [{"summary": "This spot is popular", "type": "general", "reasonName": "globalInteractionReason"}]}, "venue": {"id": "4ae28ad8f964a520ed8e21e3", "name": "The Old Nick", "location": {"address": "123 Danforth Ave.", "crossStreet": "at Broadview Ave.", "lat": 43.67634350317935, "lng": -79.3577749231676, "labeledLatLngs": [{"label": "display", "lat": 43.67634350317935, "lng": -79.3577749231676}], "distance": 574, "postalCode": "M4K 1N2", "cc": "CA", "city": "Toronto", "state": "ON", "country": "Canada", "formattedAddress": ["123 Danforth Ave. (at Broadview Ave.)", "Toronto ON M4K 1N2", "Canada"]}, "categories": [{"id": "4bf58dd8d48988d11b941735", "name": "Pub", "pluralName": "Pubs", "shortName": "Pub", "icon": {"prefix": "https://ss3.4sqi.net/img/categories_v2/nightlife/pub_", "suffix": ".png"}, "primary": true}], "photos": {"count": 0, "groups": []}}, "referralId": "e-0-4ae28ad8f964a520ed8e21e3-46"}, {"reasons": {"count": 0, "items": [{"summary": "This spot is popular", "type": "general", "reasonName": "globalInteractionReason"}]}, "venue": {"id": "4b63a054f964a52008882ae3", "name": "Mambo Lounge", "location": {"address": "120 Danforth Ave", "crossStreet": "at Broadview Ave", "lat": 43.676514618632446, "lng": -79.35820185974248, "labeledLatLngs": [{"label": "display", "lat": 43.676514618632446, "lng": -79.35820185974248}], "distance": 590, "postalCode": "M4K 1N1", "cc": "CA", "city": "Toronto", "state": "ON", "country": "Canada", "formattedAddress": ["120 Danforth Ave (at Broadview Ave)", "Toronto ON M4K 1N1", "Canada"]}, "categories": [{"id": "4bf58dd8d48988d154941735", "name": "Cuban Restaurant", "pluralName": "Cuban Restaurants", "shortName": "Cuban", "icon": {"prefix": "https://ss3.4sqi.net/img/categories_v2/food/cuban_", "suffix": ".png"}, "primary": true}], "photos": {"count": 0, "groups": []}}, "referralId": "e-0-4b63a054f964a52008882ae3-47"}, {"reasons": {"count": 0, "items": [{"summary": "This spot is popular", "type": "general", "reasonName": "globalInteractionReason"}]}, "venue": {"id": "582b915a76748b23d0963984", "name": "808 Social", "location": {"address": "808 Pape Avenue", "lat": 43.682224, "lng": -79.34634, "labeledLatLngs": [{"label": "display", "lat": 43.682224, "lng": -79.34634}], "distance": 556, "postalCode": "M4K 3S7", "cc": "CA", "city": "Toronto", "state": "ON", "country": "Canada", "formattedAddress": ["808 Pape Avenue", "Toronto ON M4K 3S7", "Canada"]}, "categories": [{"id": "4bf58dd8d48988d16d941735", "name": "Caf\u00e9", "pluralName": "Caf\u00e9s", "shortName": "Caf\u00e9", "icon": {"prefix": "https://ss3.4sqi.net/img/categories_v2/food/cafe_", "suffix": ".png"}, "primary": true}], "photos": {"count": 0, "groups": []}}, "referralId": "e-0-582b915a76748b23d0963984-48"}, {"reasons": {"count": 0, "items": [{"summary": "This spot is popular", "type": "general", "reasonName": "globalInteractionReason"}]}, "venue": {"id": "4ae29a5cf964a5202f8f21e3", "name": "Dora Keogh", "location": {"address": "141 Danforth Ave.", "crossStreet": "at Broadview Ave.", "lat": 43.676417604443785, "lng": -79.35738039821362, "labeledLatLngs": [{"label": "display", "lat": 43.676417604443785, "lng": -79.35738039821362}], "distance": 544, "cc": "CA", "city": "Toronto", "state": "ON", "country": "Canada", "formattedAddress": ["141 Danforth Ave. (at Broadview Ave.)", "Toronto ON", "Canada"]}, "categories": [{"id": "4bf58dd8d48988d11b941735", "name": "Pub", "pluralName": "Pubs", "shortName": "Pub", "icon": {"prefix": "https://ss3.4sqi.net/img/categories_v2/nightlife/pub_", "suffix": ".png"}, "primary": true}], "photos": {"count": 0, "groups": []}, "venuePage": {"id": "85420885"}}, "referralId": "e-0-4ae29a5cf964a5202f8f21e3-49"}]}]}}