{"meta": {"code": 200, "requestId": "5e1973a10cc1fd001b116365"}, "response": {"headerLocation": "Bay Street Corridor", "headerFullLocation": "Bay Street Corridor, Toronto", "headerLocationGranularity": "neighborhood", "totalResults": 22, "suggestedBounds": {"ne": {"lat": 43.660256402304, "lng": -79.38420390861857}, "sw": {"lat": 43.655648397696, "lng": -79.39056129138142}}, "groups": [{"type": "Recommended Places", "name": "recommended", "items": [{"reasons": {"count": 0, "items": [{"summary": "This spot is popular", "type": "general", "reasonName": "globalInteractionReason"}]}, "venue": {"id": "537d4d6d498ec171ba22e7fe", "name": "Jimmy's Coffee", "location": {"address": "82 Gerrard Street W", "crossStreet": "Gerrard & LaPlante", "lat": 43.65842123574496, "lng": -79.38561319551111, "labeledLatLngs": [{"label": "display", "lat": 43.65842123574496, "lng": -79.38561319551111}], "distance": 151, "postalCode": "M5G 1Z4", "cc": "CA", "city": "Toronto", "state": "ON", "country": "Canada", "formattedAddress": ["82 Gerrard Street W (Gerrard & LaPlante)", "Toronto ON M5G 1Z4", "Canada"]}, "categories": [{"id": "4bf58dd8d48988d1e0931735", "name": "Coffee Shop", "pluralName": "Coffee Shops", "shortName": "Coffee Shop", "icon": {"prefix": "https://ss3.4sqi.net/img/categories_v2/food/coffeeshop_", "suffix": ".png"}, "primary": true}], "photos": {"count": 0, "groups": []}}, "referralId": "e-0-537d4d6d498ec171ba22e7fe-0"}, {"reasons": {"count": 0, "items": [{"summary": "This spot is popular", "type": "general", "reasonName": "globalInteractionReason"}]}, "venue": {"id": "557231e3498e540f05f3083c", "name": "Tim Hortons", "location": {"address": "70 Gerrard St West", "crossStreet": "Bay St", "lat": 43.658569999999976, "lng": -79.38512341104502, "labeledLatLngs": [{"label": "display", "lat": 43.658569999999976, "lng": -79.38512341104502}], "distance": 194, "postalCode": "M5G 1J5", "cc": "CA", "city": "Toronto", "state": "ON", "country": "Canada", "formattedAddress": ["70 Gerrard St West (Bay St)", "Toronto ON M5G 1J5", "Canada"]}, "categories": [{"id": "4bf58dd8d48988d1e0931735", "name": "Coffee Shop", "pluralName": "Coffee Shops", "shortName": "Coffee Shop", "icon": {"prefix": "https://ss3.4sqi.net/img/categories_v2/food/coffeeshop_", "suffix": ".png"}, "primary": true}], "photos": {"count": 0, "groups": []}}, "referralId": "e-0-557231e3498e540f05f3083c-1"}, {"reasons": {"count": 0, "items": [{"summary": "This spot is popular", "type": "general", "reasonName": "globalInteractionReason"}]}, "venue": {"id": "4b744336f964a520d8d02de3", "name": "Somethin' 2 Talk About", "location": {"address": "78 Gerrard St W", "lat": 43.65839479027968, "lng": -79.38533765920816, "labeledLatLngs": [{"label": "display", "lat": 43.65839479027968, "lng": -79.38533765920816}], "distance": 171, "postalCode": "M5G 1J5", "cc": "CA", "city": "Toronto", "state": "ON", "country": "Canada", "formattedAddress": ["78 Gerrard St W", "Toronto ON M5G 1J5", "Canada"]}, "categories": [{"id": "4bf58dd8d48988d115941735", "name": "Middle Eastern Restaurant", "pluralName": "Middle Eastern Restaurants", "shortName": "Middle Eastern", "icon": {"prefix": "https://ss3.4sqi.net/img/categories_v2/food/middleeastern_", "suffix": ".png"}, "primary": true}], "photos": {"count": 0, "groups": []}}, "referralId": "e-0-4b744336f964a520d8d02de3-2"}, {"reasons": {"count": 0, "items": [{"summary": "This spot is popular", "type": "general", "reasonName": "globalInteractionReason"}]}, "venue": {"id": "4ad4cba2f964a520d1fb20e3", "name": "Panago", "location": {"address": "44 Gerrard St. W", "crossStreet": "at Bay St.", "lat": 43.65825817735338, "lng": -79.38431282558368, "labeledLatLngs": [{"label": "display", "lat": 43.65825817735338, "lng": -79.38431282558368}], "distance": 249, "cc": "CA", "city": "Toronto", "state": "ON", "country": "Canada", "formattedAddress": ["44 Gerrard St. W (at Bay St.)", "Toronto ON", "Canada"]}, "categories": [{"id": "4bf58dd8d48988d1ca941735", "name": "Pizza Place", "pluralName": "Pizza Places", "shortName": "Pizza", "icon": {"prefix": "https://ss3.4sqi.net/img/categories_v2/food/pizza_", "suffix": ".png"}, "primary": true}], "photos": {"count": 0, "groups": []}}, "referralId": "e-0-4ad4cba2f964a520d1fb20e3-3"}, {"reasons": {"count": 0, "items": [{"summary": "This spot is popular", "type": "general", "reasonName": "globalInteractionReason"}]}, "venue": {"id": "512ce732e4b0aa0ac5f50f05", "name": "Bubble Bath & Spa", "location": {"address": "736 Bay Street", "crossStreet": "Bay & Hayter", "lat": 43.65904951746615, "lng": -79.38534357912432, "labeledLatLngs": [{"label": "display", "lat": 43.65904951746615, "lng": -79.38534357912432}], "distance": 204, "postalCode": "M5G 2M4", "cc": "CA", "city": "Toronto", "state": "ON", "country": "Canada", "formattedAddress": ["736 Bay Street (Bay & Hayter)", "Toronto ON M5G 2M4", "Canada"]}, "categories": [{"id": "4bf58dd8d48988d1ed941735", "name": "Spa", "pluralName": "Spas", "shortName": "Spa", "icon": {"prefix": "https://ss3.4sqi.net/img/categories_v2/shops/spa_", "suffix": ".png"}, "primary": true}], "photos": {"count": 0, "groups": []}}, "referralId": "e-0-512ce732e4b0aa0ac5f50f05-4"}, {"reasons": {"count": 0, "items": [{"summary": "This spot is popular", "type": "general", "reasonName": "globalInteractionReason"}]}, "venue": {"id": "4b0ad14df964a520532823e3", "name": "Starbucks", "location": {"address": "761 Bay St", "crossStreet": "btwn College & Gerrard St", "lat": 43.6595874273128, "lng": -79.3852515870617, "labeledLatLngs": [{"label": "display", "lat": 43.6595874273128, "lng": -79.3852515870617}], "distance": 250, "postalCode": "M5G 2G2", "cc": "CA", "city": "Toronto", "state": "ON", "country": "Canada", "formattedAddress": ["761 Bay St (btwn College & Gerrard St)", "Toronto ON M5G 2G2", "Canada"]}, "categories": [{"id": "4bf58dd8d48988d1e0931735", "name": "Coffee Shop", "pluralName": "Coffee Shops", "shortName": "Coffee Shop", "icon": {"prefix": "https://ss3.4sqi.net/img/categories_v2/food/coffeeshop_", "suffix": ".png"}, "primary": true}], "photos": {"count": 0, "groups": []}}, "referralId": "e-0-4b0ad14df964a520532823e3-5"}, {"reasons": {"count": 0, "items": [{"summary": "This spot is popular", "type": "general", "reasonName": "globalInteractionReason"}]}, "venue": {"id": "4aeb5014f964a520c7c021e3", "name": "Starbucks", "location": {"address": "585 University Ave,R-16", "crossStreet": "at Toronto General Hospital", "lat": 43.658204, "lng": -79.388998, "labeledLatLngs": [{"label": "display", "lat": 43.658204, "lng": -79.388998}], "distance": 133, "postalCode": "M5G 2N2", "cc": "CA", "city": "Toronto", "state": "ON", "country": "Canada", "formattedAddress": ["585 University Ave,R-16 (at Toronto General Hospital)", "Toronto ON M5G 2N2", "Canada"]}, "categories": [{"id": "4bf58dd8d48988d1e0931735", "name": "Coffee Shop", "pluralName": "Coffee Shops", "shortName": "Coffee Shop", "icon": {"prefix": "https://ss3.4sqi.net/img/categories_v2/food/coffeeshop_", "suffix": ".png"}, "primary": true}], "photos": {"count": 0, "groups": []}}, "referralId": "e-0-4aeb5014f964a520c7c021e3-6"}, {"reasons": {"count": 0, "items": [{"summary": "This spot is popular", "type": "general", "reasonName": "globalInteractionReason"}]}, "venue": {"id": "59ea2931f96b2c78d41cc639", "name": "Flock Rotisserie + Greens", "location": {"address": "661 University Ave", "crossStreet": "College", "lat": 43.659167, "lng": -79.389475, "labeledLatLngs": [{"label": "display", "lat": 43.659167, "lng": -79.389475}], "distance": 216, "postalCode": "M5G 0A3", "cc": "CA", "city": "Toronto", "state": "ON", "country": "Canada", "formattedAddress": ["661 University Ave (College)", "Toronto ON M5G 0A3", "Canada"]}, "categories": [{"id": "4d4ae6fc7a7b7dea34424761", "name": "Fried Chicken Joint", "pluralName": "Fried Chicken Joints", "shortName": "Fried Chicken", "icon": {"prefix": "https://ss3.4sqi.net/img/categories_v2/food/friedchicken_", "suffix": ".png"}, "primary": true}], "photos": {"count": 0, "groups": []}}, "referralId": "e-0-59ea2931f96b2c78d41cc639-7"}, {"reasons": {"count": 0, "items": [{"summary": "This spot is popular", "type": "general", "reasonName": "globalInteractionReason"}]}, "venue": {"id": "4c6affbe9669e21e3708aa51", "name": "Tim Hortons", "location": {"address": "555 University Ave", "crossStreet": "in Sick Kids Hospital", "lat": 43.6573986, "lng": -79.3883129, "labeledLatLngs": [{"label": "display", "lat": 43.6573986, "lng": -79.3883129}], "distance": 97, "postalCode": "M5G 1X8", "cc": "CA", "city": "Toronto", "state": "ON", "country": "Canada", "formattedAddress": ["555 University Ave (in Sick Kids Hospital)", "Toronto ON M5G 1X8", "Canada"]}, "categories": [{"id": "4bf58dd8d48988d1e0931735", "name": "Coffee Shop", "pluralName": "Coffee Shops", "shortName": "Coffee Shop", "icon": {"prefix": "https://ss3.4sqi.net/img/categories_v2/food/coffeeshop_", "suffix": ".png"}, "primary": true}], "photos": {"count": 0, "groups": []}}, "referralId": "e-0-4c6affbe9669e21e3708aa51-8"}, {"reasons": {"count": 0, "items": [{"summary": "This spot is popular", "type": "general", "reasonName": "globalInteractionReason"}]}, "venue": {"id": "5187d8e9498e1f88b1f50ec7", "name": "Indigo", "location": {"address": "600 University Ave.", "crossStreet": "at Gerrard St. W", "lat": 43.65773818776676, "lng": -79.38966149215145, "labeledLatLngs": [{"label": "display", "lat": 43.65773818776676, "lng": -79.38966149215145}], "distance": 185, "cc": "CA", "city": "Toronto", "state": "ON", "country": "Canada", "formattedAddress": ["600 University Ave. (at Gerrard St. W)", "Toronto ON", "Canada"]}, "categories": [{"id": "4bf58dd8d48988d114951735", "name": "Bookstore", "pluralName": "Bookstores", "shortName": "Bookstore", "icon": {"prefix": "https://ss3.4sqi.net/img/categories_v2/shops/bookstore_", "suffix": ".png"}, "primary": true}], "photos": {"count": 0, "groups": []}}, "referralId": "e-0-5187d8e9498e1f88b1f50ec7-9"}, {"reasons": {"count": 0, "items": [{"summary": "This spot is popular", "type": "general", "reasonName": "globalInteractionReason"}]}, "venue": {"id": "51d85620498e93cd1678ebc5", "name": "Starbucks", "location": {"address": "525 University Ave.", "crossStreet": "at Elm St.", "lat": 43.65602357573824, "lng": -79.38877766280795, "labeledLatLngs": [{"label": "display", "lat": 43.65602357573824, "lng": -79.38877766280795}], "distance": 242, "postalCode": "M5G 2L3", "cc": "CA", "city": "Toronto", "state": "ON", "country": "Canada", "formattedAddress": ["525 University Ave. (at Elm St.)", "Toronto ON M5G 2L3", "Canada"]}, "categories": [{"id": "4bf58dd8d48988d1e0931735", "name": "Coffee Shop", "pluralName": "Coffee Shops", "shortName": "Coffee Shop", "icon": {"prefix": "https://ss3.4sqi.net/img/categories_v2/food/coffeeshop_", "suffix": ".png"}, "primary": true}], "photos": {"count": 0, "groups": []}}, "referralId": "e-0-51d85620498e93cd1678ebc5-10"}, {"reasons": {"count": 0, "items": [{"summary": "This spot is popular", "type": "general", "reasonName": "globalInteractionReason"}]}, "venue": {"id": "4b9a73ecf964a5209db635e3", "name": "Booster Juice", "location": {"address": "200 Elizabeth Street, Kiosk R5 (Toronto General Hospital)", "crossStreet": "btwn Gerrard & College", "lat": 43.65865699, "lng": -79.38868207, "labeledLatLngs": [{"label": "display", "lat": 43.65865699, "lng": -79.38868207}], "distance": 130, "postalCode": "M5G 2C4", "cc": "CA", "city": "Toronto", "state": "ON", "country": "Canada", "formattedAddress": ["200 Elizabeth Street, Kiosk R5 (Toronto General Hospital) (btwn Gerrard & College)", "Toronto ON M5G 2C4", "Canada"]}, "categories": [{"id": "52f2ab2ebcbc57f1066b8b41", "name": "Smoothie Shop", "pluralName": "Smoothie Shops", "shortName": "Smoothie Shop", "icon": {"prefix": "https://ss3.4sqi.net/img/categories_v2/food/juicebar_", "suffix": ".png"}, "primary": true}], "photos": {"count": 0, "groups": []}}, "referralId": "e-0-4b9a73ecf964a5209db635e3-11"}, {"reasons": {"count": 0, "items": [{"summary": "This spot is popular", "type": "general", "reasonName": "globalInteractionReason"}]}, "venue": {"id": "4bb0ad32f964a52031543ce3", "name": "Shoppers Drug Mart", "location": {"address": "555 University Ave", "crossStreet": "btw Elm & Gerrard", "lat": 43.657566, "lng": -79.388477, "labeledLatLngs": [{"label": "display", "lat": 43.657566, "lng": -79.388477}], "distance": 98, "postalCode": "M5G 1X8", "cc": "CA", "city": "Toronto", "state": "ON", "country": "Canada", "formattedAddress": ["555 University Ave (btw Elm & Gerrard)", "Toronto ON M5G 1X8", "Canada"]}, "categories": [{"id": "4bf58dd8d48988d10f951735", "name": "Pharmacy", "pluralName": "Pharmacies", "shortName": "Pharmacy", "icon": {"prefix": "https://ss3.4sqi.net/img/categories_v2/shops/pharmacy_", "suffix": ".png"}, "primary": true}], "photos": {"count": 0, "groups": []}}, "referralId": "e-0-4bb0ad32f964a52031543ce3-12"}, {"reasons": {"count": 0, "items": [{"summary": "This spot is popular", "type": "general", "reasonName": "globalInteractionReason"}]}, "venue": {"id": "4e7cb129b3ad0e8263d6e84b", "name": "Subway", "location": {"address": "555 University Ave", "crossStreet": "at Elm St. (in Sick Kids Hospital)", "lat": 43.657379532300766, "lng": -79.38743239235635, "labeledLatLngs": [{"label": "display", "lat": 43.657379532300766, "lng": -79.38743239235635}], "distance": 63, "postalCode": "M5G 1X8", "cc": "CA", "city": "Toronto", "state": "ON", "country": "Canada", "formattedAddress": ["555 University Ave (at Elm St. (in Sick Kids Hospital))", "Toronto ON M5G 1X8", "Canada"]}, "categories": [{"id": "4bf58dd8d48988d1c5941735", "name": "Sandwich Place", "pluralName": "Sandwich Places", "shortName": "Sandwiches", "icon": {"prefix": "https://ss3.4sqi.net/img/categories_v2/food/deli_", "suffix": ".png"}, "primary": true}], "photos": {"count": 0, "groups": []}}, "referralId": "e-0-4e7cb129b3ad0e8263d6e84b-13"}, {"reasons": {"count": 0, "items": [{"summary": "This spot is popular", "type": "general", "reasonName": "globalInteractionReason"}]}, "venue": {"id": "4d7b9170da568cfae33953ff", "name": "Subway", "location": {"lat": 43.65946709895447, "lng": -79.38824850471555, "labeledLatLngs": [{"label": "display", "lat": 43.65946709895447, "lng": -79.38824850471555}], "distance": 182, "cc": "CA", "city": "Toronto", "state": "ON", "country": "Canada", "formattedAddress": ["Toronto ON", "Canada"]}, "categories": [{"id": "4bf58dd8d48988d1c5941735", "name": "Sandwich Place", "pluralName": "Sandwich Places", "shortName": "Sandwiches", "icon": {"prefix": "https://ss3.4sqi.net/img/categories_v2/food/deli_", "suffix": ".png"}, "primary": true}], "photos": {"count": 0, "groups": []}}, "referralId": "e-0-4d7b9170da568cfae33953ff-14"}, {"reasons": {"count": 0, "items": [{"summary": "This spot is popular", "type": "general", "reasonName": "globalInteractionReason"}]}, "venue": {"id": "5671be66498efccf89f7e21f", "name": "Aroma Espresso Bar", "location": {"lat": 43.658927676749364, "lng": -79.38990298985978, "labeledLatLngs": [{"label": "display", "lat": 43.658927676749364, "lng": -79.38990298985978}], "distance": 230, "cc": "CA", "city": "Toronto", "state": "ON", "country": "Canada", "formattedAddress": ["Toronto ON", "Canada"]}, "categories": [{"id": "4bf58dd8d48988d16d941735", "name": "Caf\u00e9", "pluralName": "Caf\u00e9s", "shortName": "Caf\u00e9", "icon": {"prefix": "https://ss3.4sqi.net/img/categories_v2/food/cafe_", "suffix": ".png"}, "primary": true}], "photos": {"count": 0, "groups": []}}, "referralId": "e-0-5671be66498efccf89f7e21f-15"}, {"reasons": {"count": 0, "items": [{"summary": "This spot is popular", "type": "general", "reasonName": "globalInteractionReason"}]}, "venue": {"id": "4b82ba3ff964a520c5e030e3", "name": "Second Cup", "location": {"address": "600 University Ave", "crossStreet": "Mount Sinai Hospital", "lat": 43.65763711605256, "lng": -79.3895120341753, "labeledLatLngs": [{"label": "display", "lat": 43.65763711605256, "lng": -79.3895120341753}], "distance": 175, "postalCode": "M5G 1X5", "cc": "CA", "city": "Toronto", "state": "ON", "country": "Canada", "formattedAddress": ["600 University Ave (Mount Sinai Hospital)", "Toronto ON M5G 1X5", "Canada"]}, "categories": [{"id": "4bf58dd8d48988d16d941735", "name": "Caf\u00e9", "pluralName": "Caf\u00e9s", "shortName": "Caf\u00e9", "icon": {"prefix": "https://ss3.4sqi.net/img/categories_v2/food/cafe_", "suffix": ".png"}, "primary": true}], "photos": {"count": 0, "groups": []}}, "referralId": "e-0-4b82ba3ff964a520c5e030e3-16"}, {"reasons": {"count": 0, "items": [{"summary": "This spot is popular", "type": "general", "reasonName": "globalInteractionReason"}]}, "venue": {"id": "4dbead4d4b222080d3c54ed8", "name": "Tim Hortons", "location": {"address": "600 University Avenue", "crossStreet": "Mt Sinai Hospital", "lat": 43.657396754910025, "lng": -79.39000236526671, "labeledLatLngs": [{"label": "display", "lat": 43.657396754910025, "lng": -79.39000236526671}], "distance": 219, "cc": "CA", "city": "Toronto", "state": "ON", "country": "Canada", "formattedAddress": ["600 University Avenue (Mt Sinai Hospital)", "Toronto ON", "Canada"]}, "categories": [{"id": "4bf58dd8d48988d1e0931735", "name": "Coffee Shop", "pluralName": "Coffee Shops", "shortName": "Coffee Shop", "icon": {"prefix": "https://ss3.4sqi.net/img/categories_v2/food/coffeeshop_", "suffix": ".png"}, "primary": true}], "photos": {"count": 0, "groups": []}}, "referralId": "e-0-4dbead4d4b222080d3c54ed8-17"}, {"reasons": {"count": 0, "items": [{"summary": "This spot is popular", "type": "general", "reasonName": "globalInteractionReason"}]}, "venue": {"id": "4b043153f964a520f85122e3", "name": "Thai Express", "location": {"address": "505 University Ave", "lat": 43.655835, "lng": -79.38813, "labeledLatLngs": [{"label": "display", "lat": 43.655835, "lng": -79.38813}], "distance": 243, "postalCode": "M5G 1X3", "cc": "CA", "city": "Toronto", "state": "ON", "country": "Canada", "formattedAddress": ["505 University Ave", "Toronto ON M5G 1X3", "Canada"]}, "categories": [{"id": "4bf58dd8d48988d149941735", "name": "Thai Restaurant", "pluralName": "Thai Restaurants", "shortName": "Thai", "icon": {"prefix": "https://ss3.4sqi.net/img/categories_v2/food/thai_", "suffix": ".png"}, "primary": true}], "photos": {"count": 0, "groups": []}}, "referralId": "e-0-4b043153f964a520f85122e3-18"}, {"reasons": {"count": 0, "items": [{"summary": "This spot is popular", "type": "general", "reasonName": "globalInteractionReason"}]}, "venue": {"id": "4bec073a6295c9b6815c8808", "name": "Tim Hortons", "location": {"address": "101 College St, Unit 14", "crossStreet": "MaRS", "lat": 43.659695, "lng": -79.388706, "labeledLatLngs": [{"label": "display", "lat": 43.659695, "lng": -79.388706}], "distance": 221, "postalCode": "M5T 1P5", "cc": "CA", "city": "Toronto", "state": "ON", "country": "Canada", "formattedAddress": ["101 College St, Unit 14 (MaRS)", "Toronto ON M5T 1P5", "Canada"]}, "categories": [{"id": "4bf58dd8d48988d1e0931735", "name": "Coffee Shop", "pluralName": "Coffee Shops", "shortName": "Coffee Shop", "icon": {"prefix": "https://ss3.4sqi.net/img/categories_v2/food/coffeeshop_", "suffix": ".png"}, "primary": true}], "photos": {"count": 0, "groups": []}}, "referralId": "e-0-4bec073a6295c9b6815c8808-19"}, {"reasons": {"count": 0, "items": [{"summary": "This spot is popular", "type": "general", "reasonName": "globalInteractionReason"}]}, "venue": {"id": "4c0f812d98102d7f8a44e506", "name": "Tim Hortons", "location": {"address": "657 University Ave", "crossStreet": "Toronto General Hospital", "lat": 43.658599, "lng": -79.388498, "labeledLatLngs": [{"label": "display", "lat": 43.658599, "lng": -79.388498}], "distance": 115, "postalCode": "M5G 2C4", "cc": "CA", "city": "Toronto", "state": "ON", "country": "Canada", "formattedAddress": ["657 University Ave (Toronto General Hospital)", "Toronto ON M5G 2C4", "Canada"]}, "categories": [{"id": "4bf58dd8d48988d1e0931735", "name": "Coffee Shop", "pluralName": "Coffee Shops", "shortName": "Coffee Shop", "icon": {"prefix": "https://ss3.4sqi.net/img/categories_v2/food/coffeeshop_", "suffix": ".png"}, "primary": true}], "photos": {"count": 0, "groups": []}}, "referralId": "e-0-4c0f812d98102d7f8a44e506-20"}, {"reasons": {"count": 0, "items": [{"summary": "This spot is popular", "type": "general", "reasonName": "globalInteractionReason"}]}, "venue": {"id": "4b4f1f6ef964a520ccfa26e3", "name": "Druxy's", "location": {"address": "123 Edward St.", "crossStreet": "Chestnut", "lat": 43.65574396896198, "lng": -79.38697354092464, "labeledLatLngs": [{"label": "display", "lat": 43.65574396896198, "lng": -79.38697354092464}], "distance": 248, "postalCode": "M5G 1E2", "cc": "CA", "city": "Toronto", "state": "ON", "country": "Canada", "formattedAddress": ["123 Edward St. (Chestnut)", "Toronto ON M5G 1E2", "Canada"]}, "categories": [{"id": "4bf58dd8d48988d146941735", "name": "Deli / Bodega", "pluralName": "Delis / Bodegas", "shortName": "Deli / Bodega", "icon": {"prefix": "https://ss3.4sqi.net/img/categories_v2/food/deli_", "suffix": ".png"}, "primary": true}], "photos": {"count": 0, "groups": []}}, "referralId": "e-0-4b4f1f6ef964a520ccfa26e3-21"}]}]}}