{"meta": {"code": 200, "requestId": "5e1973a247e0d6002501efae"}, "response": {"warning": {"text": "There aren't a lot of results near you. Try something more general, reset your filters, or expand the search area."}, "headerLocation": "Lawrence Park South", "headerFullLocation": "Lawrence Park South, Toronto", "headerLocationGranularity": "neighborhood", "totalResults": 3, "suggestedBounds": {"ne": {"lat": 43.716167804473, "lng": -79.41075893761611}, "sw": {"lat": 43.70722179552699, "lng": -79.42311226238387}}, "groups": [{"type": "Recommended Places", "name": "recommended", "items": [{"reasons": {"count": 0, "items": [{"summary": "This spot is popular", "type": "general", "reasonName": "globalInteractionReason"}]}, "venue": {"id": "5ae8cfe98496ca002c65d83a", "name": "Ceiling Champions", "location": {"address": "505 The West Mall Suite #207", "lat": 43.71389073142895, "lng": -79.42070245742796, "labeledLatLngs": [{"label": "display", "lat": 43.71389073142895, "lng": -79.42070245742796}], "distance": 389, "postalCode": "M9C 1G2", "cc": "CA", "city": "Etobicoke", "state": "ON", "country": "Canada", "formattedAddress": ["505 The West Mall Suite #207", "Etobicoke ON M9C 1G2", "Canada"]}, "categories": [{"id": "545419b1498ea6ccd0202f58", "name": "Home Service", "pluralName": "Home Services & Repairs", "shortName": "Home Services", "icon": {"prefix": "https://ss3.4sqi.net/img/categories_v2/shops/hardware_", "suffix": ".png"}, "primary": true}], "photos": {"count": 0, "groups": []}}, "referralId": "e-0-5ae8cfe98496ca002c65d83a-0"}, {"reasons": {"count": 0, "items": [{"summary": "This spot is popular", "type": "general", "reasonName": "globalInteractionReason"}]}, "venue": {"id": "4e6e176c45dd293273b74e3c", "name": "Rosalind's Garden Oasis", "location": {"lat": 43.71218888050602, "lng": -79.41197784736922, "labeledLatLngs": [{"label": "display", "lat": 43.71218888050602, "lng": -79.41197784736922}], "distance": 402, "cc": "CA", "city": "Toronto", "state": "ON", "country": "Canada", "formattedAddress": ["Toronto ON", "Canada"]}, "categories": [{"id": "4bf58dd8d48988d15a941735", "name": "Garden", "pluralName": "Gardens", "shortName": "Garden", "icon": {"prefix": "https://ss3.4sqi.net/img/categories_v2/parks_outdoors/garden_", "suffix": ".png"}, "primary": true}], "photos": {"count": 0, "groups": []}}, "referralId": "e-0-4e6e176c45dd293273b74e3c-1"}, {"reasons": {"count": 0, "items": [{"summary": "This spot is popular", "type": "general", "reasonName": "globalInteractionReason"}]}, "venue": {"id": "535d9f58498ea3b8848bb3aa", "name": "Menchie's St. Clair West", "location": {"address": "518 St. Clair Avenue", "crossStreet": "Bathurst St", "lat": 43.707664, "lng": -79.414301, "labeledLatLngs": [{"label": "display", "lat": 43.707664, "lng": -79.414301}], "distance": 496, "postalCode": "M6C 1A2", "cc": "CA", "city": "Toronto", "state": "ON", "country": "Canada", "formattedAddress": ["518 St. Clair Avenue (Bathurst St)", "Toronto ON M6C 1A2", "Canada"]}, "categories": [{"id": "4bf58dd8d48988d1c9941735", "name": "Ice Cream Shop", "pluralName": "Ice Cream Shops", "shortName": "Ice Cream", "icon": {"prefix": "https://ss3.4sqi.net/img/categories_v2/food/icecream_", "suffix": ".png"}, "primary": true}], "photos": {"count": 0, "groups": []}}, "referralId": "e-0-535d9f58498ea3b8848bb3aa-2"}]}]}}