{"meta": {"code": 200, "requestId": "5e1973c7216785001b56768f"}, "response": {"headerLocation": "The Annex", "headerFullLocation": "The Annex, Toronto", "headerLocationGranularity": "neighborhood", "totalResults": 33, "suggestedBounds": {"ne": {"lat": 43.678109705400004, "lng": -79.39822651036465}, "sw": {"lat": 43.66730969459999, "lng": -79.41313028963538}}, "groups": [{"type": "Recommended Places", "name": "recommended", "items": [{"reasons": {"count": 0, "items": [{"summary": "This spot is popular", "type": "general", "reasonName": "globalInteractionReason"}]}, "venue": {"id": "4c62c59ce1621b8dd0332453", "name": "Roti Cuisine of India", "location": {"address": "308 Dupont St.", "crossStreet": "at Walmer Rd.", "lat": 43.67461834990478, "lng": -79.40824866273744, "labeledLatLngs": [{"label": "display", "lat": 43.67461834990478, "lng": -79.40824866273744}], "distance": 296, "postalCode": "M5R 2X8", "cc": "CA", "city": "Toronto", "state": "ON", "country": "Canada", "formattedAddress": ["308 Dupont St. (at Walmer Rd.)", "Toronto ON M5R 2X8", "Canada"]}, "categories": [{"id": "4bf58dd8d48988d10f941735", "name": "Indian Restaurant", "pluralName": "Indian Restaurants", "shortName": "Indian", "icon": {"prefix": "https://ss3.4sqi.net/img/categories_v2/food/indian_", "suffix": ".png"}, "primary": true}], "photos": {"count": 0, "groups": []}}, "referralId": "e-0-4c62c59ce1621b8dd0332453-0"}, {"reasons": {"count": 0, "items": [{"summary": "This spot is popular", "type": "general", "reasonName": "globalInteractionReason"}]}, "venue": {"id": "4ae7bc29f964a52084ad21e3", "name": "Ezra's Pound", "location": {"address": "238 Dupont St", "crossStreet": "Spadina Ave", "lat": 43.67515283323029, "lng": -79.40585846415303, "labeledLatLngs": [{"label": "display", "lat": 43.67515283323029, "lng": -79.40585846415303}], "distance": 272, "postalCode": "M5R 1V7", "cc": "CA", "city": "Toronto", "state": "ON", "country": "Canada", "formattedAddress": ["238 Dupont St (Spadina Ave)", "Toronto ON M5R 1V7", "Canada"]}, "categories": [{"id": "4bf58dd8d48988d16d941735", "name": "Caf\u00e9", "pluralName": "Caf\u00e9s", "shortName": "Caf\u00e9", "icon": {"prefix": "https://ss3.4sqi.net/img/categories_v2/food/cafe_", "suffix": ".png"}, "primary": true}], "photos": {"count": 0, "groups": []}}, "referralId": "e-0-4ae7bc29f964a52084ad21e3-1"}, {"reasons": {"count": 0, "items": [{"summary": "This spot is popular", "type": "general", "reasonName": "globalInteractionReason"}]}, "venue": {"id": "4ad4c061f964a52099f720e3", "name": "Live Organic Food Bar", "location": {"address": "264 Dupont Street", "lat": 43.67505287052667, "lng": -79.40671518307245, "labeledLatLngs": [{"label": "display", "lat": 43.67505287052667, "lng": -79.40671518307245}], "distance": 273, "postalCode": "M5R 1V7", "cc": "CA", "city": "Toronto", "state": "ON", "country": "Canada", "formattedAddress": ["264 Dupont Street", "Toronto ON M5R 1V7", "Canada"]}, "categories": [{"id": "4bf58dd8d48988d1d3941735", "name": "Vegetarian / Vegan Restaurant", "pluralName": "Vegetarian / Vegan Restaurants", "shortName": "Vegetarian / Vegan", "icon": {"prefix": "https://ss3.4sqi.net/img/categories_v2/food/vegetarian_", "suffix": ".png"}, "primary": true}], "photos": {"count": 0, "groups": []}}, "referralId": "e-0-4ad4c061f964a52099f720e3-2"}, {"reasons": {"count": 0, "items": [{"summary": "This spot is popular", "type": "general", "reasonName": "globalInteractionReason"}]}, "venue": {"id": "50abfac3e4b05922967ebe89", "name": "Rose & Sons", "location": {"address": "176 Dupont Street", "crossStreet": "St. George St", "lat": 43.6756684758828, "lng": -79.40361659752443, "labeledLatLngs": [{"label": "display", "lat": 43.6756684758828, "lng": -79.40361659752443}], "distance": 368, "postalCode": "M5R 2E6", "cc": "CA", "city": "Toronto", "state": "ON", "country": "Canada", "formattedAddress": ["176 Dupont Street (St. George St)", "Toronto ON M5R 2E6", "Canada"]}, "categories": [{"id": "4bf58dd8d48988d14e941735", "name": "American Restaurant", "pluralName": "American Restaurants", "shortName": "American", "icon": {"prefix": "https://ss3.4sqi.net/img/categories_v2/food/default_", "suffix": ".png"}, "primary": true}], "photos": {"count": 0, "groups": []}}, "referralId": "e-0-50abfac3e4b05922967ebe89-3"}, {"reasons": {"count": 0, "items": [{"summary": "This spot is popular", "type": "general", "reasonName": "globalInteractionReason"}]}, "venue": {"id": "51dde181498eeca51450d79a", "name": "Big Crow", "location": {"address": "176 Dupont St.", "crossStreet": "St George St", "lat": 43.675896076491284, "lng": -79.40368028354095, "labeledLatLngs": [{"label": "display", "lat": 43.675896076491284, "lng": -79.40368028354095}], "distance": 389, "postalCode": "M5R 2E6", "cc": "CA", "city": "Toronto", "state": "ON", "country": "Canada", "formattedAddress": ["176 Dupont St. (St George St)", "Toronto ON M5R 2E6", "Canada"]}, "categories": [{"id": "4bf58dd8d48988d1df931735", "name": "BBQ Joint", "pluralName": "BBQ Joints", "shortName": "BBQ", "icon": {"prefix": "https://ss3.4sqi.net/img/categories_v2/food/bbqalt_", "suffix": ".png"}, "primary": true}], "photos": {"count": 0, "groups": []}}, "referralId": "e-0-51dde181498eeca51450d79a-4"}, {"reasons": {"count": 0, "items": [{"summary": "This spot is popular", "type": "general", "reasonName": "globalInteractionReason"}]}, "venue": {"id": "55d2781b498e82585d37691e", "name": "Creeds Coffee Bar", "location": {"address": "390 Dupont St", "lat": 43.67410020855885, "lng": -79.41083780404273, "labeledLatLngs": [{"label": "display", "lat": 43.67410020855885, "lng": -79.41083780404273}], "distance": 443, "postalCode": "M5R 1V9", "cc": "CA", "city": "Toronto", "state": "ON", "country": "Canada", "formattedAddress": ["390 Dupont St", "Toronto ON M5R 1V9", "Canada"]}, "categories": [{"id": "4bf58dd8d48988d1e0931735", "name": "Coffee Shop", "pluralName": "Coffee Shops", "shortName": "Coffee Shop", "icon": {"prefix": "https://ss3.4sqi.net/img/categories_v2/food/coffeeshop_", "suffix": ".png"}, "primary": true}], "photos": {"count": 0, "groups": []}, "venuePage": {"id": "137539032"}}, "referralId": "e-0-55d2781b498e82585d37691e-5"}, {"reasons": {"count": 0, "items": [{"summary": "This spot is popular", "type": "general", "reasonName": "globalInteractionReason"}]}, "venue": {"id": "5c5f10e4bf7dde002cef8172", "name": "Fet Zun", "location": {"address": "252 Dupont Street", "lat": 43.675147, "lng": -79.406346, "labeledLatLngs": [{"label": "display", "lat": 43.675147, "lng": -79.406346}], "distance": 276, "postalCode": "M5R 1V7", "cc": "CA", "city": "Toronto", "state": "ON", "country": "Canada", "formattedAddress": ["252 Dupont Street", "Toronto ON M5R 1V7", "Canada"]}, "categories": [{"id": "4bf58dd8d48988d115941735", "name": "Middle Eastern Restaurant", "pluralName": "Middle Eastern Restaurants", "shortName": "Middle Eastern", "icon": {"prefix": "https://ss3.4sqi.net/img/categories_v2/food/middleeastern_", "suffix": ".png"}, "primary": true}], "photos": {"count": 0, "groups": []}}, "referralId": "e-0-5c5f10e4bf7dde002cef8172-6"}, {"reasons": {"count": 0, "items": [{"summary": "This spot is popular", "type": "general", "reasonName": "globalInteractionReason"}]}, "venue": {"id": "5929ae709deb7d7d29b7ad46", "name": "Madame Boeuf And Flea", "location": {"address": "252 Dupont Street", "crossStreet": "Spadina", "lat": 43.67524, "lng": -79.40662, "labeledLatLngs": [{"label": "display", "lat": 43.67524, "lng": -79.40662}], "distance": 291, "postalCode": "M5R 1V7", "cc": "CA", "neighborhood": "The Annex", "city": "Toronto", "state": "ON", "country": "Canada", "formattedAddress": ["252 Dupont Street (Spadina)", "Toronto ON M5R 1V7", "Canada"]}, "categories": [{"id": "4bf58dd8d48988d16c941735", "name": "Burger Joint", "pluralName": "Burger Joints", "shortName": "Burgers", "icon": {"prefix": "https://ss3.4sqi.net/img/categories_v2/food/burger_", "suffix": ".png"}, "primary": true}], "photos": {"count": 0, "groups": []}}, "referralId": "e-0-5929ae709deb7d7d29b7ad46-7"}, {"reasons": {"count": 0, "items": [{"summary": "This spot is popular", "type": "general", "reasonName": "globalInteractionReason"}]}, "venue": {"id": "4dd5c8762271c5d36d13e5c1", "name": "Playa Cabana", "location": {"address": "111 Dupont St.", "lat": 43.67611179256714, "lng": -79.4012790354265, "labeledLatLngs": [{"label": "display", "lat": 43.67611179256714, "lng": -79.4012790354265}], "distance": 518, "postalCode": "M5R 1V4", "cc": "CA", "city": "Toronto", "state": "ON", "country": "Canada", "formattedAddress": ["111 Dupont St.", "Toronto ON M5R 1V4", "Canada"]}, "categories": [{"id": "4bf58dd8d48988d1c1941735", "name": "Mexican Restaurant", "pluralName": "Mexican Restaurants", "shortName": "Mexican", "icon": {"prefix": "https://ss3.4sqi.net/img/categories_v2/food/mexican_", "suffix": ".png"}, "primary": true}], "photos": {"count": 0, "groups": []}}, "referralId": "e-0-4dd5c8762271c5d36d13e5c1-8"}, {"reasons": {"count": 0, "items": [{"summary": "This spot is popular", "type": "general", "reasonName": "globalInteractionReason"}]}, "venue": {"id": "4cdedf6369136dcba84cd9e6", "name": "Dish Cooking Studio", "location": {"address": "390 Dupont Street", "lat": 43.67406646467061, "lng": -79.4107635453081, "labeledLatLngs": [{"label": "display", "lat": 43.67406646467061, "lng": -79.4107635453081}], "distance": 436, "cc": "CA", "city": "Toronto", "state": "ON", "country": "Canada", "formattedAddress": ["390 Dupont Street", "Toronto ON", "Canada"]}, "categories": [{"id": "4bf58dd8d48988d16d941735", "name": "Caf\u00e9", "pluralName": "Caf\u00e9s", "shortName": "Caf\u00e9", "icon": {"prefix": "https://ss3.4sqi.net/img/categories_v2/food/cafe_", "suffix": ".png"}, "primary": true}], "photos": {"count": 0, "groups": []}}, "referralId": "e-0-4cdedf6369136dcba84cd9e6-9"}, {"reasons": {"count": 0, "items": [{"summary": "This spot is popular", "type": "general", "reasonName": "globalInteractionReason"}]}, "venue": {"id": "54400bee498e61defb21f0a5", "name": "Schmaltz Appetizing", "location": {"address": "414 Dupont St.", "lat": 43.673894733822266, "lng": -79.41181770211539, "labeledLatLngs": [{"label": "display", "lat": 43.673894733822266, "lng": -79.41181770211539}], "distance": 511, "postalCode": "M5R 1V9", "cc": "CA", "city": "Toronto", "state": "ON", "country": "Canada", "formattedAddress": ["414 Dupont St.", "Toronto ON M5R 1V9", "Canada"]}, "categories": [{"id": "4bf58dd8d48988d146941735", "name": "Deli / Bodega", "pluralName": "Delis / Bodegas", "shortName": "Deli / Bodega", "icon": {"prefix": "https://ss3.4sqi.net/img/categories_v2/food/deli_", "suffix": ".png"}, "primary": true}], "photos": {"count": 0, "groups": []}}, "referralId": "e-0-54400bee498e61defb21f0a5-10"}, {"reasons": {"count": 0, "items": [{"summary": "This spot is popular", "type": "general", "reasonName": "globalInteractionReason"}]}, "venue": {"id": "4c0c36c0a1b32d7f97439cf0", "name": "Jean Sibelius Square", "location": {"address": "Wells St and Kendal Ave.", "lat": 43.67142628683921, "lng": -79.40883090368688, "labeledLatLngs": [{"label": "display", "lat": 43.67142628683921, "lng": -79.40883090368688}], "distance": 291, "cc": "CA", "city": "Toronto", "state": "ON", "country": "Canada", "formattedAddress": ["Wells St and Kendal Ave.", "Toronto ON", "Canada"]}, "categories": [{"id": "4bf58dd8d48988d163941735", "name": "Park", "pluralName": "Parks", "shortName": "Park", "icon": {"prefix": "https://ss3.4sqi.net/img/categories_v2/parks_outdoors/park_", "suffix": ".png"}, "primary": true}], "photos": {"count": 0, "groups": []}}, "referralId": "e-0-4c0c36c0a1b32d7f97439cf0-11"}, {"reasons": {"count": 0, "items": [{"summary": "This spot is popular", "type": "general", "reasonName": "globalInteractionReason"}]}, "venue": {"id": "4d8e7fde1716a14396a634f7", "name": "Baldwin Steps", "location": {"address": "Davenport Rd.", "crossStreet": "at Spadina Rd.", "lat": 43.67770700052798, "lng": -79.40820890386739, "labeledLatLngs": [{"label": "display", "lat": 43.67770700052798, "lng": -79.40820890386739}], "distance": 592, "postalCode": "M5R 1X8", "cc": "CA", "city": "Toronto", "state": "ON", "country": "Canada", "formattedAddress": ["Davenport Rd. (at Spadina Rd.)", "Toronto ON M5R 1X8", "Canada"]}, "categories": [{"id": "4deefb944765f83613cdba6e", "name": "Historic Site", "pluralName": "Historic Sites", "shortName": "Historic Site", "icon": {"prefix": "https://ss3.4sqi.net/img/categories_v2/arts_entertainment/historicsite_", "suffix": ".png"}, "primary": true}], "photos": {"count": 0, "groups": []}}, "referralId": "e-0-4d8e7fde1716a14396a634f7-12"}, {"reasons": {"count": 0, "items": [{"summary": "This spot is popular", "type": "general", "reasonName": "globalInteractionReason"}]}, "venue": {"id": "53485d70498e014b9183eac6", "name": "Fat Pasha", "location": {"address": "414 Dupont St", "crossStreet": "Howland Ave", "lat": 43.67378411528878, "lng": -79.41177020045674, "labeledLatLngs": [{"label": "display", "lat": 43.67378411528878, "lng": -79.41177020045674}], "distance": 504, "postalCode": "M5R 1V9", "cc": "CA", "city": "Toronto", "state": "ON", "country": "Canada", "formattedAddress": ["414 Dupont St (Howland Ave)", "Toronto ON M5R 1V9", "Canada"]}, "categories": [{"id": "52e81612bcbc57f1066b79fd", "name": "Jewish Restaurant", "pluralName": "Jewish Restaurants", "shortName": "Jewish", "icon": {"prefix": "https://ss3.4sqi.net/img/categories_v2/food/default_", "suffix": ".png"}, "primary": true}], "photos": {"count": 0, "groups": []}}, "referralId": "e-0-53485d70498e014b9183eac6-13"}, {"reasons": {"count": 0, "items": [{"summary": "This spot is popular", "type": "general", "reasonName": "globalInteractionReason"}]}, "venue": {"id": "4b53bef9f964a52011aa27e3", "name": "The Madison Avenue Pub", "location": {"address": "19 Madison Ave.", "crossStreet": "at Bloor St. W", "lat": 43.667946944171426, "lng": -79.40348638003233, "labeledLatLngs": [{"label": "display", "lat": 43.667946944171426, "lng": -79.40348638003233}], "distance": 558, "postalCode": "M5R 2S1", "cc": "CA", "city": "Toronto", "state": "ON", "country": "Canada", "formattedAddress": ["19 Madison Ave. (at Bloor St. W)", "Toronto ON M5R 2S1", "Canada"]}, "categories": [{"id": "4bf58dd8d48988d11b941735", "name": "Pub", "pluralName": "Pubs", "shortName": "Pub", "icon": {"prefix": "https://ss3.4sqi.net/img/categories_v2/nightlife/pub_", "suffix": ".png"}, "primary": true}], "photos": {"count": 0, "groups": []}}, "referralId": "e-0-4b53bef9f964a52011aa27e3-14"}, {"reasons": {"count": 0, "items": [{"summary": "This spot is popular", "type": "general", "reasonName": "globalInteractionReason"}]}, "venue": {"id": "4ade974ef964a520717621e3", "name": "Pour House", "location": {"address": "182 Dupont St.", "crossStreet": "at St. George St.", "lat": 43.675640867179204, "lng": -79.40382084040043, "labeledLatLngs": [{"label": "display", "lat": 43.675640867179204, "lng": -79.40382084040043}], "distance": 358, "postalCode": "M5R 2E6", "cc": "CA", "city": "Toronto", "state": "ON", "country": "Canada", "formattedAddress": ["182 Dupont St. (at St. George St.)", "Toronto ON M5R 2E6", "Canada"]}, "categories": [{"id": "4bf58dd8d48988d11b941735", "name": "Pub", "pluralName": "Pubs", "shortName": "Pub", "icon": {"prefix": "https://ss3.4sqi.net/img/categories_v2/nightlife/pub_", "suffix": ".png"}, "primary": true}], "photos": {"count": 0, "groups": []}, "venuePage": {"id": "46528314"}}, "referralId": "e-0-4ade974ef964a520717621e3-15"}, {"reasons": {"count": 0, "items": [{"summary": "This spot is popular", "type": "general", "reasonName": "globalInteractionReason"}]}, "venue": {"id": "4cbf015897bc721e6fe08267", "name": "Chadwick's", "location": {"address": "268 Howland Ave", "crossStreet": "at Dupont St", "lat": 43.67359329474282, "lng": -79.41201462996214, "labeledLatLngs": [{"label": "display", "lat": 43.67359329474282, "lng": -79.41201462996214}], "distance": 519, "postalCode": "M5R 3B6", "cc": "CA", "city": "Toronto", "state": "ON", "country": "Canada", "formattedAddress": ["268 Howland Ave (at Dupont St)", "Toronto ON M5R 3B6", "Canada"]}, "categories": [{"id": "4bf58dd8d48988d155941735", "name": "Gastropub", "pluralName": "Gastropubs", "shortName": "Gastropub", "icon": {"prefix": "https://ss3.4sqi.net/img/categories_v2/food/gastropub_", "suffix": ".png"}, "primary": true}], "photos": {"count": 0, "groups": []}, "venuePage": {"id": "48737735"}}, "referralId": "e-0-4cbf015897bc721e6fe08267-16"}, {"reasons": {"count": 0, "items": [{"summary": "This spot is popular", "type": "general", "reasonName": "globalInteractionReason"}]}, "venue": {"id": "4b02e4bbf964a520bf4a22e3", "name": "The Annex Hodgepodge", "location": {"address": "258 Dupont Ave.", "crossStreet": "at Spadina Rd.", "lat": 43.674975198818274, "lng": -79.40654256081908, "labeledLatLngs": [{"label": "display", "lat": 43.674975198818274, "lng": -79.40654256081908}], "distance": 261, "cc": "CA", "city": "Toronto", "state": "ON", "country": "Canada", "formattedAddress": ["258 Dupont Ave. (at Spadina Rd.)", "Toronto ON", "Canada"]}, "categories": [{"id": "4bf58dd8d48988d1c5941735", "name": "Sandwich Place", "pluralName": "Sandwich Places", "shortName": "Sandwiches", "icon": {"prefix": "https://ss3.4sqi.net/img/categories_v2/food/deli_", "suffix": ".png"}, "primary": true}], "photos": {"count": 0, "groups": []}}, "referralId": "e-0-4b02e4bbf964a520bf4a22e3-17"}, {"reasons": {"count": 0, "items": [{"summary": "This spot is popular", "type": "general", "reasonName": "globalInteractionReason"}]}, "venue": {"id": "4b730725f964a520c7962de3", "name": "Toronto Archives", "location": {"address": "255 Spadina Ave.", "lat": 43.67644734460629, "lng": -79.40750861881347, "labeledLatLngs": [{"label": "display", "lat": 43.67644734460629, "lng": -79.40750861881347}], "distance": 441, "postalCode": "M5R 2V3", "cc": "CA", "city": "Toronto", "state": "ON", "country": "Canada", "formattedAddress": ["255 Spadina Ave.", "Toronto ON M5R 2V3", "Canada"]}, "categories": [{"id": "4bf58dd8d48988d190941735", "name": "History Museum", "pluralName": "History Museums", "shortName": "History Museum", "icon": {"prefix": "https://ss3.4sqi.net/img/categories_v2/arts_entertainment/museum_history_", "suffix": ".png"}, "primary": true}], "photos": {"count": 0, "groups": []}}, "referralId": "e-0-4b730725f964a520c7962de3-18"}, {"reasons": {"count": 0, "items": [{"summary": "This spot is popular", "type": "general", "reasonName": "globalInteractionReason"}]}, "venue": {"id": "4b086bf3f964a520800b23e3", "name": "Le Paradis", "location": {"address": "166 Bedford Rd", "crossStreet": "Dupont St", "lat": 43.67500732033419, "lng": -79.40003625111297, "labeledLatLngs": [{"label": "display", "lat": 43.67500732033419, "lng": -79.40003625111297}], "distance": 521, "postalCode": "M5R 2K9", "cc": "CA", "city": "Toronto", "state": "ON", "country": "Canada", "formattedAddress": ["166 Bedford Rd (Dupont St)", "Toronto ON M5R 2K9", "Canada"]}, "categories": [{"id": "4bf58dd8d48988d10c941735", "name": "French Restaurant", "pluralName": "French Restaurants", "shortName": "French", "icon": {"prefix": "https://ss3.4sqi.net/img/categories_v2/food/french_", "suffix": ".png"}, "primary": true}], "photos": {"count": 0, "groups": []}, "venuePage": {"id": "412620536"}}, "referralId": "e-0-4b086bf3f964a520800b23e3-19"}, {"reasons": {"count": 0, "items": [{"summary": "This spot is popular", "type": "general", "reasonName": "globalInteractionReason"}]}, "venue": {"id": "4aec890ff964a52066c821e3", "name": "LCBO", "location": {"address": "232 Dupont St", "crossStreet": "at Huron St", "lat": 43.675344431726565, "lng": -79.40532725232431, "labeledLatLngs": [{"label": "display", "lat": 43.675344431726565, "lng": -79.40532725232431}], "distance": 294, "postalCode": "M5R 1V7", "cc": "CA", "city": "Toronto", "state": "ON", "country": "Canada", "formattedAddress": ["232 Dupont St (at Huron St)", "Toronto ON M5R 1V7", "Canada"]}, "categories": [{"id": "4bf58dd8d48988d186941735", "name": "Liquor Store", "pluralName": "Liquor Stores", "shortName": "Liquor Store", "icon": {"prefix": "https://ss3.4sqi.net/img/categories_v2/shops/food_liquor_", "suffix": ".png"}, "primary": true}], "photos": {"count": 0, "groups": []}}, "referralId": "e-0-4aec890ff964a52066c821e3-20"}, {"reasons": {"count": 0, "items": [{"summary": "This spot is popular", "type": "general", "reasonName": "globalInteractionReason"}]}, "venue": {"id": "57beebc8498eafd93c99cb9d", "name": "Haute Coffee", "location": {"lat": 43.675817902127925, "lng": -79.40279309076072, "labeledLatLngs": [{"label": "display", "lat": 43.675817902127925, "lng": -79.40279309076072}], "distance": 416, "postalCode": "M5R", "cc": "CA", "city": "Toronto", "state": "ON", "country": "Canada", "formattedAddress": ["Toronto ON M5R", "Canada"]}, "categories": [{"id": "4bf58dd8d48988d16d941735", "name": "Caf\u00e9", "pluralName": "Caf\u00e9s", "shortName": "Caf\u00e9", "icon": {"prefix": "https://ss3.4sqi.net/img/categories_v2/food/cafe_", "suffix": ".png"}, "primary": true}], "photos": {"count": 0, "groups": []}}, "referralId": "e-0-57beebc8498eafd93c99cb9d-21"}, {"reasons": {"count": 0, "items": [{"summary": "This spot is popular", "type": "general", "reasonName": "globalInteractionReason"}]}, "venue": {"id": "5511b9cf498e9a56814845e1", "name": "Flor de Sal", "location": {"address": "501 Davenport Road", "crossStreet": "Madison Street", "lat": 43.67775739485431, "lng": -79.40717634503991, "labeledLatLngs": [{"label": "display", "lat": 43.67775739485431, "lng": -79.40717634503991}], "distance": 574, "postalCode": "M4V 1B8", "cc": "CA", "city": "Toronto", "state": "ON", "country": "Canada", "formattedAddress": ["501 Davenport Road (Madison Street)", "Toronto ON M4V 1B8", "Canada"]}, "categories": [{"id": "52e81612bcbc57f1066b79f9", "name": "Modern European Restaurant", "pluralName": "Modern European Restaurants", "shortName": "Modern European", "icon": {"prefix": "https://ss3.4sqi.net/img/categories_v2/food/default_", "suffix": ".png"}, "primary": true}], "photos": {"count": 0, "groups": []}}, "referralId": "e-0-5511b9cf498e9a56814845e1-22"}, {"reasons": {"count": 0, "items": [{"summary": "This spot is popular", "type": "general", "reasonName": "globalInteractionReason"}]}, "venue": {"id": "568c18c1498e7212bfaf9462", "name": "Subway\u00ae Restaurants", "location": {"address": "268 Dupont Street", "crossStreet": "at Spadina Ave", "lat": 43.675070588962015, "lng": -79.40687736441805, "labeledLatLngs": [{"label": "display", "lat": 43.675070588962015, "lng": -79.40687736441805}], "distance": 279, "postalCode": "M5R 1V7", "cc": "CA", "city": "Toronto", "state": "ON", "country": "Canada", "formattedAddress": ["268 Dupont Street (at Spadina Ave)", "Toronto ON M5R 1V7", "Canada"]}, "categories": [{"id": "4bf58dd8d48988d1c5941735", "name": "Sandwich Place", "pluralName": "Sandwich Places", "shortName": "Sandwiches", "icon": {"prefix": "https://ss3.4sqi.net/img/categories_v2/food/deli_", "suffix": ".png"}, "primary": true}], "photos": {"count": 0, "groups": []}}, "referralId": "e-0-568c18c1498e7212bfaf9462-23"}, {"reasons": {"count": 0, "items": [{"summary": "This spot is popular", "type": "general", "reasonName": "globalInteractionReason"}]}, "venue": {"id": "5b7bb75886f4cc003499f6e9", "name": "Shoppers Drug Mart", "location": {"address": "292 Dupont St", "lat": 43.674959, "lng": -79.407986, "labeledLatLngs": [{"label": "display", "lat": 43.674959, "lng": -79.407986}], "distance": 311, "postalCode": "M5R 1V9", "cc": "CA", "city": "Toronto", "state": "ON", "country": "Canada", "formattedAddress": ["292 Dupont St", "Toronto ON M5R 1V9", "Canada"]}, "categories": [{"id": "4bf58dd8d48988d10f951735", "name": "Pharmacy", "pluralName": "Pharmacies", "shortName": "Pharmacy", "icon": {"prefix": "https://ss3.4sqi.net/img/categories_v2/shops/pharmacy_", "suffix": ".png"}, "primary": true}], "photos": {"count": 0, "groups": []}}, "referralId": "e-0-5b7bb75886f4cc003499f6e9-24"}, {"reasons": {"count": 0, "items": [{"summary": "This spot is popular", "type": "general", "reasonName": "globalInteractionReason"}]}, "venue": {"id": "4b4b580ef964a520319826e3", "name": "Martino's Pizza", "location": {"address": "178 Dupont St", "crossStreet": "at St George St", "lat": 43.67555992434719, "lng": -79.40355789179394, "labeledLatLngs": [{"label": "display", "lat": 43.67555992434719, "lng": -79.40355789179394}], "distance": 360, "cc": "CA", "city": "Toronto", "state": "ON", "country": "Canada", "formattedAddress": ["178 Dupont St (at St George St)", "Toronto ON", "Canada"]}, "categories": [{"id": "4bf58dd8d48988d1ca941735", "name": "Pizza Place", "pluralName": "Pizza Places", "shortName": "Pizza", "icon": {"prefix": "https://ss3.4sqi.net/img/categories_v2/food/pizza_", "suffix": ".png"}, "primary": true}], "photos": {"count": 0, "groups": []}}, "referralId": "e-0-4b4b580ef964a520319826e3-25"}, {"reasons": {"count": 0, "items": [{"summary": "This spot is popular", "type": "general", "reasonName": "globalInteractionReason"}]}, "venue": {"id": "4afdef74f964a520312c22e3", "name": "Beauty Boutique by Shoppers Drug Mart", "location": {"address": "292 Dupont St", "crossStreet": "Spadina", "lat": 43.674959, "lng": -79.407986, "labeledLatLngs": [{"label": "display", "lat": 43.674959, "lng": -79.407986}], "distance": 311, "postalCode": "M5R 1V9", "cc": "CA", "city": "Toronto", "state": "ON", "country": "Canada", "formattedAddress": ["292 Dupont St (Spadina)", "Toronto ON M5R 1V9", "Canada"]}, "categories": [{"id": "4bf58dd8d48988d10c951735", "name": "Cosmetics Shop", "pluralName": "Cosmetics Shops", "shortName": "Cosmetics", "icon": {"prefix": "https://ss3.4sqi.net/img/categories_v2/shops/beauty_cosmetic_", "suffix": ".png"}, "primary": true}], "photos": {"count": 0, "groups": []}}, "referralId": "e-0-4afdef74f964a520312c22e3-26"}, {"reasons": {"count": 0, "items": [{"summary": "This spot is popular", "type": "general", "reasonName": "globalInteractionReason"}]}, "venue": {"id": "4b0fd74af964a5205d6523e3", "name": "Tim Hortons", "location": {"address": "150 Dupont St", "crossStreet": "at Davenport (in Esso)", "lat": 43.67579963362535, "lng": -79.40353178302757, "labeledLatLngs": [{"label": "display", "lat": 43.67579963362535, "lng": -79.40353178302757}], "distance": 384, "postalCode": "M5R 2E6", "cc": "CA", "city": "Toronto", "state": "ON", "country": "Canada", "formattedAddress": ["150 Dupont St (at Davenport (in Esso))", "Toronto ON M5R 2E6", "Canada"]}, "categories": [{"id": "4bf58dd8d48988d1e0931735", "name": "Coffee Shop", "pluralName": "Coffee Shops", "shortName": "Coffee Shop", "icon": {"prefix": "https://ss3.4sqi.net/img/categories_v2/food/coffeeshop_", "suffix": ".png"}, "primary": true}], "photos": {"count": 0, "groups": []}}, "referralId": "e-0-4b0fd74af964a5205d6523e3-27"}, {"reasons": {"count": 0, "items": [{"summary": "This spot is popular", "type": "general", "reasonName": "globalInteractionReason"}]}, "venue": {"id": "50521a43e4b0c9dff10489d4", "name": "Subway\u00ae Restaurants", "location": {"address": "160 Kendal Ave, St James Campus, Unit E144", "crossStreet": "at Bridgman Ave (GBC Casloma Campus)", "lat": 43.675650480511266, "lng": -79.41025463558196, "labeledLatLngs": [{"label": "display", "lat": 43.675650480511266, "lng": -79.41025463558196}], "distance": 492, "postalCode": "M5R 1M3", "cc": "CA", "city": "Toronto", "state": "ON", "country": "Canada", "formattedAddress": ["160 Kendal Ave, St James Campus, Unit E144 (at Bridgman Ave (GBC Casloma Campus))", "Toronto ON M5R 1M3", "Canada"]}, "categories": [{"id": "4bf58dd8d48988d1c5941735", "name": "Sandwich Place", "pluralName": "Sandwich Places", "shortName": "Sandwiches", "icon": {"prefix": "https://ss3.4sqi.net/img/categories_v2/food/deli_", "suffix": ".png"}, "primary": true}], "photos": {"count": 0, "groups": []}}, "referralId": "e-0-50521a43e4b0c9dff10489d4-28"}, {"reasons": {"count": 0, "items": [{"summary": "This spot is popular", "type": "general", "reasonName": "globalInteractionReason"}]}, "venue": {"id": "4bdae67b2a3a0f473771acb6", "name": "Subway", "location": {"address": "306 Davenport Rd.", "crossStreet": "Bedford Rd.", "lat": 43.674405254653074, "lng": -79.39986257426862, "labeledLatLngs": [{"label": "display", "lat": 43.674405254653074, "lng": -79.39986257426862}], "distance": 504, "cc": "CA", "city": "Toronto", "state": "ON", "country": "Canada", "formattedAddress": ["306 Davenport Rd. (Bedford Rd.)", "Toronto ON", "Canada"]}, "categories": [{"id": "4bf58dd8d48988d1c5941735", "name": "Sandwich Place", "pluralName": "Sandwich Places", "shortName": "Sandwiches", "icon": {"prefix": "https://ss3.4sqi.net/img/categories_v2/food/deli_", "suffix": ".png"}, "primary": true}], "photos": {"count": 0, "groups": []}}, "referralId": "e-0-4bdae67b2a3a0f473771acb6-29"}, {"reasons": {"count": 0, "items": [{"summary": "This spot is popular", "type": "general", "reasonName": "globalInteractionReason"}]}, "venue": {"id": "4fbe842fe4b0c37916db5adb", "name": "Salt & Pepper Catering Co", "location": {"address": "Davenport", "crossStreet": "Bedford", "lat": 43.67448968742273, "lng": -79.39938248037573, "labeledLatLngs": [{"label": "display", "lat": 43.67448968742273, "lng": -79.39938248037573}], "distance": 544, "cc": "CA", "city": "Toronto", "state": "ON", "country": "Canada", "formattedAddress": ["Davenport (Bedford)", "Toronto ON", "Canada"]}, "categories": [{"id": "4bf58dd8d48988d16d941735", "name": "Caf\u00e9", "pluralName": "Caf\u00e9s", "shortName": "Caf\u00e9", "icon": {"prefix": "https://ss3.4sqi.net/img/categories_v2/food/cafe_", "suffix": ".png"}, "primary": true}], "photos": {"count": 0, "groups": []}}, "referralId": "e-0-4fbe842fe4b0c37916db5adb-30"}, {"reasons": {"count": 0, "items": [{"summary": "This spot is popular", "type": "general", "reasonName": "globalInteractionReason"}]}, "venue": {"id": "4bc21bb5b492d13a9ff8a660", "name": "St Alban's Square", "location": {"address": "90 Howland Ave", "crossStreet": "at Barton Ave", "lat": 43.668622674904455, "lng": -79.41021777537664, "labeledLatLngs": [{"label": "display", "lat": 43.668622674904455, "lng": -79.41021777537664}], "distance": 583, "postalCode": "M5R 3B2", "cc": "CA", "city": "Toronto", "state": "ON", "country": "Canada", "formattedAddress": ["90 Howland Ave (at Barton Ave)", "Toronto ON M5R 3B2", "Canada"]}, "categories": [{"id": "4bf58dd8d48988d163941735", "name": "Park", "pluralName": "Parks", "shortName": "Park", "icon": {"prefix": "https://ss3.4sqi.net/img/categories_v2/parks_outdoors/park_", "suffix": ".png"}, "primary": true}], "photos": {"count": 0, "groups": []}}, "referralId": "e-0-4bc21bb5b492d13a9ff8a660-31"}, {"reasons": {"count": 0, "items": [{"summary": "This spot is popular", "type": "general", "reasonName": "globalInteractionReason"}]}, "venue": {"id": "4c2e1ce1e760c9b620ff4549", "name": "Blinds To Go", "location": {"address": "267 Davenport Rd", "lat": 43.674163, "lng": -79.398606, "labeledLatLngs": [{"label": "display", "lat": 43.674163, "lng": -79.398606}], "distance": 591, "postalCode": "M5R 1J9", "cc": "CA", "city": "Toronto", "state": "ON", "country": "Canada", "formattedAddress": ["267 Davenport Rd", "Toronto ON M5R 1J9", "Canada"]}, "categories": [{"id": "4bf58dd8d48988d1f8941735", "name": "Furniture / Home Store", "pluralName": "Furniture / Home Stores", "shortName": "Furniture / Home", "icon": {"prefix": "https://ss3.4sqi.net/img/categories_v2/shops/furniture_", "suffix": ".png"}, "primary": true}], "photos": {"count": 0, "groups": []}}, "referralId": "e-0-4c2e1ce1e760c9b620ff4549-32"}]}]}}