{"meta": {"code": 200, "requestId": "5e197390923935001bec9126"}, "response": {"suggestedFilters": {"header": "Tap to show:", "filters": [{"name": "Open now", "key": "openNow"}]}, "headerLocation": "Kensington", "headerFullLocation": "Kensington, Toronto", "headerLocationGranularity": "neighborhood", "totalResults": 97, "suggestedBounds": {"ne": {"lat": 43.657948704743006, "lng": -79.39350618301755}, "sw": {"lat": 43.648462695256995, "lng": -79.40659241698246}}, "groups": [{"type": "Recommended Places", "name": "recommended", "items": [{"reasons": {"count": 0, "items": [{"summary": "This spot is popular", "type": "general", "reasonName": "globalInteractionReason"}]}, "venue": {"id": "4b116957f964a520087c23e3", "name": "Kid Icarus", "location": {"address": "205 Augusta Ave.", "crossStreet": "Denison Square", "lat": 43.653933260442265, "lng": -79.40171859012935, "labeledLatLngs": [{"label": "display", "lat": 43.653933260442265, "lng": -79.40171859012935}], "distance": 156, "postalCode": "M5T 2L4", "cc": "CA", "city": "Toronto", "state": "ON", "country": "Canada", "formattedAddress": ["205 Augusta Ave. (Denison Square)", "Toronto ON M5T 2L4", "Canada"]}, "categories": [{"id": "4bf58dd8d48988d127951735", "name": "Arts & Crafts Store", "pluralName": "Arts & Crafts Stores", "shortName": "Arts & Crafts", "icon": {"prefix": "https://ss3.4sqi.net/img/categories_v2/shops/artstore_", "suffix": ".png"}, "primary": true}], "photos": {"count": 0, "groups": []}, "venuePage": {"id": "55521198"}}, "referralId": "e-0-4b116957f964a520087c23e3-0"}, {"reasons": {"count": 0, "items": [{"summary": "This spot is popular", "type": "general", "reasonName": "globalInteractionReason"}]}, "venue": {"id": "50427a03e4b08d9f5931f593", "name": "Seven Lives - Tacos y Mariscos", "location": {"address": "69 Kensington Ave", "crossStreet": "Baldwin St", "lat": 43.65441817160925, "lng": -79.40054467846261, "labeledLatLngs": [{"label": "display", "lat": 43.65441817160925, "lng": -79.40054467846261}], "distance": 140, "postalCode": "M5T 2L6", "cc": "CA", "city": "Toronto", "state": "ON", "country": "Canada", "formattedAddress": ["69 Kensington Ave (Baldwin St)", "Toronto ON M5T 2L6", "Canada"]}, "categories": [{"id": "4bf58dd8d48988d1c1941735", "name": "Mexican Restaurant", "pluralName": "Mexican Restaurants", "shortName": "Mexican", "icon": {"prefix": "https://ss3.4sqi.net/img/categories_v2/food/mexican_", "suffix": ".png"}, "primary": true}], "photos": {"count": 0, "groups": []}, "venuePage": {"id": "36738371"}}, "referralId": "e-0-50427a03e4b08d9f5931f593-1"}, {"reasons": {"count": 0, "items": [{"summary": "This spot is popular", "type": "general", "reasonName": "globalInteractionReason"}]}, "venue": {"id": "4adccb27f964a520e02f21e3", "name": "Essence of Life Organics", "location": {"address": "50 Kensington Avenue", "crossStreet": "St. Andrew St.", "lat": 43.65411067840614, "lng": -79.4004308758787, "labeledLatLngs": [{"label": "display", "lat": 43.65411067840614, "lng": -79.4004308758787}], "distance": 105, "postalCode": "M5T 2K1", "cc": "CA", "city": "Toronto", "state": "ON", "country": "Canada", "formattedAddress": ["50 Kensington Avenue (St. Andrew St.)", "Toronto ON M5T 2K1", "Canada"]}, "categories": [{"id": "52f2ab2ebcbc57f1066b8b45", "name": "Organic Grocery", "pluralName": "Organic Groceries", "shortName": "Organic Grocery", "icon": {"prefix": "https://ss3.4sqi.net/img/categories_v2/shops/food_grocery_", "suffix": ".png"}, "primary": true}], "photos": {"count": 0, "groups": []}}, "referralId": "e-0-4adccb27f964a520e02f21e3-2"}, {"reasons": {"count": 0, "items": [{"summary": "This spot is popular", "type": "general", "reasonName": "globalInteractionReason"}]}, "venue": {"id": "4a8d5b48f964a520840f20e3", "name": "The Moonbean Cafe", "location": {"address": "30 St Andrew St", "crossStreet": "at Spadina Ave", "lat": 43.65414662211733, "lng": -79.40018175516231, "labeledLatLngs": [{"label": "display", "lat": 43.65414662211733, "lng": -79.40018175516231}], "distance": 105, "postalCode": "M5T 1K6", "cc": "CA", "city": "Toronto", "state": "ON", "country": "Canada", "formattedAddress": ["30 St Andrew St (at Spadina Ave)", "Toronto ON M5T 1K6", "Canada"]}, "categories": [{"id": "4bf58dd8d48988d16d941735", "name": "Caf\u00e9", "pluralName": "Caf\u00e9s", "shortName": "Caf\u00e9", "icon": {"prefix": "https://ss3.4sqi.net/img/categories_v2/food/cafe_", "suffix": ".png"}, "primary": true}], "photos": {"count": 0, "groups": []}, "venuePage": {"id": "328873289"}}, "referralId": "e-0-4a8d5b48f964a520840f20e3-3"}, {"reasons": {"count": 0, "items": [{"summary": "This spot is popular", "type": "general", "reasonName": "globalInteractionReason"}]}, "venue": {"id": "51438b33e4b0a40e33fe5e77", "name": "Jimmy's Coffee", "location": {"address": "191 Baldwin St", "crossStreet": "Kensington Market", "lat": 43.65449315540114, "lng": -79.40131090393002, "labeledLatLngs": [{"label": "display", "lat": 43.65449315540114, "lng": -79.40131090393002}], "distance": 175, "cc": "CA", "neighborhood": "Kensington Market", "city": "Toronto", "state": "ON", "country": "Canada", "formattedAddress": ["191 Baldwin St (Kensington Market)", "Toronto ON", "Canada"]}, "categories": [{"id": "4bf58dd8d48988d16d941735", "name": "Caf\u00e9", "pluralName": "Caf\u00e9s", "shortName": "Caf\u00e9", "icon": {"prefix": "https://ss3.4sqi.net/img/categories_v2/food/cafe_", "suffix": ".png"}, "primary": true}], "photos": {"count": 0, "groups": []}}, "referralId": "e-0-51438b33e4b0a40e33fe5e77-4"}, {"reasons": {"count": 0, "items": [{"summary": "This spot is popular", "type": "general", "reasonName": "globalInteractionReason"}]}, "venue": {"id": "535163cf498ea10a3b9582b5", "name": "Blackbird Baking Co", "location": {"address": "172 Baldwin Street", "lat": 43.65476385976386, "lng": -79.40056588367806, "labeledLatLngs": [{"label": "display", "lat": 43.65476385976386, "lng": -79.40056588367806}], "distance": 178, "cc": "CA", "city": "Toronto", "state": "ON", "country": "Canada", "formattedAddress": ["172 Baldwin Street", "Toronto ON", "Canada"]}, "categories": [{"id": "4bf58dd8d48988d16a941735", "name": "Bakery", "pluralName": "Bakeries", "shortName": "Bakery", "icon": {"prefix": "https://ss3.4sqi.net/img/categories_v2/food/bakery_", "suffix": ".png"}, "primary": true}], "photos": {"count": 0, "groups": []}, "venuePage": {"id": "143838823"}}, "referralId": "e-0-535163cf498ea10a3b9582b5-5"}, {"reasons": {"count": 0, "items": [{"summary": "This spot is popular", "type": "general", "reasonName": "globalInteractionReason"}]}, "venue": {"id": "51a261ca498ea3d3eaf40876", "name": "FIKA Cafe", "location": {"address": "28 Kensington Ave", "lat": 43.653560276835684, "lng": -79.40040209660836, "labeledLatLngs": [{"label": "display", "lat": 43.653560276835684, "lng": -79.40040209660836}], "distance": 48, "postalCode": "M5T 2J9", "cc": "CA", "city": "Toronto", "state": "ON", "country": "Canada", "formattedAddress": ["28 Kensington Ave", "Toronto ON M5T 2J9", "Canada"]}, "categories": [{"id": "4bf58dd8d48988d16d941735", "name": "Caf\u00e9", "pluralName": "Caf\u00e9s", "shortName": "Caf\u00e9", "icon": {"prefix": "https://ss3.4sqi.net/img/categories_v2/food/cafe_", "suffix": ".png"}, "primary": true}], "photos": {"count": 0, "groups": []}, "venuePage": {"id": "57333954"}}, "referralId": "e-0-51a261ca498ea3d3eaf40876-6"}, {"reasons": {"count": 0, "items": [{"summary": "This spot is popular", "type": "general", "reasonName": "globalInteractionReason"}]}, "venue": {"id": "5830bf495d6ec631f622902f", "name": "Little Pebbles", "location": {"address": "160 Baldwin Street", "crossStreet": "Spadina", "lat": 43.654883, "lng": -79.400264, "labeledLatLngs": [{"label": "display", "lat": 43.654883, "lng": -79.400264}], "distance": 187, "postalCode": "M5T 1L8", "cc": "CA", "city": "Toronto", "state": "ON", "country": "Canada", "formattedAddress": ["160 Baldwin Street (Spadina)", "Toronto ON M5T 1L8", "Canada"]}, "categories": [{"id": "4bf58dd8d48988d1e0931735", "name": "Coffee Shop", "pluralName": "Coffee Shops", "shortName": "Coffee Shop", "icon": {"prefix": "https://ss3.4sqi.net/img/categories_v2/food/coffeeshop_", "suffix": ".png"}, "primary": true}], "photos": {"count": 0, "groups": []}}, "referralId": "e-0-5830bf495d6ec631f622902f-7"}, {"reasons": {"count": 0, "items": [{"summary": "This spot is popular", "type": "general", "reasonName": "globalInteractionReason"}]}, "venue": {"id": "4e9a55b68231878c156f04bf", "name": "Cold Tea", "location": {"address": "58 Kensington Ave", "crossStreet": "at St. Andrew", "lat": 43.65419313416817, "lng": -79.40107491108753, "labeledLatLngs": [{"label": "display", "lat": 43.65419313416817, "lng": -79.40107491108753}], "distance": 137, "cc": "CA", "city": "Toronto", "state": "ON", "country": "Canada", "formattedAddress": ["58 Kensington Ave (at St. Andrew)", "Toronto ON", "Canada"]}, "categories": [{"id": "4bf58dd8d48988d116941735", "name": "Bar", "pluralName": "Bars", "shortName": "Bar", "icon": {"prefix": "https://ss3.4sqi.net/img/categories_v2/nightlife/pub_", "suffix": ".png"}, "primary": true}], "photos": {"count": 0, "groups": []}}, "referralId": "e-0-4e9a55b68231878c156f04bf-8"}, {"reasons": {"count": 0, "items": [{"summary": "This spot is popular", "type": "general", "reasonName": "globalInteractionReason"}]}, "venue": {"id": "589bc46a739d8546efb5f2fd", "name": "Grey Gardens", "location": {"address": "199 Augusta", "lat": 43.653479, "lng": -79.401427, "labeledLatLngs": [{"label": "display", "lat": 43.653479, "lng": -79.401427}], "distance": 115, "postalCode": "M5T 2L4", "cc": "CA", "neighborhood": "Kensington Market", "city": "Toronto", "state": "ON", "country": "Canada", "formattedAddress": ["199 Augusta", "Toronto ON M5T 2L4", "Canada"]}, "categories": [{"id": "4bf58dd8d48988d123941735", "name": "Wine Bar", "pluralName": "Wine Bars", "shortName": "Wine Bar", "icon": {"prefix": "https://ss3.4sqi.net/img/categories_v2/food/winery_", "suffix": ".png"}, "primary": true}], "photos": {"count": 0, "groups": []}}, "referralId": "e-0-589bc46a739d8546efb5f2fd-9"}, {"reasons": {"count": 0, "items": [{"summary": "This spot is popular", "type": "general", "reasonName": "globalInteractionReason"}]}, "venue": {"id": "573cf7fb498ea0619b6c64dd", "name": "El Rey", "location": {"address": "2A Kensington Ave", "crossStreet": "at Dundas Ave W", "lat": 43.652764, "lng": -79.400048, "labeledLatLngs": [{"label": "display", "lat": 43.652764, "lng": -79.400048}], "distance": 49, "postalCode": "M5T 2J7", "cc": "CA", "city": "Toronto", "state": "ON", "country": "Canada", "formattedAddress": ["2A Kensington Ave (at Dundas Ave W)", "Toronto ON M5T 2J7", "Canada"]}, "categories": [{"id": "4bf58dd8d48988d11e941735", "name": "Cocktail Bar", "pluralName": "Cocktail Bars", "shortName": "Cocktail", "icon": {"prefix": "https://ss3.4sqi.net/img/categories_v2/nightlife/cocktails_", "suffix": ".png"}, "primary": true}], "photos": {"count": 0, "groups": []}}, "referralId": "e-0-573cf7fb498ea0619b6c64dd-10"}, {"reasons": {"count": 0, "items": [{"summary": "This spot is popular", "type": "general", "reasonName": "globalInteractionReason"}]}, "venue": {"id": "58a7c100076be13f60d1dff5", "name": "Saigon Lotus Restaurant", "location": {"address": "6 Saint Andrew St", "crossStreet": "Spadina Ave", "lat": 43.654310800343325, "lng": -79.39922450076845, "labeledLatLngs": [{"label": "display", "lat": 43.654310800343325, "lng": -79.39922450076845}], "distance": 139, "postalCode": "M5T 1K6", "cc": "CA", "neighborhood": "Kensington Market", "city": "Toronto", "state": "ON", "country": "Canada", "formattedAddress": ["6 Saint Andrew St (Spadina Ave)", "Toronto ON M5T 1K6", "Canada"]}, "categories": [{"id": "4bf58dd8d48988d14a941735", "name": "Vietnamese Restaurant", "pluralName": "Vietnamese Restaurants", "shortName": "Vietnamese", "icon": {"prefix": "https://ss3.4sqi.net/img/categories_v2/food/vietnamese_", "suffix": ".png"}, "primary": true}], "photos": {"count": 0, "groups": []}}, "referralId": "e-0-58a7c100076be13f60d1dff5-11"}, {"reasons": {"count": 0, "items": [{"summary": "This spot is popular", "type": "general", "reasonName": "globalInteractionReason"}]}, "venue": {"id": "4af45a8af964a52097f121e3", "name": "Banh Mi Nguyen Huong", "location": {"address": "322 Spadina Ave.", "crossStreet": "at Dundas St E", "lat": 43.653628006211044, "lng": -79.3983759881993, "labeledLatLngs": [{"label": "display", "lat": 43.653628006211044, "lng": -79.3983759881993}], "distance": 142, "postalCode": "M5T 2G2", "cc": "CA", "city": "Toronto", "state": "ON", "country": "Canada", "formattedAddress": ["322 Spadina Ave. (at Dundas St E)", "Toronto ON M5T 2G2", "Canada"]}, "categories": [{"id": "4bf58dd8d48988d14a941735", "name": "Vietnamese Restaurant", "pluralName": "Vietnamese Restaurants", "shortName": "Vietnamese", "icon": {"prefix": "https://ss3.4sqi.net/img/categories_v2/food/vietnamese_", "suffix": ".png"}, "primary": true}], "photos": {"count": 0, "groups": []}}, "referralId": "e-0-4af45a8af964a52097f121e3-12"}, {"reasons": {"count": 0, "items": [{"summary": "This spot is popular", "type": "general", "reasonName": "globalInteractionReason"}]}, "venue": {"id": "56d885cbcd105695600464d1", "name": "Torteria San Cosme", "location": {"address": "181 Baldwin St", "crossStreet": "at Kensington Ave", "lat": 43.65470199390117, "lng": -79.40064636669985, "labeledLatLngs": [{"label": "display", "lat": 43.65470199390117, "lng": -79.40064636669985}], "distance": 173, "postalCode": "M5T 1L9", "cc": "CA", "neighborhood": "Kensington Market", "city": "Toronto", "state": "ON", "country": "Canada", "formattedAddress": ["181 Baldwin St (at Kensington Ave)", "Toronto ON M5T 1L9", "Canada"]}, "categories": [{"id": "4bf58dd8d48988d1c1941735", "name": "Mexican Restaurant", "pluralName": "Mexican Restaurants", "shortName": "Mexican", "icon": {"prefix": "https://ss3.4sqi.net/img/categories_v2/food/mexican_", "suffix": ".png"}, "primary": true}], "photos": {"count": 0, "groups": []}}, "referralId": "e-0-56d885cbcd105695600464d1-13"}, {"reasons": {"count": 0, "items": [{"summary": "This spot is popular", "type": "general", "reasonName": "globalInteractionReason"}]}, "venue": {"id": "4aedf32af964a52091d021e3", "name": "Golden Patty", "location": {"address": "187 Baldwin St", "crossStreet": "at Kensington", "lat": 43.6546590586465, "lng": -79.4011788108254, "labeledLatLngs": [{"label": "display", "lat": 43.6546590586465, "lng": -79.4011788108254}], "distance": 185, "postalCode": "M5T 1M1", "cc": "CA", "city": "Toronto", "state": "ON", "country": "Canada", "formattedAddress": ["187 Baldwin St (at Kensington)", "Toronto ON M5T 1M1", "Canada"]}, "categories": [{"id": "4bf58dd8d48988d144941735", "name": "Caribbean Restaurant", "pluralName": "Caribbean Restaurants", "shortName": "Caribbean", "icon": {"prefix": "https://ss3.4sqi.net/img/categories_v2/food/caribbean_", "suffix": ".png"}, "primary": true}], "photos": {"count": 0, "groups": []}}, "referralId": "e-0-4aedf32af964a52091d021e3-14"}, {"reasons": {"count": 0, "items": [{"summary": "This spot is popular", "type": "general", "reasonName": "globalInteractionReason"}]}, "venue": {"id": "4b23c951f964a520ad5924e3", "name": "Kensington Food Market", "location": {"address": "34 St. Andrew St.", "crossStreet": "at Kensington ave.", "lat": 43.654058473740236, "lng": -79.40037565547179, "labeledLatLngs": [{"label": "display", "lat": 43.654058473740236, "lng": -79.40037565547179}], "distance": 98, "postalCode": "M5T 2K2", "cc": "CA", "city": "Toronto", "state": "ON", "country": "Canada", "formattedAddress": ["34 St. Andrew St. (at Kensington ave.)", "Toronto ON M5T 2K2", "Canada"]}, "categories": [{"id": "4bf58dd8d48988d1fa941735", "name": "Farmers Market", "pluralName": "Farmers Markets", "shortName": "Farmer's Market", "icon": {"prefix": "https://ss3.4sqi.net/img/categories_v2/shops/food_farmersmarket_", "suffix": ".png"}, "primary": true}], "photos": {"count": 0, "groups": []}}, "referralId": "e-0-4b23c951f964a520ad5924e3-15"}, {"reasons": {"count": 0, "items": [{"summary": "This spot is popular", "type": "general", "reasonName": "globalInteractionReason"}]}, "venue": {"id": "4b81532ff964a520859f30e3", "name": "Global Cheese", "location": {"address": "76 Kensington Ave", "crossStreet": "at Baldwin St", "lat": 43.65462257332082, "lng": -79.4006057130889, "labeledLatLngs": [{"label": "display", "lat": 43.65462257332082, "lng": -79.4006057130889}], "distance": 163, "postalCode": "M5T 2K1", "cc": "CA", "neighborhood": "Kensington Market", "city": "Toronto", "state": "ON", "country": "Canada", "formattedAddress": ["76 Kensington Ave (at Baldwin St)", "Toronto ON M5T 2K1", "Canada"]}, "categories": [{"id": "4bf58dd8d48988d11e951735", "name": "Cheese Shop", "pluralName": "Cheese Shops", "shortName": "Cheese Shop", "icon": {"prefix": "https://ss3.4sqi.net/img/categories_v2/shops/food_cheese_", "suffix": ".png"}, "primary": true}], "photos": {"count": 0, "groups": []}}, "referralId": "e-0-4b81532ff964a520859f30e3-16"}, {"reasons": {"count": 0, "items": [{"summary": "This spot is popular", "type": "general", "reasonName": "globalInteractionReason"}]}, "venue": {"id": "51faeaf1498e2f68d53f09d1", "name": "Millie Creperie", "location": {"address": "161 Baldwin St.", "lat": 43.654993860126034, "lng": -79.3998292732052, "labeledLatLngs": [{"label": "display", "lat": 43.654993860126034, "lng": -79.3998292732052}], "distance": 199, "cc": "CA", "city": "Toronto", "state": "ON", "country": "Canada", "formattedAddress": ["161 Baldwin St.", "Toronto ON", "Canada"]}, "categories": [{"id": "4bf58dd8d48988d1d0941735", "name": "Dessert Shop", "pluralName": "Dessert Shops", "shortName": "Desserts", "icon": {"prefix": "https://ss3.4sqi.net/img/categories_v2/food/dessert_", "suffix": ".png"}, "primary": true}], "photos": {"count": 0, "groups": []}}, "referralId": "e-0-51faeaf1498e2f68d53f09d1-17"}, {"reasons": {"count": 0, "items": [{"summary": "This spot is popular", "type": "general", "reasonName": "globalInteractionReason"}]}, "venue": {"id": "4b798147f964a52055fd2ee3", "name": "Carlos' House of Spice", "location": {"address": "190 Augusta Ave.", "crossStreet": "at Denison Sq.", "lat": 43.654188111731344, "lng": -79.40190419262933, "labeledLatLngs": [{"label": "display", "lat": 43.654188111731344, "lng": -79.40190419262933}], "distance": 185, "postalCode": "M5T 2L6", "cc": "CA", "city": "Toronto", "state": "ON", "country": "Canada", "formattedAddress": ["190 Augusta Ave. (at Denison Sq.)", "Toronto ON M5T 2L6", "Canada"]}, "categories": [{"id": "4bf58dd8d48988d1f5941735", "name": "Gourmet Shop", "pluralName": "Gourmet Shops", "shortName": "Gourmet", "icon": {"prefix": "https://ss3.4sqi.net/img/categories_v2/shops/food_gourmet_", "suffix": ".png"}, "primary": true}], "photos": {"count": 0, "groups": []}}, "referralId": "e-0-4b798147f964a52055fd2ee3-18"}, {"reasons": {"count": 0, "items": [{"summary": "This spot is popular", "type": "general", "reasonName": "globalInteractionReason"}]}, "venue": {"id": "578fb4ce498ed3b80015a859", "name": "Wafels and More", "location": {"address": "237 Augusta Ave", "crossStreet": "Baldwin St", "lat": 43.65465108367296, "lng": -79.40197747917576, "labeledLatLngs": [{"label": "display", "lat": 43.65465108367296, "lng": -79.40197747917576}], "distance": 223, "postalCode": "M5T 2L8", "cc": "CA", "neighborhood": "Kensington Market", "city": "Toronto", "state": "ON", "country": "Canada", "formattedAddress": ["237 Augusta Ave (Baldwin St)", "Toronto ON M5T 2L8", "Canada"]}, "categories": [{"id": "52e81612bcbc57f1066b7a02", "name": "Belgian Restaurant", "pluralName": "Belgian Restaurants", "shortName": "Belgian", "icon": {"prefix": "https://ss3.4sqi.net/img/categories_v2/food/default_", "suffix": ".png"}, "primary": true}], "photos": {"count": 0, "groups": []}}, "referralId": "e-0-578fb4ce498ed3b80015a859-19"}, {"reasons": {"count": 0, "items": [{"summary": "This spot is popular", "type": "general", "reasonName": "globalInteractionReason"}]}, "venue": {"id": "4b804b28f964a5200f6530e3", "name": "Perola Supermarket", "location": {"address": "247 Augusta Ave", "crossStreet": "at Baldwin St", "lat": 43.65489448176307, "lng": -79.40214642462199, "labeledLatLngs": [{"label": "display", "lat": 43.65489448176307, "lng": -79.40214642462199}], "distance": 252, "postalCode": "M5T 2L8", "cc": "CA", "city": "Toronto", "state": "ON", "country": "Canada", "formattedAddress": ["247 Augusta Ave (at Baldwin St)", "Toronto ON M5T 2L8", "Canada"]}, "categories": [{"id": "4bf58dd8d48988d118951735", "name": "Grocery Store", "pluralName": "Grocery Stores", "shortName": "Grocery Store", "icon": {"prefix": "https://ss3.4sqi.net/img/categories_v2/shops/food_grocery_", "suffix": ".png"}, "primary": true}], "photos": {"count": 0, "groups": []}, "venuePage": {"id": "67606678"}}, "referralId": "e-0-4b804b28f964a5200f6530e3-20"}, {"reasons": {"count": 0, "items": [{"summary": "This spot is popular", "type": "general", "reasonName": "globalInteractionReason"}]}, "venue": {"id": "5079aa85e4b065f1dd64ce3f", "name": "Hooked", "location": {"address": "206 Baldwin Street", "lat": 43.6545853262614, "lng": -79.40174629702895, "labeledLatLngs": [{"label": "display", "lat": 43.6545853262614, "lng": -79.40174629702895}], "distance": 205, "cc": "CA", "city": "Toronto", "state": "ON", "country": "Canada", "formattedAddress": ["206 Baldwin Street", "Toronto ON", "Canada"]}, "categories": [{"id": "4bf58dd8d48988d10e951735", "name": "Fish Market", "pluralName": "Fish Markets", "shortName": "Fish Market", "icon": {"prefix": "https://ss3.4sqi.net/img/categories_v2/shops/food_fishmarket_", "suffix": ".png"}, "primary": true}], "photos": {"count": 0, "groups": []}}, "referralId": "e-0-5079aa85e4b065f1dd64ce3f-21"}, {"reasons": {"count": 0, "items": [{"summary": "This spot is popular", "type": "general", "reasonName": "globalInteractionReason"}]}, "venue": {"id": "593306a5123a1963f5f94453", "name": "Fudao Noodle House", "location": {"address": "356 Spadina Ave", "lat": 43.654645274716124, "lng": -79.39887355126278, "labeledLatLngs": [{"label": "display", "lat": 43.654645274716124, "lng": -79.39887355126278}], "distance": 186, "postalCode": "M5T 2G4", "cc": "CA", "city": "Toronto", "state": "ON", "country": "Canada", "formattedAddress": ["356 Spadina Ave", "Toronto ON M5T 2G4", "Canada"]}, "categories": [{"id": "4bf58dd8d48988d1d1941735", "name": "Noodle House", "pluralName": "Noodle Houses", "shortName": "Noodles", "icon": {"prefix": "https://ss3.4sqi.net/img/categories_v2/food/ramen_", "suffix": ".png"}, "primary": true}], "photos": {"count": 0, "groups": []}}, "referralId": "e-0-593306a5123a1963f5f94453-22"}, {"reasons": {"count": 0, "items": [{"summary": "This spot is popular", "type": "general", "reasonName": "globalInteractionReason"}]}, "venue": {"id": "4aedd989f964a52083cf21e3", "name": "King's Cafe", "location": {"address": "192 Augusta Ave.", "lat": 43.65427040798248, "lng": -79.40189703859198, "labeledLatLngs": [{"label": "display", "lat": 43.65427040798248, "lng": -79.40189703859198}], "distance": 190, "postalCode": "M5t 2l6", "cc": "CA", "city": "Toronto", "state": "ON", "country": "Canada", "formattedAddress": ["192 Augusta Ave.", "Toronto ON M5t 2l6", "Canada"]}, "categories": [{"id": "4bf58dd8d48988d1d3941735", "name": "Vegetarian / Vegan Restaurant", "pluralName": "Vegetarian / Vegan Restaurants", "shortName": "Vegetarian / Vegan", "icon": {"prefix": "https://ss3.4sqi.net/img/categories_v2/food/vegetarian_", "suffix": ".png"}, "primary": true}], "photos": {"count": 0, "groups": []}}, "referralId": "e-0-4aedd989f964a52083cf21e3-23"}, {"reasons": {"count": 0, "items": [{"summary": "This spot is popular", "type": "general", "reasonName": "globalInteractionReason"}]}, "venue": {"id": "587bc580e786b26b0d586aa3", "name": "FILM CAFE", "location": {"address": "230 Augusta Ave", "crossStreet": "Nassau St. & Augusta Ave.", "lat": 43.65510856565147, "lng": -79.40234241534543, "labeledLatLngs": [{"label": "display", "lat": 43.65510856565147, "lng": -79.40234241534543}], "distance": 281, "postalCode": "M5T 2L6", "cc": "CA", "neighborhood": "Kensington Market", "city": "Toronto", "state": "ON", "country": "Canada", "formattedAddress": ["230 Augusta Ave (Nassau St. & Augusta Ave.)", "Toronto ON M5T 2L6", "Canada"]}, "categories": [{"id": "52e81612bcbc57f1066b7a00", "name": "Comfort Food Restaurant", "pluralName": "Comfort Food Restaurants", "shortName": "Comfort Food", "icon": {"prefix": "https://ss3.4sqi.net/img/categories_v2/food/default_", "suffix": ".png"}, "primary": true}], "photos": {"count": 0, "groups": []}, "venuePage": {"id": "463798997"}}, "referralId": "e-0-587bc580e786b26b0d586aa3-24"}, {"reasons": {"count": 0, "items": [{"summary": "This spot is popular", "type": "general", "reasonName": "globalInteractionReason"}]}, "venue": {"id": "5b7d916a270ee7002cccb43b", "name": "Dipped", "location": {"address": "161 Baldwin Street", "lat": 43.654919660516846, "lng": -79.40015425072664, "labeledLatLngs": [{"label": "display", "lat": 43.654919660516846, "lng": -79.40015425072664}], "distance": 190, "postalCode": "M5T 1L8", "cc": "CA", "neighborhood": "Kensington Market", "city": "Toronto", "state": "ON", "country": "Canada", "formattedAddress": ["161 Baldwin Street", "Toronto ON M5T 1L8", "Canada"]}, "categories": [{"id": "4bf58dd8d48988d148941735", "name": "Donut Shop", "pluralName": "Donut Shops", "shortName": "Donuts", "icon": {"prefix": "https://ss3.4sqi.net/img/categories_v2/food/donuts_", "suffix": ".png"}, "primary": true}], "photos": {"count": 0, "groups": []}}, "referralId": "e-0-5b7d916a270ee7002cccb43b-25"}, {"reasons": {"count": 0, "items": [{"summary": "This spot is popular", "type": "general", "reasonName": "globalInteractionReason"}]}, "venue": {"id": "4b119787f964a520188023e3", "name": "Dumpling House", "location": {"address": "328 Spadina Avenue", "crossStreet": "at Glenbaillie Pl", "lat": 43.65386003934455, "lng": -79.3985583639792, "labeledLatLngs": [{"label": "display", "lat": 43.65386003934455, "lng": -79.3985583639792}], "distance": 140, "postalCode": "M5T 2E7", "cc": "CA", "city": "Toronto", "state": "ON", "country": "Canada", "formattedAddress": ["328 Spadina Avenue (at Glenbaillie Pl)", "Toronto ON M5T 2E7", "Canada"]}, "categories": [{"id": "4bf58dd8d48988d108941735", "name": "Dumpling Restaurant", "pluralName": "Dumpling Restaurants", "shortName": "Dumplings", "icon": {"prefix": "https://ss3.4sqi.net/img/categories_v2/food/dumplings_", "suffix": ".png"}, "primary": true}], "photos": {"count": 0, "groups": []}}, "referralId": "e-0-4b119787f964a520188023e3-26"}, {"reasons": {"count": 0, "items": [{"summary": "This spot is popular", "type": "general", "reasonName": "globalInteractionReason"}]}, "venue": {"id": "5ac0e1859ef8ef117659c8e3", "name": "Hanabusa Cafe", "location": {"address": "77 Kensington Ave", "lat": 43.654643265757464, "lng": -79.40062636492314, "labeledLatLngs": [{"label": "display", "lat": 43.654643265757464, "lng": -79.40062636492314}], "distance": 166, "postalCode": "M5T 2K2", "cc": "CA", "neighborhood": "Kensington Market", "city": "Toronto", "state": "ON", "country": "Canada", "formattedAddress": ["77 Kensington Ave", "Toronto ON M5T 2K2", "Canada"]}, "categories": [{"id": "4bf58dd8d48988d16d941735", "name": "Caf\u00e9", "pluralName": "Caf\u00e9s", "shortName": "Caf\u00e9", "icon": {"prefix": "https://ss3.4sqi.net/img/categories_v2/food/cafe_", "suffix": ".png"}, "primary": true}], "photos": {"count": 0, "groups": []}}, "referralId": "e-0-5ac0e1859ef8ef117659c8e3-27"}, {"reasons": {"count": 0, "items": [{"summary": "This spot is popular", "type": "general", "reasonName": "globalInteractionReason"}]}, "venue": {"id": "4bc4dcb874a9a5930177d6f6", "name": "Pancho's Bakery", "location": {"address": "214 Augusta Avenue", "lat": 43.654750233381165, "lng": -79.40210500607643, "labeledLatLngs": [{"label": "display", "lat": 43.654750233381165, "lng": -79.40210500607643}], "distance": 238, "postalCode": "M5T 2L4", "cc": "CA", "neighborhood": "Kensington Market", "city": "Toronto", "state": "ON", "country": "Canada", "formattedAddress": ["214 Augusta Avenue", "Toronto ON M5T 2L4", "Canada"]}, "categories": [{"id": "4bf58dd8d48988d16a941735", "name": "Bakery", "pluralName": "Bakeries", "shortName": "Bakery", "icon": {"prefix": "https://ss3.4sqi.net/img/categories_v2/food/bakery_", "suffix": ".png"}, "primary": true}], "photos": {"count": 0, "groups": []}}, "referralId": "e-0-4bc4dcb874a9a5930177d6f6-28"}, {"reasons": {"count": 0, "items": [{"summary": "This spot is popular", "type": "general", "reasonName": "globalInteractionReason"}]}, "venue": {"id": "531b85a6498e92595cfe68a4", "name": "Meeplemart", "location": {"address": "247 Spadina Ave", "crossStreet": "Dundas St W", "lat": 43.65162799198926, "lng": -79.39741037259144, "labeledLatLngs": [{"label": "display", "lat": 43.65162799198926, "lng": -79.39741037259144}], "distance": 275, "cc": "CA", "city": "Toronto", "state": "ON", "country": "Canada", "formattedAddress": ["247 Spadina Ave (Dundas St W)", "Toronto ON", "Canada"]}, "categories": [{"id": "4bf58dd8d48988d18d941735", "name": "Gaming Cafe", "pluralName": "Gaming Cafes", "shortName": "Gaming Cafe", "icon": {"prefix": "https://ss3.4sqi.net/img/categories_v2/shops/gamingcafe_", "suffix": ".png"}, "primary": true}], "photos": {"count": 0, "groups": []}}, "referralId": "e-0-531b85a6498e92595cfe68a4-29"}, {"reasons": {"count": 0, "items": [{"summary": "This spot is popular", "type": "general", "reasonName": "globalInteractionReason"}]}, "venue": {"id": "54f36c06498e4961553e3e24", "name": "The Dirty Bird Chicken + Waffles", "location": {"address": "79 Kensington Ave", "lat": 43.65461198283731, "lng": -79.40067408795788, "labeledLatLngs": [{"label": "display", "lat": 43.65461198283731, "lng": -79.40067408795788}], "distance": 164, "postalCode": "M5T 2K2", "cc": "CA", "neighborhood": "Kensington Market", "city": "Toronto", "state": "ON", "country": "Canada", "formattedAddress": ["79 Kensington Ave", "Toronto ON M5T 2K2", "Canada"]}, "categories": [{"id": "52e81612bcbc57f1066b7a00", "name": "Comfort Food Restaurant", "pluralName": "Comfort Food Restaurants", "shortName": "Comfort Food", "icon": {"prefix": "https://ss3.4sqi.net/img/categories_v2/food/default_", "suffix": ".png"}, "primary": true}], "photos": {"count": 0, "groups": []}}, "referralId": "e-0-54f36c06498e4961553e3e24-30"}, {"reasons": {"count": 0, "items": [{"summary": "This spot is popular", "type": "general", "reasonName": "globalInteractionReason"}]}, "venue": {"id": "5ba1a63c5d891b002c262874", "name": "Juicy Dumpling", "location": {"address": "280 Spadina Ave.", "lat": 43.652722483150555, "lng": -79.39849796387996, "labeledLatLngs": [{"label": "display", "lat": 43.652722483150555, "lng": -79.39849796387996}], "distance": 136, "postalCode": "M5T 0A1", "cc": "CA", "city": "Toronto", "state": "ON", "country": "Canada", "formattedAddress": ["280 Spadina Ave.", "Toronto ON M5T 0A1", "Canada"]}, "categories": [{"id": "4bf58dd8d48988d108941735", "name": "Dumpling Restaurant", "pluralName": "Dumpling Restaurants", "shortName": "Dumplings", "icon": {"prefix": "https://ss3.4sqi.net/img/categories_v2/food/dumplings_", "suffix": ".png"}, "primary": true}], "photos": {"count": 0, "groups": []}}, "referralId": "e-0-5ba1a63c5d891b002c262874-31"}, {"reasons": {"count": 0, "items": [{"summary": "This spot is popular", "type": "general", "reasonName": "globalInteractionReason"}]}, "venue": {"id": "525fee17498e527d5a4fb5a2", "name": "Our Spot", "location": {"address": "180 Baldwin St.", "crossStreet": "Kensington Avenue", "lat": 43.654720214861456, "lng": -79.40085899084721, "labeledLatLngs": [{"label": "display", "lat": 43.654720214861456, "lng": -79.40085899084721}], "distance": 180, "cc": "CA", "city": "Toronto", "state": "ON", "country": "Canada", "formattedAddress": ["180 Baldwin St. (Kensington Avenue)", "Toronto ON", "Canada"]}, "categories": [{"id": "4bf58dd8d48988d16d941735", "name": "Caf\u00e9", "pluralName": "Caf\u00e9s", "shortName": "Caf\u00e9", "icon": {"prefix": "https://ss3.4sqi.net/img/categories_v2/food/cafe_", "suffix": ".png"}, "primary": true}], "photos": {"count": 0, "groups": []}}, "referralId": "e-0-525fee17498e527d5a4fb5a2-32"}, {"reasons": {"count": 0, "items": [{"summary": "This spot is popular", "type": "general", "reasonName": "globalInteractionReason"}]}, "venue": {"id": "55afaf3b498ef5a31dc891e8", "name": "\u00bd oz. Cocktail Emporium", "location": {"address": "20 Kensington Ave.", "crossStreet": "Fitzroy Terrace", "lat": 43.653371463735276, "lng": -79.40021853715685, "labeledLatLngs": [{"label": "display", "lat": 43.653371463735276, "lng": -79.40021853715685}], "distance": 22, "postalCode": "M5T 2J7", "cc": "CA", "city": "Toronto", "state": "ON", "country": "Canada", "formattedAddress": ["20 Kensington Ave. (Fitzroy Terrace)", "Toronto ON M5T 2J7", "Canada"]}, "categories": [{"id": "4bf58dd8d48988d186941735", "name": "Liquor Store", "pluralName": "Liquor Stores", "shortName": "Liquor Store", "icon": {"prefix": "https://ss3.4sqi.net/img/categories_v2/shops/food_liquor_", "suffix": ".png"}, "primary": true}], "photos": {"count": 0, "groups": []}}, "referralId": "e-0-55afaf3b498ef5a31dc891e8-33"}, {"reasons": {"count": 0, "items": [{"summary": "This spot is popular", "type": "general", "reasonName": "globalInteractionReason"}]}, "venue": {"id": "53c1aca9498e99274aafd2fa", "name": "Toronto Popcorn Co", "location": {"address": "147 Baldwin Street", "crossStreet": "Spadina Ave", "lat": 43.65502850858242, "lng": -79.39950090464713, "labeledLatLngs": [{"label": "display", "lat": 43.65502850858242, "lng": -79.39950090464713}], "distance": 207, "postalCode": "M5T 3K7", "cc": "CA", "city": "Toronto", "state": "ON", "country": "Canada", "formattedAddress": ["147 Baldwin Street (Spadina Ave)", "Toronto ON M5T 3K7", "Canada"]}, "categories": [{"id": "4bf58dd8d48988d1c7941735", "name": "Snack Place", "pluralName": "Snack Places", "shortName": "Snacks", "icon": {"prefix": "https://ss3.4sqi.net/img/categories_v2/food/snacks_", "suffix": ".png"}, "primary": true}], "photos": {"count": 0, "groups": []}}, "referralId": "e-0-53c1aca9498e99274aafd2fa-34"}, {"reasons": {"count": 0, "items": [{"summary": "This spot is popular", "type": "general", "reasonName": "globalInteractionReason"}]}, "venue": {"id": "50833eafe4b061669759d018", "name": "Krudar Muay Thai", "location": {"address": "152 Augusta Ave", "lat": 43.6528148810904, "lng": -79.40136827128343, "labeledLatLngs": [{"label": "display", "lat": 43.6528148810904, "lng": -79.40136827128343}], "distance": 114, "cc": "CA", "city": "Toronto", "state": "ON", "country": "Canada", "formattedAddress": ["152 Augusta Ave", "Toronto ON", "Canada"]}, "categories": [{"id": "4bf58dd8d48988d101941735", "name": "Martial Arts Dojo", "pluralName": "Martial Arts Dojos", "shortName": "Martial Arts", "icon": {"prefix": "https://ss3.4sqi.net/img/categories_v2/shops/gym_martialarts_", "suffix": ".png"}, "primary": true}], "photos": {"count": 0, "groups": []}}, "referralId": "e-0-50833eafe4b061669759d018-35"}, {"reasons": {"count": 0, "items": [{"summary": "This spot is popular", "type": "general", "reasonName": "globalInteractionReason"}]}, "venue": {"id": "4b2d2ab2f964a52007d024e3", "name": "Hibiscus", "location": {"address": "238 Augusta Ave", "crossStreet": "at Nassau St", "lat": 43.655454254557085, "lng": -79.4024390910271, "labeledLatLngs": [{"label": "display", "lat": 43.655454254557085, "lng": -79.4024390910271}], "distance": 315, "postalCode": "M5T 2L7", "cc": "CA", "city": "Toronto", "state": "ON", "country": "Canada", "formattedAddress": ["238 Augusta Ave (at Nassau St)", "Toronto ON M5T 2L7", "Canada"]}, "categories": [{"id": "4bf58dd8d48988d1d3941735", "name": "Vegetarian / Vegan Restaurant", "pluralName": "Vegetarian / Vegan Restaurants", "shortName": "Vegetarian / Vegan", "icon": {"prefix": "https://ss3.4sqi.net/img/categories_v2/food/vegetarian_", "suffix": ".png"}, "primary": true}], "photos": {"count": 0, "groups": []}}, "referralId": "e-0-4b2d2ab2f964a52007d024e3-36"}, {"reasons": {"count": 0, "items": [{"summary": "This spot is popular", "type": "general", "reasonName": "globalInteractionReason"}]}, "venue": {"id": "54282a5b498ef4e6e79707ac", "name": "Sonic Boom", "location": {"address": "215 Spadina", "crossStreet": "Sullivan", "lat": 43.650858882525974, "lng": -79.39698455156606, "labeledLatLngs": [{"label": "display", "lat": 43.650858882525974, "lng": -79.39698455156606}], "distance": 359, "cc": "CA", "city": "Toronto", "state": "ON", "country": "Canada", "formattedAddress": ["215 Spadina (Sullivan)", "Toronto ON", "Canada"]}, "categories": [{"id": "4bf58dd8d48988d10d951735", "name": "Record Shop", "pluralName": "Record Shops", "shortName": "Record Shop", "icon": {"prefix": "https://ss3.4sqi.net/img/categories_v2/shops/record_shop_", "suffix": ".png"}, "primary": true}], "photos": {"count": 0, "groups": []}}, "referralId": "e-0-54282a5b498ef4e6e79707ac-37"}, {"reasons": {"count": 0, "items": [{"summary": "This spot is popular", "type": "general", "reasonName": "globalInteractionReason"}]}, "venue": {"id": "4ae29812f964a520288f21e3", "name": "Swatow Restaurant \u6c55\u982d\u5c0f\u98df\u5bb6", "location": {"address": "309 Spadina Ave.", "crossStreet": "btwn Dundas St. W & D'Arcy St.", "lat": 43.65386562507761, "lng": -79.39833353339202, "labeledLatLngs": [{"label": "display", "lat": 43.65386562507761, "lng": -79.39833353339202}], "distance": 156, "postalCode": "M5T 2E6", "cc": "CA", "city": "Toronto", "state": "ON", "country": "Canada", "formattedAddress": ["309 Spadina Ave. (btwn Dundas St. W & D'Arcy St.)", "Toronto ON M5T 2E6", "Canada"]}, "categories": [{"id": "4bf58dd8d48988d145941735", "name": "Chinese Restaurant", "pluralName": "Chinese Restaurants", "shortName": "Chinese", "icon": {"prefix": "https://ss3.4sqi.net/img/categories_v2/food/asian_", "suffix": ".png"}, "primary": true}], "photos": {"count": 0, "groups": []}}, "referralId": "e-0-4ae29812f964a520288f21e3-38"}, {"reasons": {"count": 0, "items": [{"summary": "This spot is popular", "type": "general", "reasonName": "globalInteractionReason"}]}, "venue": {"id": "5644dbaa498e7f7534154326", "name": "Maker Pizza", "location": {"address": "59 Cameron St", "lat": 43.6504011331197, "lng": -79.39804047841302, "labeledLatLngs": [{"label": "display", "lat": 43.6504011331197, "lng": -79.39804047841302}], "distance": 351, "postalCode": "M5T 2H1", "cc": "CA", "city": "Toronto", "state": "ON", "country": "Canada", "formattedAddress": ["59 Cameron St", "Toronto ON M5T 2H1", "Canada"]}, "categories": [{"id": "4bf58dd8d48988d1ca941735", "name": "Pizza Place", "pluralName": "Pizza Places", "shortName": "Pizza", "icon": {"prefix": "https://ss3.4sqi.net/img/categories_v2/food/pizza_", "suffix": ".png"}, "primary": true}], "photos": {"count": 0, "groups": []}}, "referralId": "e-0-5644dbaa498e7f7534154326-39"}, {"reasons": {"count": 0, "items": [{"summary": "This spot is popular", "type": "general", "reasonName": "globalInteractionReason"}]}, "venue": {"id": "5a35aac9e96d0c07801331ec", "name": "Ozzy's Burger", "location": {"address": "66 1/2 Nassau Street Toronto Ontario", "crossStreet": "Augusta and Nassau", "lat": 43.65519064459841, "lng": -79.40261014020656, "labeledLatLngs": [{"label": "display", "lat": 43.65519064459841, "lng": -79.40261014020656}], "distance": 302, "postalCode": "M5T 1M5", "cc": "CA", "city": "Toronto", "state": "ON", "country": "Canada", "formattedAddress": ["66 1/2 Nassau Street Toronto Ontario (Augusta and Nassau)", "Toronto ON M5T 1M5", "Canada"]}, "categories": [{"id": "4bf58dd8d48988d16c941735", "name": "Burger Joint", "pluralName": "Burger Joints", "shortName": "Burgers", "icon": {"prefix": "https://ss3.4sqi.net/img/categories_v2/food/burger_", "suffix": ".png"}, "primary": true}], "photos": {"count": 0, "groups": []}}, "referralId": "e-0-5a35aac9e96d0c07801331ec-40"}, {"reasons": {"count": 0, "items": [{"summary": "This spot is popular", "type": "general", "reasonName": "globalInteractionReason"}]}, "venue": {"id": "4f25a676e4b01b0c60b7f9c4", "name": "Thirsty and Miserable", "location": {"address": "197.5 Baldwin St", "crossStreet": "at Augusta", "lat": 43.65456533618983, "lng": -79.4015827891908, "labeledLatLngs": [{"label": "display", "lat": 43.65456533618983, "lng": -79.4015827891908}], "distance": 195, "postalCode": "M5T 1M1", "cc": "CA", "neighborhood": "Kensington Market", "city": "Toronto", "state": "ON", "country": "Canada", "formattedAddress": ["197.5 Baldwin St (at Augusta)", "Toronto ON M5T 1M1", "Canada"]}, "categories": [{"id": "56aa371ce4b08b9a8d57356c", "name": "Beer Bar", "pluralName": "Beer Bars", "shortName": "Beer Bar", "icon": {"prefix": "https://ss3.4sqi.net/img/categories_v2/nightlife/pub_", "suffix": ".png"}, "primary": true}], "photos": {"count": 0, "groups": []}}, "referralId": "e-0-4f25a676e4b01b0c60b7f9c4-41"}, {"reasons": {"count": 0, "items": [{"summary": "This spot is popular", "type": "general", "reasonName": "globalInteractionReason"}]}, "venue": {"id": "4ba7e405f964a5203bbc39e3", "name": "Ajisen Ramen \u5473\u5343\u62c9\u9eb5", "location": {"address": "332 Spadina Ave.", "crossStreet": "at D'arcy St.", "lat": 43.65391272417607, "lng": -79.39859327119643, "labeledLatLngs": [{"label": "display", "lat": 43.65391272417607, "lng": -79.39859327119643}], "distance": 141, "postalCode": "M5T 2G2", "cc": "CA", "city": "Toronto", "state": "ON", "country": "Canada", "formattedAddress": ["332 Spadina Ave. (at D'arcy St.)", "Toronto ON M5T 2G2", "Canada"]}, "categories": [{"id": "55a59bace4b013909087cb24", "name": "Ramen Restaurant", "pluralName": "Ramen Restaurants", "shortName": "Ramen", "icon": {"prefix": "https://ss3.4sqi.net/img/categories_v2/food/ramen_", "suffix": ".png"}, "primary": true}], "photos": {"count": 0, "groups": []}}, "referralId": "e-0-4ba7e405f964a5203bbc39e3-42"}, {"reasons": {"count": 0, "items": [{"summary": "This spot is popular", "type": "general", "reasonName": "globalInteractionReason"}]}, "venue": {"id": "4ad4c060f964a52056f720e3", "name": "Pho Hung", "location": {"address": "350 Spadina Ave.", "crossStreet": "at St Andrews St.", "lat": 43.654434, "lng": -79.398883, "labeledLatLngs": [{"label": "display", "lat": 43.654434, "lng": -79.398883}], "distance": 165, "postalCode": "M5T 2G4", "cc": "CA", "city": "Toronto", "state": "ON", "country": "Canada", "formattedAddress": ["350 Spadina Ave. (at St Andrews St.)", "Toronto ON M5T 2G4", "Canada"]}, "categories": [{"id": "4bf58dd8d48988d14a941735", "name": "Vietnamese Restaurant", "pluralName": "Vietnamese Restaurants", "shortName": "Vietnamese", "icon": {"prefix": "https://ss3.4sqi.net/img/categories_v2/food/vietnamese_", "suffix": ".png"}, "primary": true}], "photos": {"count": 0, "groups": []}}, "referralId": "e-0-4ad4c060f964a52056f720e3-43"}, {"reasons": {"count": 0, "items": [{"summary": "This spot is popular", "type": "general", "reasonName": "globalInteractionReason"}]}, "venue": {"id": "4af1c047f964a520cfe221e3", "name": "El Trompo", "location": {"address": "277 Augusta Ave", "crossStreet": "at Oxford St", "lat": 43.6558316709016, "lng": -79.40256072891863, "labeledLatLngs": [{"label": "display", "lat": 43.6558316709016, "lng": -79.40256072891863}], "distance": 355, "postalCode": "M5T 2M1", "cc": "CA", "city": "Toronto", "state": "ON", "country": "Canada", "formattedAddress": ["277 Augusta Ave (at Oxford St)", "Toronto ON M5T 2M1", "Canada"]}, "categories": [{"id": "4bf58dd8d48988d1c1941735", "name": "Mexican Restaurant", "pluralName": "Mexican Restaurants", "shortName": "Mexican", "icon": {"prefix": "https://ss3.4sqi.net/img/categories_v2/food/mexican_", "suffix": ".png"}, "primary": true}], "photos": {"count": 0, "groups": []}}, "referralId": "e-0-4af1c047f964a520cfe221e3-44"}, {"reasons": {"count": 0, "items": [{"summary": "This spot is popular", "type": "general", "reasonName": "globalInteractionReason"}]}, "venue": {"id": "4cb79089dd41a35d6a2fd4a0", "name": "Greens Vegetarian Restaurant", "location": {"address": "Denison", "crossStreet": "Dundas St. W", "lat": 43.652033704026216, "lng": -79.40238187213345, "labeledLatLngs": [{"label": "display", "lat": 43.652033704026216, "lng": -79.40238187213345}], "distance": 228, "cc": "CA", "city": "Toronto", "state": "ON", "country": "Canada", "formattedAddress": ["Denison (Dundas St. W)", "Toronto ON", "Canada"]}, "categories": [{"id": "4bf58dd8d48988d1d3941735", "name": "Vegetarian / Vegan Restaurant", "pluralName": "Vegetarian / Vegan Restaurants", "shortName": "Vegetarian / Vegan", "icon": {"prefix": "https://ss3.4sqi.net/img/categories_v2/food/vegetarian_", "suffix": ".png"}, "primary": true}], "photos": {"count": 0, "groups": []}}, "referralId": "e-0-4cb79089dd41a35d6a2fd4a0-45"}, {"reasons": {"count": 0, "items": [{"summary": "This spot is popular", "type": "general", "reasonName": "globalInteractionReason"}]}, "venue": {"id": "514b665bf31c2c1960f7a8aa", "name": "The Burgernator", "location": {"address": "269 Augusta Avenue", "crossStreet": "Nassau", "lat": 43.65564188206897, "lng": -79.40244009529668, "labeledLatLngs": [{"label": "display", "lat": 43.65564188206897, "lng": -79.40244009529668}], "distance": 332, "postalCode": "M1R 3Y4", "cc": "CA", "city": "Toronto", "state": "ON", "country": "Canada", "formattedAddress": ["269 Augusta Avenue (Nassau)", "Toronto ON M1R 3Y4", "Canada"]}, "categories": [{"id": "4bf58dd8d48988d16c941735", "name": "Burger Joint", "pluralName": "Burger Joints", "shortName": "Burgers", "icon": {"prefix": "https://ss3.4sqi.net/img/categories_v2/food/burger_", "suffix": ".png"}, "primary": true}], "photos": {"count": 0, "groups": []}, "venuePage": {"id": "51270303"}}, "referralId": "e-0-514b665bf31c2c1960f7a8aa-46"}, {"reasons": {"count": 0, "items": [{"summary": "This spot is popular", "type": "general", "reasonName": "globalInteractionReason"}]}, "venue": {"id": "5955561ffc9e94781410f061", "name": "Icha Tea \u4e00\u8336\u9593", "location": {"address": "235 Spadina Avenue", "lat": 43.65133601830261, "lng": -79.39736984238466, "labeledLatLngs": [{"label": "display", "lat": 43.65133601830261, "lng": -79.39736984238466}], "distance": 299, "postalCode": "M5T 2E2", "cc": "CA", "city": "Toronto", "state": "ON", "country": "Canada", "formattedAddress": ["235 Spadina Avenue", "Toronto ON M5T 2E2", "Canada"]}, "categories": [{"id": "4bf58dd8d48988d1dc931735", "name": "Tea Room", "pluralName": "Tea Rooms", "shortName": "Tea Room", "icon": {"prefix": "https://ss3.4sqi.net/img/categories_v2/food/tearoom_", "suffix": ".png"}, "primary": true}], "photos": {"count": 0, "groups": []}}, "referralId": "e-0-5955561ffc9e94781410f061-47"}, {"reasons": {"count": 0, "items": [{"summary": "This spot is popular", "type": "general", "reasonName": "globalInteractionReason"}]}, "venue": {"id": "565a38df498ea8fe5920979c", "name": "Chine Legendary Hot Pot & Noodles \u91cd\u6176\u79e6\u5abd", "location": {"address": "327 Spadina Ave", "crossStreet": "at St. Andrews St", "lat": 43.65444281087195, "lng": -79.39870944812398, "labeledLatLngs": [{"label": "display", "lat": 43.65444281087195, "lng": -79.39870944812398}], "distance": 174, "postalCode": "M5T 2E9", "cc": "CA", "city": "Toronto", "state": "ON", "country": "Canada", "formattedAddress": ["327 Spadina Ave (at St. Andrews St)", "Toronto ON M5T 2E9", "Canada"]}, "categories": [{"id": "52af0bd33cf9994f4e043bdd", "name": "Hotpot Restaurant", "pluralName": "Hotpot Restaurants", "shortName": "Hotpot", "icon": {"prefix": "https://ss3.4sqi.net/img/categories_v2/food/asian_", "suffix": ".png"}, "primary": true}], "photos": {"count": 0, "groups": []}}, "referralId": "e-0-565a38df498ea8fe5920979c-48"}, {"reasons": {"count": 0, "items": [{"summary": "This spot is popular", "type": "general", "reasonName": "globalInteractionReason"}]}, "venue": {"id": "4b074bb1f964a52077fb22e3", "name": "New Sky Restaurant \u5c0f\u6c99\u7530\u98df\u5bb6", "location": {"address": "353 Spadina Ave.", "lat": 43.65533674412141, "lng": -79.39889716243826, "labeledLatLngs": [{"label": "display", "lat": 43.65533674412141, "lng": -79.39889716243826}], "distance": 254, "postalCode": "M5T 2G3", "cc": "CA", "city": "Toronto", "state": "ON", "country": "Canada", "formattedAddress": ["353 Spadina Ave.", "Toronto ON M5T 2G3", "Canada"]}, "categories": [{"id": "4bf58dd8d48988d145941735", "name": "Chinese Restaurant", "pluralName": "Chinese Restaurants", "shortName": "Chinese", "icon": {"prefix": "https://ss3.4sqi.net/img/categories_v2/food/asian_", "suffix": ".png"}, "primary": true}], "photos": {"count": 0, "groups": []}}, "referralId": "e-0-4b074bb1f964a52077fb22e3-49"}]}]}}