{"meta": {"code": 200, "requestId": "5e1973efb57e88001bd19ef8"}, "response": {"headerLocation": "Financial District", "headerFullLocation": "Financial District, Toronto", "headerLocationGranularity": "neighborhood", "totalResults": 8, "suggestedBounds": {"ne": {"lat": 43.649104200675005, "lng": -79.38134909042202}, "sw": {"lat": 43.647754199325, "lng": -79.38321130957797}}, "groups": [{"type": "Recommended Places", "name": "recommended", "items": [{"reasons": {"count": 0, "items": [{"summary": "This spot is popular", "type": "general", "reasonName": "globalInteractionReason"}]}, "venue": {"id": "559a8f5a498e31f945041245", "name": "Maman", "location": {"address": "100 King St W", "crossStreet": "btwn Bay & York st", "lat": 43.64830873804684, "lng": -79.38225333898805, "labeledLatLngs": [{"label": "display", "lat": 43.64830873804684, "lng": -79.38225333898805}], "distance": 13, "postalCode": "M5X 1C1", "cc": "CA", "city": "Toronto", "state": "ON", "country": "Canada", "formattedAddress": ["100 King St W (btwn Bay & York st)", "Toronto ON M5X 1C1", "Canada"]}, "categories": [{"id": "4bf58dd8d48988d16d941735", "name": "Caf\u00e9", "pluralName": "Caf\u00e9s", "shortName": "Caf\u00e9", "icon": {"prefix": "https://ss3.4sqi.net/img/categories_v2/food/cafe_", "suffix": ".png"}, "primary": true}], "photos": {"count": 0, "groups": []}}, "referralId": "e-0-559a8f5a498e31f945041245-0"}, {"reasons": {"count": 0, "items": [{"summary": "This spot is popular", "type": "general", "reasonName": "globalInteractionReason"}]}, "venue": {"id": "59603f86112c6c70931c9401", "name": "King Taps", "location": {"address": "100 King St W", "lat": 43.648475974183, "lng": -79.38205778358744, "labeledLatLngs": [{"label": "display", "lat": 43.648475974183, "lng": -79.38205778358744}], "distance": 18, "cc": "CA", "city": "Toronto", "state": "ON", "country": "Canada", "formattedAddress": ["100 King St W", "Toronto ON", "Canada"]}, "categories": [{"id": "4bf58dd8d48988d155941735", "name": "Gastropub", "pluralName": "Gastropubs", "shortName": "Gastropub", "icon": {"prefix": "https://ss3.4sqi.net/img/categories_v2/food/gastropub_", "suffix": ".png"}, "primary": true}], "photos": {"count": 0, "groups": []}}, "referralId": "e-0-59603f86112c6c70931c9401-1"}, {"reasons": {"count": 0, "items": [{"summary": "This spot is popular", "type": "general", "reasonName": "globalInteractionReason"}]}, "venue": {"id": "56df0683498e7d0423e91b5b", "name": "iQ Food Co. (First Canadian Place)", "location": {"lat": 43.64835708519922, "lng": -79.38219241858727, "labeledLatLngs": [{"label": "display", "lat": 43.64835708519922, "lng": -79.38219241858727}], "distance": 10, "cc": "CA", "country": "Canada", "formattedAddress": ["Canada"]}, "categories": [{"id": "4bf58dd8d48988d1bd941735", "name": "Salad Place", "pluralName": "Salad Places", "shortName": "Salad", "icon": {"prefix": "https://ss3.4sqi.net/img/categories_v2/food/salad_", "suffix": ".png"}, "primary": true}], "photos": {"count": 0, "groups": []}}, "referralId": "e-0-56df0683498e7d0423e91b5b-2"}, {"reasons": {"count": 0, "items": [{"summary": "This spot is popular", "type": "general", "reasonName": "globalInteractionReason"}]}, "venue": {"id": "50e44770e4b0e03a48c0d8a8", "name": "Kupfert & Kim (First Canadian Place)", "location": {"address": "100 King Street West", "lat": 43.64854659465186, "lng": -79.38162406470161, "labeledLatLngs": [{"label": "display", "lat": 43.64854659465186, "lng": -79.38162406470161}], "distance": 54, "postalCode": "M5X 1B1", "cc": "CA", "city": "Toronto", "state": "ON", "country": "Canada", "formattedAddress": ["100 King Street West", "Toronto ON M5X 1B1", "Canada"]}, "categories": [{"id": "4c2cd86ed066bed06c3c5209", "name": "Gluten-free Restaurant", "pluralName": "Gluten-free Restaurants", "shortName": "Gluten-free", "icon": {"prefix": "https://ss3.4sqi.net/img/categories_v2/food/glutenfree_", "suffix": ".png"}, "primary": true}], "photos": {"count": 0, "groups": []}, "venuePage": {"id": "45671051"}}, "referralId": "e-0-50e44770e4b0e03a48c0d8a8-3"}, {"reasons": {"count": 0, "items": [{"summary": "This spot is popular", "type": "general", "reasonName": "globalInteractionReason"}]}, "venue": {"id": "4b114234f964a520637923e3", "name": "Pumpernickel's Deli", "location": {"address": "100 King St. W", "crossStreet": "at First Canadian Place Food Court", "lat": 43.64883150054619, "lng": -79.38197006345457, "labeledLatLngs": [{"label": "display", "lat": 43.64883150054619, "lng": -79.38197006345457}], "distance": 51, "cc": "CA", "city": "Toronto", "state": "ON", "country": "Canada", "formattedAddress": ["100 King St. W (at First Canadian Place Food Court)", "Toronto ON", "Canada"]}, "categories": [{"id": "4bf58dd8d48988d146941735", "name": "Deli / Bodega", "pluralName": "Delis / Bodegas", "shortName": "Deli / Bodega", "icon": {"prefix": "https://ss3.4sqi.net/img/categories_v2/food/deli_", "suffix": ".png"}, "primary": true}], "photos": {"count": 0, "groups": []}}, "referralId": "e-0-4b114234f964a520637923e3-4"}, {"reasons": {"count": 0, "items": [{"summary": "This spot is popular", "type": "general", "reasonName": "globalInteractionReason"}]}, "venue": {"id": "4ec4256c722e7658977696c7", "name": "Prairie Girl Bakery", "location": {"address": "100 King St. W", "crossStreet": "in First Canadian Place (Concourse Level)", "lat": 43.64833236397115, "lng": -79.38230492443054, "labeledLatLngs": [{"label": "display", "lat": 43.64833236397115, "lng": -79.38230492443054}], "distance": 10, "postalCode": "M5X 2A1", "cc": "CA", "city": "Toronto", "state": "ON", "country": "Canada", "formattedAddress": ["100 King St. W (in First Canadian Place (Concourse Level))", "Toronto ON M5X 2A1", "Canada"]}, "categories": [{"id": "4bf58dd8d48988d1bc941735", "name": "Cupcake Shop", "pluralName": "Cupcake Shops", "shortName": "Cupcakes", "icon": {"prefix": "https://ss3.4sqi.net/img/categories_v2/food/cupcakes_", "suffix": ".png"}, "primary": true}], "photos": {"count": 0, "groups": []}}, "referralId": "e-0-4ec4256c722e7658977696c7-5"}, {"reasons": {"count": 0, "items": [{"summary": "This spot is popular", "type": "general", "reasonName": "globalInteractionReason"}]}, "venue": {"id": "4ad4c063f964a52020f820e3", "name": "First Canadian Place", "location": {"address": "100 King St W", "crossStreet": "btwn Bay & University", "lat": 43.64848212292913, "lng": -79.38244342803955, "labeledLatLngs": [{"label": "display", "lat": 43.64848212292913, "lng": -79.38244342803955}], "distance": 14, "postalCode": "M5J 1W9", "cc": "CA", "city": "Toronto", "state": "ON", "country": "Canada", "formattedAddress": ["100 King St W (btwn Bay & University)", "Toronto ON M5J 1W9", "Canada"]}, "categories": [{"id": "4bf58dd8d48988d130941735", "name": "Building", "pluralName": "Buildings", "shortName": "Building", "icon": {"prefix": "https://ss3.4sqi.net/img/categories_v2/building/default_", "suffix": ".png"}, "primary": true}], "photos": {"count": 0, "groups": []}}, "referralId": "e-0-4ad4c063f964a52020f820e3-6"}, {"reasons": {"count": 0, "items": [{"summary": "This spot is popular", "type": "general", "reasonName": "globalInteractionReason"}]}, "venue": {"id": "584b01b03873037c45bf0112", "name": "Forno Cultura", "location": {"address": "First Canadian Place", "lat": 43.648532894220665, "lng": -79.38253494049307, "labeledLatLngs": [{"label": "display", "lat": 43.648532894220665, "lng": -79.38253494049307}], "distance": 23, "postalCode": "M5H 1T1", "cc": "CA", "city": "Toronto", "state": "ON", "country": "Canada", "formattedAddress": ["First Canadian Place", "Toronto ON M5H 1T1", "Canada"]}, "categories": [{"id": "4bf58dd8d48988d16a941735", "name": "Bakery", "pluralName": "Bakeries", "shortName": "Bakery", "icon": {"prefix": "https://ss3.4sqi.net/img/categories_v2/food/bakery_", "suffix": ".png"}, "primary": true}], "photos": {"count": 0, "groups": []}}, "referralId": "e-0-584b01b03873037c45bf0112-7"}]}]}}