{"meta": {"code": 200, "requestId": "5e197312660a9f0025753ae1"}, "response": {"headerLocation": "Davenport", "headerFullLocation": "Davenport, Toronto", "headerLocationGranularity": "neighborhood", "totalResults": 40, "suggestedBounds": {"ne": {"lat": 43.67615110714601, "lng": -79.43239857472253}, "sw": {"lat": 43.661859092854, "lng": -79.45212002527748}}, "groups": [{"type": "Recommended Places", "name": "recommended", "items": [{"reasons": {"count": 0, "items": [{"summary": "This spot is popular", "type": "general", "reasonName": "globalInteractionReason"}]}, "venue": {"id": "5753753b498eeb535c53aed5", "name": "The Greater Good Bar", "location": {"address": "229 Geary St", "crossStreet": "at Dufferin St", "lat": 43.669409, "lng": -79.439267, "labeledLatLngs": [{"label": "display", "lat": 43.669409, "lng": -79.439267}], "distance": 245, "postalCode": "M6H 2C1", "cc": "CA", "city": "Toronto", "state": "ON", "country": "Canada", "formattedAddress": ["229 Geary St (at Dufferin St)", "Toronto ON M6H 2C1", "Canada"]}, "categories": [{"id": "4bf58dd8d48988d116941735", "name": "Bar", "pluralName": "Bars", "shortName": "Bar", "icon": {"prefix": "https://ss3.4sqi.net/img/categories_v2/nightlife/pub_", "suffix": ".png"}, "primary": true}], "photos": {"count": 0, "groups": []}}, "referralId": "e-0-5753753b498eeb535c53aed5-0"}, {"reasons": {"count": 0, "items": [{"summary": "This spot is popular", "type": "general", "reasonName": "globalInteractionReason"}]}, "venue": {"id": "5a5659ab17556229a036b74a", "name": "Parallel", "location": {"address": "217 Geary Ave.", "lat": 43.66951635632503, "lng": -79.43872770646192, "labeledLatLngs": [{"label": "display", "lat": 43.66951635632503, "lng": -79.43872770646192}], "distance": 290, "postalCode": "M6H 2C1", "cc": "CA", "city": "Toronto", "state": "ON", "country": "Canada", "formattedAddress": ["217 Geary Ave.", "Toronto ON M6H 2C1", "Canada"]}, "categories": [{"id": "4bf58dd8d48988d115941735", "name": "Middle Eastern Restaurant", "pluralName": "Middle Eastern Restaurants", "shortName": "Middle Eastern", "icon": {"prefix": "https://ss3.4sqi.net/img/categories_v2/food/middleeastern_", "suffix": ".png"}, "primary": true}], "photos": {"count": 0, "groups": []}}, "referralId": "e-0-5a5659ab17556229a036b74a-1"}, {"reasons": {"count": 0, "items": [{"summary": "This spot is popular", "type": "general", "reasonName": "globalInteractionReason"}]}, "venue": {"id": "568333d5498e400ae0f1a732", "name": "Blood Brothers Brewing", "location": {"address": "165 Geary Ave", "crossStreet": "at Barlett Ave N", "lat": 43.66994369492681, "lng": -79.43653285503387, "labeledLatLngs": [{"label": "display", "lat": 43.66994369492681, "lng": -79.43653285503387}], "distance": 472, "postalCode": "M6H 2B8", "cc": "CA", "city": "Toronto", "state": "ON", "country": "Canada", "formattedAddress": ["165 Geary Ave (at Barlett Ave N)", "Toronto ON M6H 2B8", "Canada"]}, "categories": [{"id": "50327c8591d4c4b30a586d5d", "name": "Brewery", "pluralName": "Breweries", "shortName": "Brewery", "icon": {"prefix": "https://ss3.4sqi.net/img/categories_v2/food/brewery_", "suffix": ".png"}, "primary": true}], "photos": {"count": 0, "groups": []}}, "referralId": "e-0-568333d5498e400ae0f1a732-2"}, {"reasons": {"count": 0, "items": [{"summary": "This spot is popular", "type": "general", "reasonName": "globalInteractionReason"}]}, "venue": {"id": "54468744498ed0b9299a6abe", "name": "Planet Fitness Toronto Galleria", "location": {"address": "1245 Dupont St, Unit 1", "crossStreet": "Dufferin St. & Dupont St", "lat": 43.66758797288865, "lng": -79.44257365441428, "labeledLatLngs": [{"label": "display", "lat": 43.66758797288865, "lng": -79.44257365441428}], "distance": 159, "postalCode": "M6H 2A6", "cc": "CA", "city": "Toronto", "state": "ON", "country": "Canada", "formattedAddress": ["1245 Dupont St, Unit 1 (Dufferin St. & Dupont St)", "Toronto ON M6H 2A6", "Canada"]}, "categories": [{"id": "4bf58dd8d48988d175941735", "name": "Gym / Fitness Center", "pluralName": "Gyms or Fitness Centers", "shortName": "Gym / Fitness", "icon": {"prefix": "https://ss3.4sqi.net/img/categories_v2/building/gym_", "suffix": ".png"}, "primary": true}], "photos": {"count": 0, "groups": []}}, "referralId": "e-0-54468744498ed0b9299a6abe-3"}, {"reasons": {"count": 0, "items": [{"summary": "This spot is popular", "type": "general", "reasonName": "globalInteractionReason"}]}, "venue": {"id": "4bdf2e330ee3a593143c33b0", "name": "Happy Bakery & Pastries", "location": {"address": "1245 Dupont St", "crossStreet": "in Galleria Mall", "lat": 43.66705039063128, "lng": -79.44179124412831, "labeledLatLngs": [{"label": "display", "lat": 43.66705039063128, "lng": -79.44179124412831}], "distance": 220, "postalCode": "M6H 3A6", "cc": "CA", "city": "Toronto", "state": "ON", "country": "Canada", "formattedAddress": ["1245 Dupont St (in Galleria Mall)", "Toronto ON M6H 3A6", "Canada"]}, "categories": [{"id": "4bf58dd8d48988d16a941735", "name": "Bakery", "pluralName": "Bakeries", "shortName": "Bakery", "icon": {"prefix": "https://ss3.4sqi.net/img/categories_v2/food/bakery_", "suffix": ".png"}, "primary": true}], "photos": {"count": 0, "groups": []}}, "referralId": "e-0-4bdf2e330ee3a593143c33b0-4"}, {"reasons": {"count": 0, "items": [{"summary": "This spot is popular", "type": "general", "reasonName": "globalInteractionReason"}]}, "venue": {"id": "5a2a9708ccad6b57983d95e3", "name": "Balzac\u2019s Coffee", "location": {"address": "31 Powerhouse St", "crossStreet": "Lansdowne Avenue", "lat": 43.670042, "lng": -79.448342, "labeledLatLngs": [{"label": "display", "lat": 43.670042, "lng": -79.448342}], "distance": 503, "postalCode": "M6H 0C6", "cc": "CA", "neighborhood": "Davenport Village", "city": "Toronto", "state": "ON", "country": "Canada", "formattedAddress": ["31 Powerhouse St (Lansdowne Avenue)", "Toronto ON M6H 0C6", "Canada"]}, "categories": [{"id": "4bf58dd8d48988d1e0931735", "name": "Coffee Shop", "pluralName": "Coffee Shops", "shortName": "Coffee Shop", "icon": {"prefix": "https://ss3.4sqi.net/img/categories_v2/food/coffeeshop_", "suffix": ".png"}, "primary": true}], "photos": {"count": 0, "groups": []}}, "referralId": "e-0-5a2a9708ccad6b57983d95e3-5"}, {"reasons": {"count": 0, "items": [{"summary": "This spot is popular", "type": "general", "reasonName": "globalInteractionReason"}]}, "venue": {"id": "4c717617d97fa143dcf4f8ca", "name": "FreshCo", "location": {"address": "1245 Dupont St.", "crossStreet": "at Dufferin St.", "lat": 43.66791838591585, "lng": -79.44075425394298, "labeledLatLngs": [{"label": "display", "lat": 43.66791838591585, "lng": -79.44075425394298}], "distance": 171, "postalCode": "M6H 2A6", "cc": "CA", "city": "Toronto", "state": "ON", "country": "Canada", "formattedAddress": ["1245 Dupont St. (at Dufferin St.)", "Toronto ON M6H 2A6", "Canada"]}, "categories": [{"id": "52f2ab2ebcbc57f1066b8b46", "name": "Supermarket", "pluralName": "Supermarkets", "shortName": "Supermarket", "icon": {"prefix": "https://ss3.4sqi.net/img/categories_v2/shops/food_grocery_", "suffix": ".png"}, "primary": true}], "photos": {"count": 0, "groups": []}}, "referralId": "e-0-4c717617d97fa143dcf4f8ca-6"}, {"reasons": {"count": 0, "items": [{"summary": "This spot is popular", "type": "general", "reasonName": "globalInteractionReason"}]}, "venue": {"id": "572e0547498ed619e59df508", "name": "Hale Coffee", "location": {"address": "300 Campbell St", "crossStreet": "Dupont St", "lat": 43.665531698018086, "lng": -79.44994926452637, "labeledLatLngs": [{"label": "display", "lat": 43.665531698018086, "lng": -79.44994926452637}], "distance": 730, "cc": "CA", "city": "Toronto", "state": "ON", "country": "Canada", "formattedAddress": ["300 Campbell St (Dupont St)", "Toronto ON", "Canada"]}, "categories": [{"id": "4bf58dd8d48988d1e0931735", "name": "Coffee Shop", "pluralName": "Coffee Shops", "shortName": "Coffee Shop", "icon": {"prefix": "https://ss3.4sqi.net/img/categories_v2/food/coffeeshop_", "suffix": ".png"}, "primary": true}], "photos": {"count": 0, "groups": []}}, "referralId": "e-0-572e0547498ed619e59df508-7"}, {"reasons": {"count": 0, "items": [{"summary": "This spot is popular", "type": "general", "reasonName": "globalInteractionReason"}]}, "venue": {"id": "4c3362df452620a1e87d230f", "name": "Nova Era Bakery", "location": {"address": "200 Geary Ave", "crossStreet": "btwn Dufferin St. & Dovercourt Rd.", "lat": 43.66988647609785, "lng": -79.43758190821525, "labeledLatLngs": [{"label": "display", "lat": 43.66988647609785, "lng": -79.43758190821525}], "distance": 389, "postalCode": "M6H 2B9", "cc": "CA", "city": "Toronto", "state": "ON", "country": "Canada", "formattedAddress": ["200 Geary Ave (btwn Dufferin St. & Dovercourt Rd.)", "Toronto ON M6H 2B9", "Canada"]}, "categories": [{"id": "4bf58dd8d48988d16a941735", "name": "Bakery", "pluralName": "Bakeries", "shortName": "Bakery", "icon": {"prefix": "https://ss3.4sqi.net/img/categories_v2/food/bakery_", "suffix": ".png"}, "primary": true}], "photos": {"count": 0, "groups": []}}, "referralId": "e-0-4c3362df452620a1e87d230f-8"}, {"reasons": {"count": 0, "items": [{"summary": "This spot is popular", "type": "general", "reasonName": "globalInteractionReason"}]}, "venue": {"id": "590390fc35811b1afa825dcc", "name": "Famiglia Baldassarre", "location": {"address": "122 Geary Ave", "lat": 43.670388, "lng": -79.434999, "labeledLatLngs": [{"label": "display", "lat": 43.670388, "lng": -79.434999}], "distance": 604, "postalCode": "M6H 4H1", "cc": "CA", "city": "Toronto", "state": "ON", "country": "Canada", "formattedAddress": ["122 Geary Ave", "Toronto ON M6H 4H1", "Canada"]}, "categories": [{"id": "4bf58dd8d48988d110941735", "name": "Italian Restaurant", "pluralName": "Italian Restaurants", "shortName": "Italian", "icon": {"prefix": "https://ss3.4sqi.net/img/categories_v2/food/italian_", "suffix": ".png"}, "primary": true}], "photos": {"count": 0, "groups": []}}, "referralId": "e-0-590390fc35811b1afa825dcc-9"}, {"reasons": {"count": 0, "items": [{"summary": "This spot is popular", "type": "general", "reasonName": "globalInteractionReason"}]}, "venue": {"id": "4b52325ef964a5201b6f27e3", "name": "Rehearsal Factory", "location": {"address": "330 Geary Ave.", "crossStreet": "at Lightbourn Ave.", "lat": 43.66887675155326, "lng": -79.44360330056674, "labeledLatLngs": [{"label": "display", "lat": 43.66887675155326, "lng": -79.44360330056674}], "distance": 109, "postalCode": "M6H 2C7", "cc": "CA", "city": "Toronto", "state": "ON", "country": "Canada", "formattedAddress": ["330 Geary Ave. (at Lightbourn Ave.)", "Toronto ON M6H 2C7", "Canada"]}, "categories": [{"id": "4bf58dd8d48988d1e5931735", "name": "Music Venue", "pluralName": "Music Venues", "shortName": "Music Venue", "icon": {"prefix": "https://ss3.4sqi.net/img/categories_v2/arts_entertainment/musicvenue_", "suffix": ".png"}, "primary": true}], "photos": {"count": 0, "groups": []}}, "referralId": "e-0-4b52325ef964a5201b6f27e3-10"}, {"reasons": {"count": 0, "items": [{"summary": "This spot is popular", "type": "general", "reasonName": "globalInteractionReason"}]}, "venue": {"id": "511907f5e4b02eba00e57853", "name": "Wallace Espresso", "location": {"address": "188 Wallace Ave.", "lat": 43.66236728741229, "lng": -79.4442272516029, "labeledLatLngs": [{"label": "display", "lat": 43.66236728741229, "lng": -79.4442272516029}], "distance": 755, "postalCode": "M6H 1V4", "cc": "CA", "city": "Toronto", "state": "ON", "country": "Canada", "formattedAddress": ["188 Wallace Ave.", "Toronto ON M6H 1V4", "Canada"]}, "categories": [{"id": "4bf58dd8d48988d1e0931735", "name": "Coffee Shop", "pluralName": "Coffee Shops", "shortName": "Coffee Shop", "icon": {"prefix": "https://ss3.4sqi.net/img/categories_v2/food/coffeeshop_", "suffix": ".png"}, "primary": true}], "photos": {"count": 0, "groups": []}}, "referralId": "e-0-511907f5e4b02eba00e57853-11"}, {"reasons": {"count": 0, "items": [{"summary": "This spot is popular", "type": "general", "reasonName": "globalInteractionReason"}]}, "venue": {"id": "4bce35a1fb84c9b60272233e", "name": "Piri-Piri Churrasqueira", "location": {"address": "1444 Dupont St.", "crossStreet": "Symington", "lat": 43.66624777557027, "lng": -79.44984237455147, "labeledLatLngs": [{"label": "display", "lat": 43.66624777557027, "lng": -79.44984237455147}], "distance": 683, "postalCode": "M6P 4H3", "cc": "CA", "city": "Toronto", "state": "ON", "country": "Canada", "formattedAddress": ["1444 Dupont St. (Symington)", "Toronto ON M6P 4H3", "Canada"]}, "categories": [{"id": "4def73e84765ae376e57713a", "name": "Portuguese Restaurant", "pluralName": "Portuguese Restaurants", "shortName": "Portuguese", "icon": {"prefix": "https://ss3.4sqi.net/img/categories_v2/food/portuguese_", "suffix": ".png"}, "primary": true}], "photos": {"count": 0, "groups": []}}, "referralId": "e-0-4bce35a1fb84c9b60272233e-12"}, {"reasons": {"count": 0, "items": [{"summary": "This spot is popular", "type": "general", "reasonName": "globalInteractionReason"}]}, "venue": {"id": "4fc67d32e4b0b0e32cca5b24", "name": "The Sovereign", "location": {"address": "1359 Davenport Road", "lat": 43.673115708192206, "lng": -79.44026498681781, "labeledLatLngs": [{"label": "display", "lat": 43.673115708192206, "lng": -79.44026498681781}], "distance": 484, "cc": "CA", "city": "Toronto", "state": "ON", "country": "Canada", "formattedAddress": ["1359 Davenport Road", "Toronto ON", "Canada"]}, "categories": [{"id": "4bf58dd8d48988d16d941735", "name": "Caf\u00e9", "pluralName": "Caf\u00e9s", "shortName": "Caf\u00e9", "icon": {"prefix": "https://ss3.4sqi.net/img/categories_v2/food/cafe_", "suffix": ".png"}, "primary": true}], "photos": {"count": 0, "groups": []}}, "referralId": "e-0-4fc67d32e4b0b0e32cca5b24-13"}, {"reasons": {"count": 0, "items": [{"summary": "This spot is popular", "type": "general", "reasonName": "globalInteractionReason"}]}, "venue": {"id": "5be8c0409cadd9002c1eb7ab", "name": "Donna\u2019s", "location": {"address": "827 Lansdowne Ave", "crossStreet": "Wallace", "lat": 43.662581, "lng": -79.444593, "labeledLatLngs": [{"label": "display", "lat": 43.662581, "lng": -79.444593}], "distance": 739, "postalCode": "M6H 3Z2", "cc": "CA", "city": "Toronto", "state": "ON", "country": "Canada", "formattedAddress": ["827 Lansdowne Ave (Wallace)", "Toronto ON M6H 3Z2", "Canada"]}, "categories": [{"id": "4bf58dd8d48988d147941735", "name": "Diner", "pluralName": "Diners", "shortName": "Diner", "icon": {"prefix": "https://ss3.4sqi.net/img/categories_v2/food/diner_", "suffix": ".png"}, "primary": true}], "photos": {"count": 0, "groups": []}}, "referralId": "e-0-5be8c0409cadd9002c1eb7ab-14"}, {"reasons": {"count": 0, "items": [{"summary": "This spot is popular", "type": "general", "reasonName": "globalInteractionReason"}]}, "venue": {"id": "55969686498e6d86eb508097", "name": "Dark Horse Espresso Bar", "location": {"address": "120 Geary Ave", "lat": 43.67046758917436, "lng": -79.43487827252835, "labeledLatLngs": [{"label": "display", "lat": 43.67046758917436, "lng": -79.43487827252835}], "distance": 616, "postalCode": "M6H 4H1", "cc": "CA", "city": "Toronto", "state": "ON", "country": "Canada", "formattedAddress": ["120 Geary Ave", "Toronto ON M6H 4H1", "Canada"]}, "categories": [{"id": "4bf58dd8d48988d1e0931735", "name": "Coffee Shop", "pluralName": "Coffee Shops", "shortName": "Coffee Shop", "icon": {"prefix": "https://ss3.4sqi.net/img/categories_v2/food/coffeeshop_", "suffix": ".png"}, "primary": true}], "photos": {"count": 0, "groups": []}}, "referralId": "e-0-55969686498e6d86eb508097-15"}, {"reasons": {"count": 0, "items": [{"summary": "This spot is popular", "type": "general", "reasonName": "globalInteractionReason"}]}, "venue": {"id": "4bb7a3ef1261d13a9c9fe798", "name": "Campbell Park", "location": {"address": "Campbell and Wallace", "lat": 43.66371788764777, "lng": -79.44836107862439, "labeledLatLngs": [{"label": "display", "lat": 43.66371788764777, "lng": -79.44836107862439}], "distance": 766, "cc": "CA", "city": "Toronto", "state": "ON", "country": "Canada", "formattedAddress": ["Campbell and Wallace", "Toronto ON", "Canada"]}, "categories": [{"id": "4bf58dd8d48988d163941735", "name": "Park", "pluralName": "Parks", "shortName": "Park", "icon": {"prefix": "https://ss3.4sqi.net/img/categories_v2/parks_outdoors/park_", "suffix": ".png"}, "primary": true}], "photos": {"count": 0, "groups": []}}, "referralId": "e-0-4bb7a3ef1261d13a9c9fe798-16"}, {"reasons": {"count": 0, "items": [{"summary": "This spot is popular", "type": "general", "reasonName": "globalInteractionReason"}]}, "venue": {"id": "4adcc164f964a520722f21e3", "name": "Cantanhede O Bairradino", "location": {"address": "662 Lansdowne Ave", "crossStreet": "at Wallace Ave", "lat": 43.66254634403038, "lng": -79.4446564259842, "labeledLatLngs": [{"label": "display", "lat": 43.66254634403038, "lng": -79.4446564259842}], "distance": 744, "postalCode": "M6H 3Y8", "cc": "CA", "city": "Toronto", "state": "ON", "country": "Canada", "formattedAddress": ["662 Lansdowne Ave (at Wallace Ave)", "Toronto ON M6H 3Y8", "Canada"]}, "categories": [{"id": "4def73e84765ae376e57713a", "name": "Portuguese Restaurant", "pluralName": "Portuguese Restaurants", "shortName": "Portuguese", "icon": {"prefix": "https://ss3.4sqi.net/img/categories_v2/food/portuguese_", "suffix": ".png"}, "primary": true}], "photos": {"count": 0, "groups": []}}, "referralId": "e-0-4adcc164f964a520722f21e3-17"}, {"reasons": {"count": 0, "items": [{"summary": "This spot is popular", "type": "general", "reasonName": "globalInteractionReason"}]}, "venue": {"id": "4b75eb65f964a520dc2e2ee3", "name": "Boulderz Climbing Centre", "location": {"address": "1444 Dupont Street, Unit #16", "lat": 43.666857152868026, "lng": -79.44950780358212, "labeledLatLngs": [{"label": "display", "lat": 43.666857152868026, "lng": -79.44950780358212}], "distance": 630, "postalCode": "M6P 4H3", "cc": "CA", "city": "Toronto", "state": "ON", "country": "Canada", "formattedAddress": ["1444 Dupont Street, Unit #16", "Toronto ON M6P 4H3", "Canada"]}, "categories": [{"id": "4bf58dd8d48988d176941735", "name": "Gym", "pluralName": "Gyms", "shortName": "Gym", "icon": {"prefix": "https://ss3.4sqi.net/img/categories_v2/building/gym_", "suffix": ".png"}, "primary": true}], "photos": {"count": 0, "groups": []}}, "referralId": "e-0-4b75eb65f964a520dc2e2ee3-18"}, {"reasons": {"count": 0, "items": [{"summary": "This spot is popular", "type": "general", "reasonName": "globalInteractionReason"}]}, "venue": {"id": "4adcc512f964a5209f2f21e3", "name": "Boo Radley's Junction Bar and Grill", "location": {"address": "1482 Dupont Ave.", "crossStreet": "Campbell Ave.", "lat": 43.666110374762674, "lng": -79.45017005861318, "labeledLatLngs": [{"label": "display", "lat": 43.666110374762674, "lng": -79.45017005861318}], "distance": 713, "cc": "CA", "city": "Toronto", "state": "ON", "country": "Canada", "formattedAddress": ["1482 Dupont Ave. (Campbell Ave.)", "Toronto ON", "Canada"]}, "categories": [{"id": "4bf58dd8d48988d116941735", "name": "Bar", "pluralName": "Bars", "shortName": "Bar", "icon": {"prefix": "https://ss3.4sqi.net/img/categories_v2/nightlife/pub_", "suffix": ".png"}, "primary": true}], "photos": {"count": 0, "groups": []}}, "referralId": "e-0-4adcc512f964a5209f2f21e3-19"}, {"reasons": {"count": 0, "items": [{"summary": "This spot is popular", "type": "general", "reasonName": "globalInteractionReason"}]}, "venue": {"id": "597a14e63149b944da6ff998", "name": "Food Basics", "location": {"address": "830 Lansdowne avenue", "crossStreet": "Dupont and Lansdowne", "lat": 43.66683479434923, "lng": -79.446812421531, "labeledLatLngs": [{"label": "display", "lat": 43.66683479434923, "lng": -79.446812421531}], "distance": 439, "postalCode": "M6H 0C3", "cc": "CA", "city": "Toronto", "state": "ON", "country": "Canada", "formattedAddress": ["830 Lansdowne avenue (Dupont and Lansdowne)", "Toronto ON M6H 0C3", "Canada"]}, "categories": [{"id": "52f2ab2ebcbc57f1066b8b46", "name": "Supermarket", "pluralName": "Supermarkets", "shortName": "Supermarket", "icon": {"prefix": "https://ss3.4sqi.net/img/categories_v2/shops/food_grocery_", "suffix": ".png"}, "primary": true}], "photos": {"count": 0, "groups": []}}, "referralId": "e-0-597a14e63149b944da6ff998-20"}, {"reasons": {"count": 0, "items": [{"summary": "This spot is popular", "type": "general", "reasonName": "globalInteractionReason"}]}, "venue": {"id": "4b157d62f964a5209bad23e3", "name": "TD Canada Trust", "location": {"address": "1245 Dupont St", "crossStreet": "at Dufferin St", "lat": 43.6679341, "lng": -79.4416984, "labeledLatLngs": [{"label": "display", "lat": 43.6679341, "lng": -79.4416984}], "distance": 127, "postalCode": "M6H 2A6", "cc": "CA", "city": "Toronto", "state": "ON", "country": "Canada", "formattedAddress": ["1245 Dupont St (at Dufferin St)", "Toronto ON M6H 2A6", "Canada"]}, "categories": [{"id": "4bf58dd8d48988d10a951735", "name": "Bank", "pluralName": "Banks", "shortName": "Bank", "icon": {"prefix": "https://ss3.4sqi.net/img/categories_v2/shops/financial_", "suffix": ".png"}, "primary": true}], "photos": {"count": 0, "groups": []}}, "referralId": "e-0-4b157d62f964a5209bad23e3-21"}, {"reasons": {"count": 0, "items": [{"summary": "This spot is popular", "type": "general", "reasonName": "globalInteractionReason"}]}, "venue": {"id": "4ca27c371ee76dcbb919f1dd", "name": "Dollarama", "location": {"address": "800 Lansdowne Ave.", "lat": 43.665296, "lng": -79.446215, "labeledLatLngs": [{"label": "display", "lat": 43.665296, "lng": -79.446215}], "distance": 521, "postalCode": "M6H 4K3", "cc": "CA", "city": "Toronto", "state": "ON", "country": "Canada", "formattedAddress": ["800 Lansdowne Ave.", "Toronto ON M6H 4K3", "Canada"]}, "categories": [{"id": "52dea92d3cf9994f4e043dbb", "name": "Discount Store", "pluralName": "Discount Stores", "shortName": "Discount Store", "icon": {"prefix": "https://ss3.4sqi.net/img/categories_v2/shops/discountstore_", "suffix": ".png"}, "primary": true}], "photos": {"count": 0, "groups": []}}, "referralId": "e-0-4ca27c371ee76dcbb919f1dd-22"}, {"reasons": {"count": 0, "items": [{"summary": "This spot is popular", "type": "general", "reasonName": "globalInteractionReason"}]}, "venue": {"id": "596ee4bc419a9e73cd9b7ab7", "name": "Shoppers Drug Mart", "location": {"address": "1400 Dupont St", "crossStreet": "Lansdowne Avenue", "lat": 43.666745, "lng": -79.447446, "labeledLatLngs": [{"label": "display", "lat": 43.666745, "lng": -79.447446}], "distance": 487, "postalCode": "M6H 2B2", "cc": "CA", "city": "Toronto", "state": "ON", "country": "Canada", "formattedAddress": ["1400 Dupont St (Lansdowne Avenue)", "Toronto ON M6H 2B2", "Canada"]}, "categories": [{"id": "4bf58dd8d48988d10f951735", "name": "Pharmacy", "pluralName": "Pharmacies", "shortName": "Pharmacy", "icon": {"prefix": "https://ss3.4sqi.net/img/categories_v2/shops/pharmacy_", "suffix": ".png"}, "primary": true}], "photos": {"count": 0, "groups": []}}, "referralId": "e-0-596ee4bc419a9e73cd9b7ab7-23"}, {"reasons": {"count": 0, "items": [{"summary": "This spot is popular", "type": "general", "reasonName": "globalInteractionReason"}]}, "venue": {"id": "4bb4b34b8786ef3bc7866533", "name": "Rexall", "location": {"address": "1245 Dupont St", "crossStreet": "btwn Dufferin & Emerson", "lat": 43.667504, "lng": -79.442086, "labeledLatLngs": [{"label": "display", "lat": 43.667504, "lng": -79.442086}], "distance": 167, "postalCode": "M6H 2A6", "cc": "CA", "city": "Toronto", "state": "ON", "country": "Canada", "formattedAddress": ["1245 Dupont St (btwn Dufferin & Emerson)", "Toronto ON M6H 2A6", "Canada"]}, "categories": [{"id": "4bf58dd8d48988d10f951735", "name": "Pharmacy", "pluralName": "Pharmacies", "shortName": "Pharmacy", "icon": {"prefix": "https://ss3.4sqi.net/img/categories_v2/shops/pharmacy_", "suffix": ".png"}, "primary": true}], "photos": {"count": 0, "groups": []}}, "referralId": "e-0-4bb4b34b8786ef3bc7866533-24"}, {"reasons": {"count": 0, "items": [{"summary": "This spot is popular", "type": "general", "reasonName": "globalInteractionReason"}]}, "venue": {"id": "4c51ca66b6dabe9a06ef5112", "name": "Wallace Emerson Park", "location": {"address": "1260 Dufferin St", "lat": 43.66693250395496, "lng": -79.4394486237563, "labeledLatLngs": [{"label": "display", "lat": 43.66693250395496, "lng": -79.4394486237563}], "distance": 323, "postalCode": "M6H 4C3", "cc": "CA", "city": "Toronto", "state": "ON", "country": "Canada", "formattedAddress": ["1260 Dufferin St", "Toronto ON M6H 4C3", "Canada"]}, "categories": [{"id": "4bf58dd8d48988d163941735", "name": "Park", "pluralName": "Parks", "shortName": "Park", "icon": {"prefix": "https://ss3.4sqi.net/img/categories_v2/parks_outdoors/park_", "suffix": ".png"}, "primary": true}], "photos": {"count": 0, "groups": []}}, "referralId": "e-0-4c51ca66b6dabe9a06ef5112-25"}, {"reasons": {"count": 0, "items": [{"summary": "This spot is popular", "type": "general", "reasonName": "globalInteractionReason"}]}, "venue": {"id": "4da781ab0cb65e9aae54e9ea", "name": "Earlscourt Park Off-Leash Area", "location": {"address": "1200 Lansdowne Ave", "lat": 43.671952771572506, "lng": -79.44922904751769, "labeledLatLngs": [{"label": "display", "lat": 43.671952771572506, "lng": -79.44922904751769}], "distance": 650, "postalCode": "M6E 1C3", "cc": "CA", "city": "Toronto", "state": "ON", "country": "Canada", "formattedAddress": ["1200 Lansdowne Ave", "Toronto ON M6E 1C3", "Canada"]}, "categories": [{"id": "4bf58dd8d48988d1e5941735", "name": "Dog Run", "pluralName": "Dog Runs", "shortName": "Dog Run", "icon": {"prefix": "https://ss3.4sqi.net/img/categories_v2/parks_outdoors/dogrun_", "suffix": ".png"}, "primary": true}], "photos": {"count": 0, "groups": []}}, "referralId": "e-0-4da781ab0cb65e9aae54e9ea-26"}, {"reasons": {"count": 0, "items": [{"summary": "This spot is popular", "type": "general", "reasonName": "globalInteractionReason"}]}, "venue": {"id": "5998aa934940bc4de5bfdaca", "name": "North Of Brooklyn Pizzeria", "location": {"lat": 43.669467, "lng": -79.439335, "labeledLatLngs": [{"label": "display", "lat": 43.669467, "lng": -79.439335}], "distance": 241, "postalCode": "M6H", "cc": "CA", "city": "Toronto", "state": "ON", "country": "Canada", "formattedAddress": ["Toronto ON M6H", "Canada"]}, "categories": [{"id": "4bf58dd8d48988d1ca941735", "name": "Pizza Place", "pluralName": "Pizza Places", "shortName": "Pizza", "icon": {"prefix": "https://ss3.4sqi.net/img/categories_v2/food/pizza_", "suffix": ".png"}, "primary": true}], "photos": {"count": 0, "groups": []}}, "referralId": "e-0-5998aa934940bc4de5bfdaca-27"}, {"reasons": {"count": 0, "items": [{"summary": "This spot is popular", "type": "general", "reasonName": "globalInteractionReason"}]}, "venue": {"id": "5bf2dd6b005ac10033a70a13", "name": "Lynx Music", "location": {"address": "260 Emerson Ave", "lat": 43.667425, "lng": -79.444994, "labeledLatLngs": [{"label": "display", "lat": 43.667425, "lng": -79.444994}], "distance": 281, "postalCode": "M6H 2A7", "cc": "CA", "city": "Toronto", "state": "ON", "country": "Canada", "formattedAddress": ["260 Emerson Ave", "Toronto ON M6H 2A7", "Canada"]}, "categories": [{"id": "52f2ab2ebcbc57f1066b8b37", "name": "Recording Studio", "pluralName": "Recording Studios", "shortName": "Recording Studio", "icon": {"prefix": "https://ss3.4sqi.net/img/categories_v2/building/school_music_", "suffix": ".png"}, "primary": true}], "photos": {"count": 0, "groups": []}}, "referralId": "e-0-5bf2dd6b005ac10033a70a13-28"}, {"reasons": {"count": 0, "items": [{"summary": "This spot is popular", "type": "general", "reasonName": "globalInteractionReason"}]}, "venue": {"id": "4d081db184ec224b73122862", "name": "Rush Hour", "location": {"address": "1438A Dufferin Street", "crossStreet": "Chandos Avenue", "lat": 43.671182993989646, "lng": -79.44031341350525, "labeledLatLngs": [{"label": "display", "lat": 43.671182993989646, "lng": -79.44031341350525}], "distance": 288, "postalCode": "M6H", "cc": "CA", "city": "Toronto", "state": "ON", "country": "Canada", "formattedAddress": ["1438A Dufferin Street (Chandos Avenue)", "Toronto ON M6H", "Canada"]}, "categories": [{"id": "4def73e84765ae376e57713a", "name": "Portuguese Restaurant", "pluralName": "Portuguese Restaurants", "shortName": "Portuguese", "icon": {"prefix": "https://ss3.4sqi.net/img/categories_v2/food/portuguese_", "suffix": ".png"}, "primary": true}], "photos": {"count": 0, "groups": []}}, "referralId": "e-0-4d081db184ec224b73122862-29"}, {"reasons": {"count": 0, "items": [{"summary": "This spot is popular", "type": "general", "reasonName": "globalInteractionReason"}]}, "venue": {"id": "4ed054320e01f1a87fc40d95", "name": "Cooper Cole Gallery", "location": {"address": "1134 Dupont St", "crossStreet": "at Gladstone Ave", "lat": 43.668864978053634, "lng": -79.43763256072998, "labeledLatLngs": [{"label": "display", "lat": 43.668864978053634, "lng": -79.43763256072998}], "distance": 372, "postalCode": "M6H 2A2", "cc": "CA", "city": "Toronto", "state": "ON", "country": "Canada", "formattedAddress": ["1134 Dupont St (at Gladstone Ave)", "Toronto ON M6H 2A2", "Canada"]}, "categories": [{"id": "4bf58dd8d48988d1e2931735", "name": "Art Gallery", "pluralName": "Art Galleries", "shortName": "Art Gallery", "icon": {"prefix": "https://ss3.4sqi.net/img/categories_v2/arts_entertainment/artgallery_", "suffix": ".png"}, "primary": true}], "photos": {"count": 0, "groups": []}}, "referralId": "e-0-4ed054320e01f1a87fc40d95-30"}, {"reasons": {"count": 0, "items": [{"summary": "This spot is popular", "type": "general", "reasonName": "globalInteractionReason"}]}, "venue": {"id": "4bc901e6b6c49c748fac8d91", "name": "The Beer Store", "location": {"address": "323 Symington Ave", "crossStreet": "at Dupont St", "lat": 43.6662561, "lng": -79.4510532, "labeledLatLngs": [{"label": "display", "lat": 43.6662561, "lng": -79.4510532}], "distance": 771, "postalCode": "M6P 3X1", "cc": "CA", "city": "Toronto", "state": "ON", "country": "Canada", "formattedAddress": ["323 Symington Ave (at Dupont St)", "Toronto ON M6P 3X1", "Canada"]}, "categories": [{"id": "5370f356bcbc57f1066c94c2", "name": "Beer Store", "pluralName": "Beer Stores", "shortName": "Beer Store", "icon": {"prefix": "https://ss3.4sqi.net/img/categories_v2/nightlife/beergarden_", "suffix": ".png"}, "primary": true}], "photos": {"count": 0, "groups": []}}, "referralId": "e-0-4bc901e6b6c49c748fac8d91-31"}, {"reasons": {"count": 0, "items": [{"summary": "This spot is popular", "type": "general", "reasonName": "globalInteractionReason"}]}, "venue": {"id": "4c8955fcda5da1cd3daa3be9", "name": "Foundry Lofts - Gym", "location": {"address": "1100 Lansdowne", "lat": 43.67086464695007, "lng": -79.44843571171634, "labeledLatLngs": [{"label": "display", "lat": 43.67086464695007, "lng": -79.44843571171634}], "distance": 538, "cc": "CA", "city": "Toronto", "state": "ON", "country": "Canada", "formattedAddress": ["1100 Lansdowne", "Toronto ON", "Canada"]}, "categories": [{"id": "4bf58dd8d48988d176941735", "name": "Gym", "pluralName": "Gyms", "shortName": "Gym", "icon": {"prefix": "https://ss3.4sqi.net/img/categories_v2/building/gym_", "suffix": ".png"}, "primary": true}], "photos": {"count": 0, "groups": []}}, "referralId": "e-0-4c8955fcda5da1cd3daa3be9-32"}, {"reasons": {"count": 0, "items": [{"summary": "This spot is popular", "type": "general", "reasonName": "globalInteractionReason"}]}, "venue": {"id": "4c9cfa0d46978cfad224937f", "name": "Pepper's Caf\u00e9", "location": {"address": "189 Wallace Ave.", "crossStreet": "at Lansdowne Ave.", "lat": 43.662309899548795, "lng": -79.44461131976689, "labeledLatLngs": [{"label": "display", "lat": 43.662309899548795, "lng": -79.44461131976689}], "distance": 768, "postalCode": "M6H 1V5", "cc": "CA", "city": "Toronto", "state": "ON", "country": "Canada", "formattedAddress": ["189 Wallace Ave. (at Lansdowne Ave.)", "Toronto ON M6H 1V5", "Canada"]}, "categories": [{"id": "4bf58dd8d48988d16d941735", "name": "Caf\u00e9", "pluralName": "Caf\u00e9s", "shortName": "Caf\u00e9", "icon": {"prefix": "https://ss3.4sqi.net/img/categories_v2/food/cafe_", "suffix": ".png"}, "primary": true}], "photos": {"count": 0, "groups": []}}, "referralId": "e-0-4c9cfa0d46978cfad224937f-33"}, {"reasons": {"count": 0, "items": [{"summary": "This spot is popular", "type": "general", "reasonName": "globalInteractionReason"}]}, "venue": {"id": "5066fc5be4b01301ebf02337", "name": "Davenport Village Park", "location": {"lat": 43.67108887242099, "lng": -79.44899293998914, "labeledLatLngs": [{"label": "display", "lat": 43.67108887242099, "lng": -79.44899293998914}], "distance": 589, "cc": "CA", "country": "Canada", "formattedAddress": ["Canada"]}, "categories": [{"id": "4bf58dd8d48988d163941735", "name": "Park", "pluralName": "Parks", "shortName": "Park", "icon": {"prefix": "https://ss3.4sqi.net/img/categories_v2/parks_outdoors/park_", "suffix": ".png"}, "primary": true}], "photos": {"count": 0, "groups": []}}, "referralId": "e-0-5066fc5be4b01301ebf02337-34"}, {"reasons": {"count": 0, "items": [{"summary": "This spot is popular", "type": "general", "reasonName": "globalInteractionReason"}]}, "venue": {"id": "4ecea8d57ee5be84492ee426", "name": "Skor Cash And Carry", "location": {"lat": 43.66609314753778, "lng": -79.44881162369391, "labeledLatLngs": [{"label": "display", "lat": 43.66609314753778, "lng": -79.44881162369391}], "distance": 619, "cc": "CA", "city": "Toronto", "state": "ON", "country": "Canada", "formattedAddress": ["Toronto ON", "Canada"]}, "categories": [{"id": "4bf58dd8d48988d118951735", "name": "Grocery Store", "pluralName": "Grocery Stores", "shortName": "Grocery Store", "icon": {"prefix": "https://ss3.4sqi.net/img/categories_v2/shops/food_grocery_", "suffix": ".png"}, "primary": true}], "photos": {"count": 0, "groups": []}}, "referralId": "e-0-4ecea8d57ee5be84492ee426-35"}, {"reasons": {"count": 0, "items": [{"summary": "This spot is popular", "type": "general", "reasonName": "globalInteractionReason"}]}, "venue": {"id": "4d7bb973f260a093e5b62cba", "name": "Salem Smoke Shop", "location": {"address": "1281 Davenport Road", "crossStreet": "Salem", "lat": 43.67398524055055, "lng": -79.43731104476372, "labeledLatLngs": [{"label": "display", "lat": 43.67398524055055, "lng": -79.43731104476372}], "distance": 682, "cc": "CA", "city": "Toronto", "state": "ON", "country": "Canada", "formattedAddress": ["1281 Davenport Road (Salem)", "Toronto ON", "Canada"]}, "categories": [{"id": "4bf58dd8d48988d123951735", "name": "Smoke Shop", "pluralName": "Smoke Shops", "shortName": "Smoke Shop", "icon": {"prefix": "https://ss3.4sqi.net/img/categories_v2/shops/tobacco_", "suffix": ".png"}, "primary": true}], "photos": {"count": 0, "groups": []}}, "referralId": "e-0-4d7bb973f260a093e5b62cba-36"}, {"reasons": {"count": 0, "items": [{"summary": "This spot is popular", "type": "general", "reasonName": "globalInteractionReason"}]}, "venue": {"id": "4bc4e3594cdfc9b6e1509921", "name": "Henriques Supermarket", "location": {"address": "152 Wallace Ave", "crossStreet": "at Emerson Ave", "lat": 43.66268094573783, "lng": -79.44252639704843, "labeledLatLngs": [{"label": "display", "lat": 43.66268094573783, "lng": -79.44252639704843}], "distance": 704, "postalCode": "M6H 1V2", "cc": "CA", "city": "Toronto", "state": "ON", "country": "Canada", "formattedAddress": ["152 Wallace Ave (at Emerson Ave)", "Toronto ON M6H 1V2", "Canada"]}, "categories": [{"id": "4bf58dd8d48988d118951735", "name": "Grocery Store", "pluralName": "Grocery Stores", "shortName": "Grocery Store", "icon": {"prefix": "https://ss3.4sqi.net/img/categories_v2/shops/food_grocery_", "suffix": ".png"}, "primary": true}], "photos": {"count": 0, "groups": []}}, "referralId": "e-0-4bc4e3594cdfc9b6e1509921-37"}, {"reasons": {"count": 0, "items": [{"summary": "This spot is popular", "type": "general", "reasonName": "globalInteractionReason"}]}, "venue": {"id": "50bcf45fd63e3376cc00ad91", "name": "Total Cleanse", "location": {"address": "1080 Dovercourt Rd", "crossStreet": "Corner of Dupont St. and Dovercourt Rd", "lat": 43.66951686682728, "lng": -79.43276166915894, "labeledLatLngs": [{"label": "display", "lat": 43.66951686682728, "lng": -79.43276166915894}], "distance": 766, "postalCode": "M6H 2X8", "cc": "CA", "city": "Toronto", "state": "ON", "country": "Canada", "formattedAddress": ["1080 Dovercourt Rd (Corner of Dupont St. and Dovercourt Rd)", "Toronto ON M6H 2X8", "Canada"]}, "categories": [{"id": "4bf58dd8d48988d112941735", "name": "Juice Bar", "pluralName": "Juice Bars", "shortName": "Juice Bar", "icon": {"prefix": "https://ss3.4sqi.net/img/categories_v2/food/juicebar_", "suffix": ".png"}, "primary": true}], "photos": {"count": 0, "groups": []}, "venuePage": {"id": "42695937"}}, "referralId": "e-0-50bcf45fd63e3376cc00ad91-38"}, {"reasons": {"count": 0, "items": [{"summary": "This spot is popular", "type": "general", "reasonName": "globalInteractionReason"}]}, "venue": {"id": "4bdb32f12a3a0f4769e3adb6", "name": "FilmPlus", "location": {"address": "327 Symington ave", "lat": 43.66614871581859, "lng": -79.45127230485116, "labeledLatLngs": [{"label": "display", "lat": 43.66614871581859, "lng": -79.45127230485116}], "distance": 792, "cc": "CA", "city": "Toronto", "state": "ON", "country": "Canada", "formattedAddress": ["327 Symington ave", "Toronto ON", "Canada"]}, "categories": [{"id": "4bf58dd8d48988d1fb941735", "name": "Hobby Shop", "pluralName": "Hobby Shops", "shortName": "Hobbies", "icon": {"prefix": "https://ss3.4sqi.net/img/categories_v2/shops/hobbyshop_", "suffix": ".png"}, "primary": true}], "photos": {"count": 0, "groups": []}}, "referralId": "e-0-4bdb32f12a3a0f4769e3adb6-39"}]}]}}