{"meta": {"code": 200, "requestId": "5e1973d2c8cff2001b363428"}, "response": {"suggestedFilters": {"header": "Tap to show:", "filters": [{"name": "Open now", "key": "openNow"}]}, "headerLocation": "Parkdale", "headerFullLocation": "Parkdale, Toronto", "headerLocationGranularity": "neighborhood", "totalResults": 63, "suggestedBounds": {"ne": {"lat": 43.643174206327004, "lng": -79.4194654819546}, "sw": {"lat": 43.63052019367299, "lng": -79.43691731804543}}, "groups": [{"type": "Recommended Places", "name": "recommended", "items": [{"reasons": {"count": 0, "items": [{"summary": "This spot is popular", "type": "general", "reasonName": "globalInteractionReason"}]}, "venue": {"id": "544e9ee6498e2c55cc71bd07", "name": "Starbucks", "location": {"address": "1200 King St W", "crossStreet": "Dufferin Street", "lat": 43.63909, "lng": -79.427622, "labeledLatLngs": [{"label": "display", "lat": 43.63909, "lng": -79.427622}], "distance": 253, "postalCode": "M6K 1G4", "cc": "CA", "city": "Toronto", "state": "ON", "country": "Canada", "formattedAddress": ["1200 King St W (Dufferin Street)", "Toronto ON M6K 1G4", "Canada"]}, "categories": [{"id": "4bf58dd8d48988d1e0931735", "name": "Coffee Shop", "pluralName": "Coffee Shops", "shortName": "Coffee Shop", "icon": {"prefix": "https://ss3.4sqi.net/img/categories_v2/food/coffeeshop_", "suffix": ".png"}, "primary": true}], "photos": {"count": 0, "groups": []}}, "referralId": "e-0-544e9ee6498e2c55cc71bd07-0"}, {"reasons": {"count": 0, "items": [{"summary": "This spot is popular", "type": "general", "reasonName": "globalInteractionReason"}]}, "venue": {"id": "50dfbed9e4b01ebc5ced2ae3", "name": "Pharmacy", "location": {"address": "1318 King St. W.", "crossStreet": "King & Cowan", "lat": 43.638089904034146, "lng": -79.43180974511733, "labeledLatLngs": [{"label": "display", "lat": 43.638089904034146, "lng": -79.43180974511733}], "distance": 322, "cc": "CA", "city": "Toronto", "state": "ON", "country": "Canada", "formattedAddress": ["1318 King St. W. (King & Cowan)", "Toronto ON", "Canada"]}, "categories": [{"id": "4bf58dd8d48988d116941735", "name": "Bar", "pluralName": "Bars", "shortName": "Bar", "icon": {"prefix": "https://ss3.4sqi.net/img/categories_v2/nightlife/pub_", "suffix": ".png"}, "primary": true}], "photos": {"count": 0, "groups": []}}, "referralId": "e-0-50dfbed9e4b01ebc5ced2ae3-1"}, {"reasons": {"count": 0, "items": [{"summary": "This spot is popular", "type": "general", "reasonName": "globalInteractionReason"}]}, "venue": {"id": "4f54ef6ce4b0929810978bb6", "name": "Reebok Crossfit Liberty Village", "location": {"address": "Liberty Village", "lat": 43.637035591932005, "lng": -79.42480199455974, "labeledLatLngs": [{"label": "display", "lat": 43.637035591932005, "lng": -79.42480199455974}], "distance": 273, "cc": "CA", "city": "Toronto", "state": "ON", "country": "Canada", "formattedAddress": ["Liberty Village", "Toronto ON", "Canada"]}, "categories": [{"id": "4bf58dd8d48988d176941735", "name": "Gym", "pluralName": "Gyms", "shortName": "Gym", "icon": {"prefix": "https://ss3.4sqi.net/img/categories_v2/building/gym_", "suffix": ".png"}, "primary": true}], "photos": {"count": 0, "groups": []}}, "referralId": "e-0-4f54ef6ce4b0929810978bb6-2"}, {"reasons": {"count": 0, "items": [{"summary": "This spot is popular", "type": "general", "reasonName": "globalInteractionReason"}]}, "venue": {"id": "4b632632f964a52085662ae3", "name": "Caffino", "location": {"address": "1185 King St W", "crossStreet": "at Fraser Ave", "lat": 43.63902121044261, "lng": -79.42528923382933, "labeledLatLngs": [{"label": "display", "lat": 43.63902121044261, "lng": -79.42528923382933}], "distance": 336, "cc": "CA", "city": "Toronto", "state": "ON", "country": "Canada", "formattedAddress": ["1185 King St W (at Fraser Ave)", "Toronto ON", "Canada"]}, "categories": [{"id": "4bf58dd8d48988d110941735", "name": "Italian Restaurant", "pluralName": "Italian Restaurants", "shortName": "Italian", "icon": {"prefix": "https://ss3.4sqi.net/img/categories_v2/food/italian_", "suffix": ".png"}, "primary": true}], "photos": {"count": 0, "groups": []}}, "referralId": "e-0-4b632632f964a52085662ae3-3"}, {"reasons": {"count": 0, "items": [{"summary": "This spot is popular", "type": "general", "reasonName": "globalInteractionReason"}]}, "venue": {"id": "5374b6f4498e371df1066313", "name": "Louie Craft Coffee", "location": {"address": "1187 King St W", "lat": 43.639283775543895, "lng": -79.42561998986335, "labeledLatLngs": [{"label": "display", "lat": 43.639283775543895, "lng": -79.42561998986335}], "distance": 341, "cc": "CA", "city": "Toronto", "state": "ON", "country": "Canada", "formattedAddress": ["1187 King St W", "Toronto ON", "Canada"]}, "categories": [{"id": "4bf58dd8d48988d1e0931735", "name": "Coffee Shop", "pluralName": "Coffee Shops", "shortName": "Coffee Shop", "icon": {"prefix": "https://ss3.4sqi.net/img/categories_v2/food/coffeeshop_", "suffix": ".png"}, "primary": true}], "photos": {"count": 0, "groups": []}}, "referralId": "e-0-5374b6f4498e371df1066313-4"}, {"reasons": {"count": 0, "items": [{"summary": "This spot is popular", "type": "general", "reasonName": "globalInteractionReason"}]}, "venue": {"id": "4cdeecddf8a4a14330b8dabc", "name": "The Abbott", "location": {"address": "99 Spencer Ave", "crossStreet": "King and Dufferin", "lat": 43.637996211047366, "lng": -79.43071653853734, "labeledLatLngs": [{"label": "display", "lat": 43.637996211047366, "lng": -79.43071653853734}], "distance": 240, "cc": "CA", "city": "Toronto", "state": "ON", "country": "Canada", "formattedAddress": ["99 Spencer Ave (King and Dufferin)", "Toronto ON", "Canada"]}, "categories": [{"id": "4bf58dd8d48988d16d941735", "name": "Caf\u00e9", "pluralName": "Caf\u00e9s", "shortName": "Caf\u00e9", "icon": {"prefix": "https://ss3.4sqi.net/img/categories_v2/food/cafe_", "suffix": ".png"}, "primary": true}], "photos": {"count": 0, "groups": []}}, "referralId": "e-0-4cdeecddf8a4a14330b8dabc-5"}, {"reasons": {"count": 0, "items": [{"summary": "This spot is popular", "type": "general", "reasonName": "globalInteractionReason"}]}, "venue": {"id": "4ae094a7f964a5208f8021e3", "name": "SCHOOL Restaurant", "location": {"address": "70 Fraser Ave.", "crossStreet": "at Liberty St.", "lat": 43.6377753703417, "lng": -79.42429737067897, "labeledLatLngs": [{"label": "display", "lat": 43.6377753703417, "lng": -79.42429737067897}], "distance": 330, "postalCode": "M6K 3C5", "cc": "CA", "city": "Toronto", "state": "ON", "country": "Canada", "formattedAddress": ["70 Fraser Ave. (at Liberty St.)", "Toronto ON M6K 3C5", "Canada"]}, "categories": [{"id": "4bf58dd8d48988d143941735", "name": "Breakfast Spot", "pluralName": "Breakfast Spots", "shortName": "Breakfast", "icon": {"prefix": "https://ss3.4sqi.net/img/categories_v2/food/breakfast_", "suffix": ".png"}, "primary": true}], "photos": {"count": 0, "groups": []}, "venuePage": {"id": "38118429"}}, "referralId": "e-0-4ae094a7f964a5208f8021e3-6"}, {"reasons": {"count": 0, "items": [{"summary": "This spot is popular", "type": "general", "reasonName": "globalInteractionReason"}]}, "venue": {"id": "53138bf2498efd6bbc73871b", "name": "Structube", "location": {"address": "1112 King Street West", "crossStreet": "Joe Shuster Way", "lat": 43.63983635997934, "lng": -79.42364186555774, "labeledLatLngs": [{"label": "display", "lat": 43.63983635997934, "lng": -79.42364186555774}], "distance": 495, "postalCode": "M6K 1E6", "cc": "CA", "city": "Toronto", "state": "ON", "country": "Canada", "formattedAddress": ["1112 King Street West (Joe Shuster Way)", "Toronto ON M6K 1E6", "Canada"]}, "categories": [{"id": "4bf58dd8d48988d1f8941735", "name": "Furniture / Home Store", "pluralName": "Furniture / Home Stores", "shortName": "Furniture / Home", "icon": {"prefix": "https://ss3.4sqi.net/img/categories_v2/shops/furniture_", "suffix": ".png"}, "primary": true}], "photos": {"count": 0, "groups": []}}, "referralId": "e-0-53138bf2498efd6bbc73871b-7"}, {"reasons": {"count": 0, "items": [{"summary": "This spot is popular", "type": "general", "reasonName": "globalInteractionReason"}]}, "venue": {"id": "4c55c728fd2ea593ac79512c", "name": "Pet Valu", "location": {"address": "1176 King St W", "crossStreet": "at Dufferin St", "lat": 43.63908935811652, "lng": -79.42682834187295, "labeledLatLngs": [{"label": "display", "lat": 43.63908935811652, "lng": -79.42682834187295}], "distance": 272, "postalCode": "M6K 1E6", "cc": "CA", "city": "Toronto", "state": "ON", "country": "Canada", "formattedAddress": ["1176 King St W (at Dufferin St)", "Toronto ON M6K 1E6", "Canada"]}, "categories": [{"id": "4bf58dd8d48988d100951735", "name": "Pet Store", "pluralName": "Pet Stores", "shortName": "Pet Store", "icon": {"prefix": "https://ss3.4sqi.net/img/categories_v2/shops/pet_store_", "suffix": ".png"}, "primary": true}], "photos": {"count": 0, "groups": []}}, "referralId": "e-0-4c55c728fd2ea593ac79512c-8"}, {"reasons": {"count": 0, "items": [{"summary": "This spot is popular", "type": "general", "reasonName": "globalInteractionReason"}]}, "venue": {"id": "5b55f1c1b9a5a8002c6b9b86", "name": "Brodflour", "location": {"address": "8 Pardee Ave", "crossStreet": "Liberty St", "lat": 43.637535, "lng": -79.422761, "labeledLatLngs": [{"label": "display", "lat": 43.637535, "lng": -79.422761}], "distance": 444, "postalCode": "M6K 3H5", "cc": "CA", "city": "Toronto", "state": "ON", "country": "Canada", "formattedAddress": ["8 Pardee Ave (Liberty St)", "Toronto ON M6K 3H5", "Canada"]}, "categories": [{"id": "4bf58dd8d48988d16a941735", "name": "Bakery", "pluralName": "Bakeries", "shortName": "Bakery", "icon": {"prefix": "https://ss3.4sqi.net/img/categories_v2/food/bakery_", "suffix": ".png"}, "primary": true}], "photos": {"count": 0, "groups": []}}, "referralId": "e-0-5b55f1c1b9a5a8002c6b9b86-9"}, {"reasons": {"count": 0, "items": [{"summary": "This spot is popular", "type": "general", "reasonName": "globalInteractionReason"}]}, "venue": {"id": "57e2c618498eb1f1b938166c", "name": "Pretty Ugly", "location": {"address": "1237 Queen Street West", "lat": 43.641818909354356, "lng": -79.4303681460792, "labeledLatLngs": [{"label": "display", "lat": 43.641818909354356, "lng": -79.4303681460792}], "distance": 580, "postalCode": "M6K 1L5", "cc": "CA", "city": "Toronto", "state": "ON", "country": "Canada", "formattedAddress": ["1237 Queen Street West", "Toronto ON M6K 1L5", "Canada"]}, "categories": [{"id": "4bf58dd8d48988d11e941735", "name": "Cocktail Bar", "pluralName": "Cocktail Bars", "shortName": "Cocktail", "icon": {"prefix": "https://ss3.4sqi.net/img/categories_v2/nightlife/cocktails_", "suffix": ".png"}, "primary": true}], "photos": {"count": 0, "groups": []}}, "referralId": "e-0-57e2c618498eb1f1b938166c-10"}, {"reasons": {"count": 0, "items": [{"summary": "This spot is popular", "type": "general", "reasonName": "globalInteractionReason"}]}, "venue": {"id": "4b6f05a9f964a52082d72ce3", "name": "The Workroom", "location": {"address": "1340 Queen St. W", "lat": 43.64154136955292, "lng": -79.43121671676634, "labeledLatLngs": [{"label": "display", "lat": 43.64154136955292, "lng": -79.43121671676634}], "distance": 576, "postalCode": "M6K 1L4", "cc": "CA", "city": "Toronto", "state": "ON", "country": "Canada", "formattedAddress": ["1340 Queen St. W", "Toronto ON M6K 1L4", "Canada"]}, "categories": [{"id": "4bf58dd8d48988d127951735", "name": "Arts & Crafts Store", "pluralName": "Arts & Crafts Stores", "shortName": "Arts & Crafts", "icon": {"prefix": "https://ss3.4sqi.net/img/categories_v2/shops/artstore_", "suffix": ".png"}, "primary": true}], "photos": {"count": 0, "groups": []}}, "referralId": "e-0-4b6f05a9f964a52082d72ce3-11"}, {"reasons": {"count": 0, "items": [{"summary": "This spot is popular", "type": "general", "reasonName": "globalInteractionReason"}]}, "venue": {"id": "56dc4b13498ed71007d66a0a", "name": "Plentea Tea Bar", "location": {"address": "1205 Queen St W", "crossStreet": "at Dufferin St", "lat": 43.642064, "lng": -79.428805, "labeledLatLngs": [{"label": "display", "lat": 43.642064, "lng": -79.428805}], "distance": 582, "postalCode": "M6K 0B9", "cc": "CA", "neighborhood": "Parkdale", "city": "Toronto", "state": "ON", "country": "Canada", "formattedAddress": ["1205 Queen St W (at Dufferin St)", "Toronto ON M6K 0B9", "Canada"]}, "categories": [{"id": "4bf58dd8d48988d1dc931735", "name": "Tea Room", "pluralName": "Tea Rooms", "shortName": "Tea Room", "icon": {"prefix": "https://ss3.4sqi.net/img/categories_v2/food/tearoom_", "suffix": ".png"}, "primary": true}], "photos": {"count": 0, "groups": []}}, "referralId": "e-0-56dc4b13498ed71007d66a0a-12"}, {"reasons": {"count": 0, "items": [{"summary": "This spot is popular", "type": "general", "reasonName": "globalInteractionReason"}]}, "venue": {"id": "4b62440bf964a520653f2ae3", "name": "Joe Rockhead's Climbing Gym", "location": {"address": "29 Fraser Ave.", "crossStreet": "at Liberty St.", "lat": 43.636342324798676, "lng": -79.423582112592, "labeledLatLngs": [{"label": "display", "lat": 43.636342324798676, "lng": -79.423582112592}], "distance": 375, "postalCode": "M6K 1Y7", "cc": "CA", "city": "Toronto", "state": "ON", "country": "Canada", "formattedAddress": ["29 Fraser Ave. (at Liberty St.)", "Toronto ON M6K 1Y7", "Canada"]}, "categories": [{"id": "503289d391d4c4b30a586d6a", "name": "Climbing Gym", "pluralName": "Climbing Gyms", "shortName": "Climbing Gym", "icon": {"prefix": "https://ss3.4sqi.net/img/categories_v2/building/gym_", "suffix": ".png"}, "primary": true}], "photos": {"count": 0, "groups": []}}, "referralId": "e-0-4b62440bf964a520653f2ae3-13"}, {"reasons": {"count": 0, "items": [{"summary": "This spot is popular", "type": "general", "reasonName": "globalInteractionReason"}]}, "venue": {"id": "4f52cc47e4b07de37c02b4d4", "name": "Chantecler", "location": {"address": "1320 Queen St W", "crossStreet": "at Elm Grove Ave", "lat": 43.641754575822084, "lng": -79.4312263660021, "labeledLatLngs": [{"label": "display", "lat": 43.641754575822084, "lng": -79.4312263660021}], "distance": 598, "postalCode": "M6K 1L4", "cc": "CA", "city": "Toronto", "state": "ON", "country": "Canada", "formattedAddress": ["1320 Queen St W (at Elm Grove Ave)", "Toronto ON M6K 1L4", "Canada"]}, "categories": [{"id": "4bf58dd8d48988d10c941735", "name": "French Restaurant", "pluralName": "French Restaurants", "shortName": "French", "icon": {"prefix": "https://ss3.4sqi.net/img/categories_v2/food/french_", "suffix": ".png"}, "primary": true}], "photos": {"count": 0, "groups": []}}, "referralId": "e-0-4f52cc47e4b07de37c02b4d4-14"}, {"reasons": {"count": 0, "items": [{"summary": "This spot is popular", "type": "general", "reasonName": "globalInteractionReason"}]}, "venue": {"id": "5792a2e4cd10f4e248ad94e2", "name": "Guu Izakaya", "location": {"address": "1314 Queen Street West", "lat": 43.641845549029775, "lng": -79.43108645308222, "labeledLatLngs": [{"label": "display", "lat": 43.641845549029775, "lng": -79.43108645308222}], "distance": 603, "postalCode": "M6K 1L4", "cc": "CA", "city": "Toronto", "state": "ON", "country": "Canada", "formattedAddress": ["1314 Queen Street West", "Toronto ON M6K 1L4", "Canada"]}, "categories": [{"id": "4bf58dd8d48988d111941735", "name": "Japanese Restaurant", "pluralName": "Japanese Restaurants", "shortName": "Japanese", "icon": {"prefix": "https://ss3.4sqi.net/img/categories_v2/food/japanese_", "suffix": ".png"}, "primary": true}], "photos": {"count": 0, "groups": []}}, "referralId": "e-0-5792a2e4cd10f4e248ad94e2-15"}, {"reasons": {"count": 0, "items": [{"summary": "This spot is popular", "type": "general", "reasonName": "globalInteractionReason"}]}, "venue": {"id": "4ad4c05ff964a52022f720e3", "name": "Medieval Times", "location": {"address": "10 Dufferin St.", "crossStreet": "at British Columbia Dr.", "lat": 43.63267377820855, "lng": -79.42570460839345, "labeledLatLngs": [{"label": "display", "lat": 43.63267377820855, "lng": -79.42570460839345}], "distance": 505, "postalCode": "M6K 3C3", "cc": "CA", "city": "Toronto", "state": "ON", "country": "Canada", "formattedAddress": ["10 Dufferin St. (at British Columbia Dr.)", "Toronto ON M6K 3C3", "Canada"]}, "categories": [{"id": "4bf58dd8d48988d1c4941735", "name": "Restaurant", "pluralName": "Restaurants", "shortName": "Restaurant", "icon": {"prefix": "https://ss3.4sqi.net/img/categories_v2/food/default_", "suffix": ".png"}, "primary": true}], "photos": {"count": 0, "groups": []}}, "referralId": "e-0-4ad4c05ff964a52022f720e3-16"}, {"reasons": {"count": 0, "items": [{"summary": "This spot is popular", "type": "general", "reasonName": "globalInteractionReason"}]}, "venue": {"id": "541856a8498ebf6212ae6334", "name": "The Tempered Room", "location": {"lat": 43.64131496262071, "lng": -79.43314957808886, "labeledLatLngs": [{"label": "display", "lat": 43.64131496262071, "lng": -79.43314957808886}], "distance": 637, "cc": "CA", "city": "Toronto", "state": "ON", "country": "Canada", "formattedAddress": ["Toronto ON", "Canada"]}, "categories": [{"id": "4bf58dd8d48988d16a941735", "name": "Bakery", "pluralName": "Bakeries", "shortName": "Bakery", "icon": {"prefix": "https://ss3.4sqi.net/img/categories_v2/food/bakery_", "suffix": ".png"}, "primary": true}], "photos": {"count": 0, "groups": []}}, "referralId": "e-0-541856a8498ebf6212ae6334-17"}, {"reasons": {"count": 0, "items": [{"summary": "This spot is popular", "type": "general", "reasonName": "globalInteractionReason"}]}, "venue": {"id": "559f1e2f498e22a20c98cedf", "name": "Miss Thing's", "location": {"address": "1279 Queen Street West", "lat": 43.64155912824447, "lng": -79.43196184684483, "labeledLatLngs": [{"label": "display", "lat": 43.64155912824447, "lng": -79.43196184684483}], "distance": 606, "postalCode": "M6K 1L6", "cc": "CA", "city": "Toronto", "state": "ON", "country": "Canada", "formattedAddress": ["1279 Queen Street West", "Toronto ON M6K 1L6", "Canada"]}, "categories": [{"id": "52e81612bcbc57f1066b79fe", "name": "Hawaiian Restaurant", "pluralName": "Hawaiian Restaurants", "shortName": "Hawaiian", "icon": {"prefix": "https://ss3.4sqi.net/img/categories_v2/food/default_", "suffix": ".png"}, "primary": true}], "photos": {"count": 0, "groups": []}}, "referralId": "e-0-559f1e2f498e22a20c98cedf-18"}, {"reasons": {"count": 0, "items": [{"summary": "This spot is popular", "type": "general", "reasonName": "globalInteractionReason"}]}, "venue": {"id": "4ae1d132f964a520ab8721e3", "name": "Rustic Cosmo", "location": {"address": "1278 Queen St. W", "crossStreet": "Gwynne", "lat": 43.641963199483506, "lng": -79.42990295861912, "labeledLatLngs": [{"label": "display", "lat": 43.641963199483506, "lng": -79.42990295861912}], "distance": 585, "postalCode": "M6K 1L4", "cc": "CA", "city": "Toronto", "state": "ON", "country": "Canada", "formattedAddress": ["1278 Queen St. W (Gwynne)", "Toronto ON M6K 1L4", "Canada"]}, "categories": [{"id": "4bf58dd8d48988d1c5941735", "name": "Sandwich Place", "pluralName": "Sandwich Places", "shortName": "Sandwiches", "icon": {"prefix": "https://ss3.4sqi.net/img/categories_v2/food/deli_", "suffix": ".png"}, "primary": true}], "photos": {"count": 0, "groups": []}}, "referralId": "e-0-4ae1d132f964a520ab8721e3-19"}, {"reasons": {"count": 0, "items": [{"summary": "This spot is popular", "type": "general", "reasonName": "globalInteractionReason"}]}, "venue": {"id": "4ecee6d1be7b9eecde3a4aff", "name": "Grand Electric", "location": {"address": "1330 Queen St W", "crossStreet": "at Brock St", "lat": 43.64171366792598, "lng": -79.43154546779928, "labeledLatLngs": [{"label": "display", "lat": 43.64171366792598, "lng": -79.43154546779928}], "distance": 605, "postalCode": "M6K 1L4", "cc": "CA", "city": "Toronto", "state": "ON", "country": "Canada", "formattedAddress": ["1330 Queen St W (at Brock St)", "Toronto ON M6K 1L4", "Canada"]}, "categories": [{"id": "4bf58dd8d48988d1c1941735", "name": "Mexican Restaurant", "pluralName": "Mexican Restaurants", "shortName": "Mexican", "icon": {"prefix": "https://ss3.4sqi.net/img/categories_v2/food/mexican_", "suffix": ".png"}, "primary": true}], "photos": {"count": 0, "groups": []}}, "referralId": "e-0-4ecee6d1be7b9eecde3a4aff-20"}, {"reasons": {"count": 0, "items": [{"summary": "This spot is popular", "type": "general", "reasonName": "globalInteractionReason"}]}, "venue": {"id": "4ad4c05df964a52035f620e3", "name": "The Beaver Caf\u00e9", "location": {"address": "1192 Queen Street West", "lat": 43.64272526259587, "lng": -79.42641644740938, "labeledLatLngs": [{"label": "display", "lat": 43.64272526259587, "lng": -79.42641644740938}], "distance": 669, "postalCode": "M6J 1J6", "cc": "CA", "city": "Toronto", "state": "ON", "country": "Canada", "formattedAddress": ["1192 Queen Street West", "Toronto ON M6J 1J6", "Canada"]}, "categories": [{"id": "4bf58dd8d48988d16d941735", "name": "Caf\u00e9", "pluralName": "Caf\u00e9s", "shortName": "Caf\u00e9", "icon": {"prefix": "https://ss3.4sqi.net/img/categories_v2/food/cafe_", "suffix": ".png"}, "primary": true}], "photos": {"count": 0, "groups": []}, "venuePage": {"id": "64346552"}}, "referralId": "e-0-4ad4c05df964a52035f620e3-21"}, {"reasons": {"count": 0, "items": [{"summary": "This spot is popular", "type": "general", "reasonName": "globalInteractionReason"}]}, "venue": {"id": "4ad4c05cf964a520c0f520e3", "name": "Gladstone Hotel", "location": {"address": "1214 Queen St W", "crossStreet": "at Gladstone Ave.", "lat": 43.64261630118951, "lng": -79.42693584428037, "labeledLatLngs": [{"label": "display", "lat": 43.64261630118951, "lng": -79.42693584428037}], "distance": 650, "postalCode": "M6J 1J6", "cc": "CA", "city": "Toronto", "state": "ON", "country": "Canada", "formattedAddress": ["1214 Queen St W (at Gladstone Ave.)", "Toronto ON M6J 1J6", "Canada"]}, "categories": [{"id": "4bf58dd8d48988d1fa931735", "name": "Hotel", "pluralName": "Hotels", "shortName": "Hotel", "icon": {"prefix": "https://ss3.4sqi.net/img/categories_v2/travel/hotel_", "suffix": ".png"}, "primary": true}], "photos": {"count": 0, "groups": []}, "venuePage": {"id": "132579702"}}, "referralId": "e-0-4ad4c05cf964a520c0f520e3-22"}, {"reasons": {"count": 0, "items": [{"summary": "This spot is popular", "type": "general", "reasonName": "globalInteractionReason"}]}, "venue": {"id": "50e09920e4b0869e605e1f89", "name": "Crown Flora Studio", "location": {"address": "1233 Queen St W", "crossStreet": "Gwynne ave", "lat": 43.641562955700216, "lng": -79.43008019232099, "labeledLatLngs": [{"label": "display", "lat": 43.641562955700216, "lng": -79.43008019232099}], "distance": 546, "postalCode": "M6K 1L5", "cc": "CA", "city": "Toronto", "state": "ON", "country": "Canada", "formattedAddress": ["1233 Queen St W (Gwynne ave)", "Toronto ON M6K 1L5", "Canada"]}, "categories": [{"id": "4bf58dd8d48988d128951735", "name": "Gift Shop", "pluralName": "Gift Shops", "shortName": "Gift Shop", "icon": {"prefix": "https://ss3.4sqi.net/img/categories_v2/shops/giftshop_", "suffix": ".png"}, "primary": true}], "photos": {"count": 0, "groups": []}}, "referralId": "e-0-50e09920e4b0869e605e1f89-23"}, {"reasons": {"count": 0, "items": [{"summary": "This spot is popular", "type": "general", "reasonName": "globalInteractionReason"}]}, "venue": {"id": "4af1b1c3f964a52049e221e3", "name": "West Elm", "location": {"address": "109 Atlantic Ave.", "crossStreet": "at King St. W", "lat": 43.640091665375046, "lng": -79.42080482904214, "labeledLatLngs": [{"label": "display", "lat": 43.640091665375046, "lng": -79.42080482904214}], "distance": 696, "cc": "CA", "city": "Toronto", "state": "ON", "country": "Canada", "formattedAddress": ["109 Atlantic Ave. (at King St. W)", "Toronto ON", "Canada"]}, "categories": [{"id": "4bf58dd8d48988d1f8941735", "name": "Furniture / Home Store", "pluralName": "Furniture / Home Stores", "shortName": "Furniture / Home", "icon": {"prefix": "https://ss3.4sqi.net/img/categories_v2/shops/furniture_", "suffix": ".png"}, "primary": true}], "photos": {"count": 0, "groups": []}}, "referralId": "e-0-4af1b1c3f964a52049e221e3-24"}, {"reasons": {"count": 0, "items": [{"summary": "This spot is popular", "type": "general", "reasonName": "globalInteractionReason"}]}, "venue": {"id": "4df24138d1649c8a28de1dfd", "name": "Liberty Village Rotisserie & Grill", "location": {"address": "141 Jefferson Ave.", "crossStreet": "at King St.", "lat": 43.63994061545074, "lng": -79.4220951303475, "labeledLatLngs": [{"label": "display", "lat": 43.63994061545074, "lng": -79.4220951303475}], "distance": 599, "postalCode": "M6K 3E4", "cc": "CA", "city": "Toronto", "state": "ON", "country": "Canada", "formattedAddress": ["141 Jefferson Ave. (at King St.)", "Toronto ON M6K 3E4", "Canada"]}, "categories": [{"id": "4d4b7105d754a06374d81259", "name": "Food", "pluralName": "Food", "shortName": "Food", "icon": {"prefix": "https://ss3.4sqi.net/img/categories_v2/food/default_", "suffix": ".png"}, "primary": true}], "photos": {"count": 0, "groups": []}}, "referralId": "e-0-4df24138d1649c8a28de1dfd-25"}, {"reasons": {"count": 0, "items": [{"summary": "This spot is popular", "type": "general", "reasonName": "globalInteractionReason"}]}, "venue": {"id": "56511c81498eec7fad08c330", "name": "Shameful Tiki Room", "location": {"address": "1378 Queen Street W", "crossStreet": "Brock", "lat": 43.64132629712811, "lng": -79.43320994405224, "labeledLatLngs": [{"label": "display", "lat": 43.64132629712811, "lng": -79.43320994405224}], "distance": 641, "cc": "CA", "city": "Toronto", "state": "ON", "country": "Canada", "formattedAddress": ["1378 Queen Street W (Brock)", "Toronto ON", "Canada"]}, "categories": [{"id": "52e81612bcbc57f1066b7a0d", "name": "Beach Bar", "pluralName": "Beach Bars", "shortName": "Beach Bar", "icon": {"prefix": "https://ss3.4sqi.net/img/categories_v2/nightlife/default_", "suffix": ".png"}, "primary": true}], "photos": {"count": 0, "groups": []}}, "referralId": "e-0-56511c81498eec7fad08c330-26"}, {"reasons": {"count": 0, "items": [{"summary": "This spot is popular", "type": "general", "reasonName": "globalInteractionReason"}]}, "venue": {"id": "4bc1083eabf49521a768c093", "name": "Parkdale", "location": {"lat": 43.64052425904189, "lng": -79.43220043623116, "labeledLatLngs": [{"label": "display", "lat": 43.64052425904189, "lng": -79.43220043623116}], "distance": 521, "cc": "CA", "city": "Toronto", "state": "ON", "country": "Canada", "formattedAddress": ["Toronto ON", "Canada"]}, "categories": [{"id": "4f2a25ac4b909258e854f55f", "name": "Neighborhood", "pluralName": "Neighborhoods", "shortName": "Neighborhood", "icon": {"prefix": "https://ss3.4sqi.net/img/categories_v2/parks_outdoors/neighborhood_", "suffix": ".png"}, "primary": true}], "photos": {"count": 0, "groups": []}}, "referralId": "e-0-4bc1083eabf49521a768c093-27"}, {"reasons": {"count": 0, "items": [{"summary": "This spot is popular", "type": "general", "reasonName": "globalInteractionReason"}]}, "venue": {"id": "51891567e4b0de6206480628", "name": "Live Market", "location": {"address": "134 Atlantic Ave.", "crossStreet": "King St. West", "lat": 43.64004354699461, "lng": -79.42143328519197, "labeledLatLngs": [{"label": "display", "lat": 43.64004354699461, "lng": -79.42143328519197}], "distance": 650, "cc": "CA", "city": "Toronto", "state": "ON", "country": "Canada", "formattedAddress": ["134 Atlantic Ave. (King St. West)", "Toronto ON", "Canada"]}, "categories": [{"id": "4bf58dd8d48988d1d3941735", "name": "Vegetarian / Vegan Restaurant", "pluralName": "Vegetarian / Vegan Restaurants", "shortName": "Vegetarian / Vegan", "icon": {"prefix": "https://ss3.4sqi.net/img/categories_v2/food/vegetarian_", "suffix": ".png"}, "primary": true}], "photos": {"count": 0, "groups": []}}, "referralId": "e-0-51891567e4b0de6206480628-28"}, {"reasons": {"count": 0, "items": [{"summary": "This spot is popular", "type": "general", "reasonName": "globalInteractionReason"}]}, "venue": {"id": "51c499a0498e13f88eb3a69a", "name": "Cool City Oyster Yard", "location": {"address": "99 Sudbury St", "crossStreet": "at Lisgar St", "lat": 43.64103265245078, "lng": -79.4220257375945, "labeledLatLngs": [{"label": "display", "lat": 43.64103265245078, "lng": -79.4220257375945}], "distance": 681, "postalCode": "M6J 3C2", "cc": "CA", "city": "Toronto", "state": "ON", "country": "Canada", "formattedAddress": ["99 Sudbury St (at Lisgar St)", "Toronto ON M6J 3C2", "Canada"]}, "categories": [{"id": "4bf58dd8d48988d1ce941735", "name": "Seafood Restaurant", "pluralName": "Seafood Restaurants", "shortName": "Seafood", "icon": {"prefix": "https://ss3.4sqi.net/img/categories_v2/food/seafood_", "suffix": ".png"}, "primary": true}], "photos": {"count": 0, "groups": []}}, "referralId": "e-0-51c499a0498e13f88eb3a69a-29"}, {"reasons": {"count": 0, "items": [{"summary": "This spot is popular", "type": "general", "reasonName": "globalInteractionReason"}]}, "venue": {"id": "4ae0c599f964a520578221e3", "name": "Liberty Village Market and Cafe", "location": {"address": "65 Jefferson Avenue", "crossStreet": "Liberty St.", "lat": 43.638056599035814, "lng": -79.4214930379186, "labeledLatLngs": [{"label": "display", "lat": 43.638056599035814, "lng": -79.4214930379186}], "distance": 556, "postalCode": "M6K 1Y3", "cc": "CA", "city": "Toronto", "state": "ON", "country": "Canada", "formattedAddress": ["65 Jefferson Avenue (Liberty St.)", "Toronto ON M6K 1Y3", "Canada"]}, "categories": [{"id": "4bf58dd8d48988d1e0931735", "name": "Coffee Shop", "pluralName": "Coffee Shops", "shortName": "Coffee Shop", "icon": {"prefix": "https://ss3.4sqi.net/img/categories_v2/food/coffeeshop_", "suffix": ".png"}, "primary": true}], "photos": {"count": 0, "groups": []}}, "referralId": "e-0-4ae0c599f964a520578221e3-30"}, {"reasons": {"count": 0, "items": [{"summary": "This spot is popular", "type": "general", "reasonName": "globalInteractionReason"}]}, "venue": {"id": "4b07324af964a52064f922e3", "name": "The Public Butter", "location": {"address": "1290 Queen St. W.", "crossStreet": "Brock St.", "lat": 43.64193836651804, "lng": -79.4303990877073, "labeledLatLngs": [{"label": "display", "lat": 43.64193836651804, "lng": -79.4303990877073}], "distance": 593, "cc": "CA", "city": "Toronto", "state": "ON", "country": "Canada", "formattedAddress": ["1290 Queen St. W. (Brock St.)", "Toronto ON", "Canada"]}, "categories": [{"id": "4bf58dd8d48988d101951735", "name": "Thrift / Vintage Store", "pluralName": "Thrift / Vintage Stores", "shortName": "Thrift / Vintage", "icon": {"prefix": "https://ss3.4sqi.net/img/categories_v2/shops/default_", "suffix": ".png"}, "primary": true}], "photos": {"count": 0, "groups": []}}, "referralId": "e-0-4b07324af964a52064f922e3-31"}, {"reasons": {"count": 0, "items": [{"summary": "This spot is popular", "type": "general", "reasonName": "globalInteractionReason"}]}, "venue": {"id": "4d1d0297f7a9a1436fdf0b9f", "name": "Common Sort", "location": {"address": "1414 Queen Street West", "lat": 43.641029888414444, "lng": -79.43461986817455, "labeledLatLngs": [{"label": "display", "lat": 43.641029888414444, "lng": -79.43461986817455}], "distance": 696, "postalCode": "M6k2s1", "cc": "CA", "city": "Toronto", "state": "ON", "country": "Canada", "formattedAddress": ["1414 Queen Street West", "Toronto ON M6k2s1", "Canada"]}, "categories": [{"id": "4bf58dd8d48988d101951735", "name": "Thrift / Vintage Store", "pluralName": "Thrift / Vintage Stores", "shortName": "Thrift / Vintage", "icon": {"prefix": "https://ss3.4sqi.net/img/categories_v2/shops/default_", "suffix": ".png"}, "primary": true}], "photos": {"count": 0, "groups": []}}, "referralId": "e-0-4d1d0297f7a9a1436fdf0b9f-32"}, {"reasons": {"count": 0, "items": [{"summary": "This spot is popular", "type": "general", "reasonName": "globalInteractionReason"}]}, "venue": {"id": "4ce8ba46f865370410eab2c4", "name": "Vogue Supper Club", "location": {"address": "Liberty St.", "crossStreet": "Mowat", "lat": 43.63695126198934, "lng": -79.42544606558822, "labeledLatLngs": [{"label": "display", "lat": 43.63695126198934, "lng": -79.42544606558822}], "distance": 221, "cc": "CA", "city": "Toronto", "state": "ON", "country": "Canada", "formattedAddress": ["Liberty St. (Mowat)", "Toronto ON", "Canada"]}, "categories": [{"id": "4bf58dd8d48988d1c4941735", "name": "Restaurant", "pluralName": "Restaurants", "shortName": "Restaurant", "icon": {"prefix": "https://ss3.4sqi.net/img/categories_v2/food/default_", "suffix": ".png"}, "primary": true}], "photos": {"count": 0, "groups": []}}, "referralId": "e-0-4ce8ba46f865370410eab2c4-33"}, {"reasons": {"count": 0, "items": [{"summary": "This spot is popular", "type": "general", "reasonName": "globalInteractionReason"}]}, "venue": {"id": "53fbe22f498e4f91f365ed6f", "name": "Float Toronto", "location": {"address": "1159 Queen Street West", "crossStreet": "Gladstone", "lat": 43.64279609182282, "lng": -79.42559768832729, "labeledLatLngs": [{"label": "display", "lat": 43.64279609182282, "lng": -79.42559768832729}], "distance": 694, "postalCode": "M6J 1J4", "cc": "CA", "city": "Toronto", "state": "ON", "country": "Canada", "formattedAddress": ["1159 Queen Street West (Gladstone)", "Toronto ON M6J 1J4", "Canada"]}, "categories": [{"id": "4bf58dd8d48988d1ed941735", "name": "Spa", "pluralName": "Spas", "shortName": "Spa", "icon": {"prefix": "https://ss3.4sqi.net/img/categories_v2/shops/spa_", "suffix": ".png"}, "primary": true}], "photos": {"count": 0, "groups": []}, "venuePage": {"id": "101381908"}}, "referralId": "e-0-53fbe22f498e4f91f365ed6f-34"}, {"reasons": {"count": 0, "items": [{"summary": "This spot is popular", "type": "general", "reasonName": "globalInteractionReason"}]}, "venue": {"id": "5a2c7d7b82a7506f5018952f", "name": "Convenience Bar", "location": {"address": "1184 Queen St W", "lat": 43.64282375286103, "lng": -79.42596627455468, "labeledLatLngs": [{"label": "display", "lat": 43.64282375286103, "lng": -79.42596627455468}], "distance": 689, "postalCode": "M6J 1J5", "cc": "CA", "city": "Toronto", "state": "ON", "country": "Canada", "formattedAddress": ["1184 Queen St W", "Toronto ON M6J 1J5", "Canada"]}, "categories": [{"id": "4bf58dd8d48988d116941735", "name": "Bar", "pluralName": "Bars", "shortName": "Bar", "icon": {"prefix": "https://ss3.4sqi.net/img/categories_v2/nightlife/pub_", "suffix": ".png"}, "primary": true}], "photos": {"count": 0, "groups": []}}, "referralId": "e-0-5a2c7d7b82a7506f5018952f-35"}, {"reasons": {"count": 0, "items": [{"summary": "This spot is popular", "type": "general", "reasonName": "globalInteractionReason"}]}, "venue": {"id": "4cd57e5cab19a09300813feb", "name": "Capital Espresso And Pastries", "location": {"address": "1349 Queen St W", "crossStreet": "at Dunn Ave", "lat": 43.64097266938929, "lng": -79.43457972642001, "labeledLatLngs": [{"label": "display", "lat": 43.64097266938929, "lng": -79.43457972642001}], "distance": 689, "cc": "CA", "city": "Toronto", "state": "ON", "country": "Canada", "formattedAddress": ["1349 Queen St W (at Dunn Ave)", "Toronto ON", "Canada"]}, "categories": [{"id": "4bf58dd8d48988d16d941735", "name": "Caf\u00e9", "pluralName": "Caf\u00e9s", "shortName": "Caf\u00e9", "icon": {"prefix": "https://ss3.4sqi.net/img/categories_v2/food/cafe_", "suffix": ".png"}, "primary": true}], "photos": {"count": 0, "groups": []}}, "referralId": "e-0-4cd57e5cab19a09300813feb-36"}, {"reasons": {"count": 0, "items": [{"summary": "This spot is popular", "type": "general", "reasonName": "globalInteractionReason"}]}, "venue": {"id": "4ae4e208f964a520199f21e3", "name": "NuNu", "location": {"address": "1178 Queen Street West", "crossStreet": "Northcote", "lat": 43.64283113644224, "lng": -79.42562217104096, "labeledLatLngs": [{"label": "display", "lat": 43.64283113644224, "lng": -79.42562217104096}], "distance": 697, "cc": "CA", "city": "Toronto", "state": "ON", "country": "Canada", "formattedAddress": ["1178 Queen Street West (Northcote)", "Toronto ON", "Canada"]}, "categories": [{"id": "4bf58dd8d48988d10a941735", "name": "Ethiopian Restaurant", "pluralName": "Ethiopian Restaurants", "shortName": "Ethiopian", "icon": {"prefix": "https://ss3.4sqi.net/img/categories_v2/food/ethiopian_", "suffix": ".png"}, "primary": true}], "photos": {"count": 0, "groups": []}}, "referralId": "e-0-4ae4e208f964a520199f21e3-37"}, {"reasons": {"count": 0, "items": [{"summary": "This spot is popular", "type": "general", "reasonName": "globalInteractionReason"}]}, "venue": {"id": "594055e1ea1e442c879e5984", "name": "Metro at West Queen West", "location": {"address": "1230 Queen Street West", "lat": 43.642500477161484, "lng": -79.42772272233212, "labeledLatLngs": [{"label": "display", "lat": 43.642500477161484, "lng": -79.42772272233212}], "distance": 630, "postalCode": "M6J 0B4", "cc": "CA", "city": "Toronto", "state": "ON", "country": "Canada", "formattedAddress": ["1230 Queen Street West", "Toronto ON M6J 0B4", "Canada"]}, "categories": [{"id": "52f2ab2ebcbc57f1066b8b46", "name": "Supermarket", "pluralName": "Supermarkets", "shortName": "Supermarket", "icon": {"prefix": "https://ss3.4sqi.net/img/categories_v2/shops/food_grocery_", "suffix": ".png"}, "primary": true}], "photos": {"count": 0, "groups": []}}, "referralId": "e-0-594055e1ea1e442c879e5984-38"}, {"reasons": {"count": 0, "items": [{"summary": "This spot is popular", "type": "general", "reasonName": "globalInteractionReason"}]}, "venue": {"id": "4b5a7f7ff964a52054c828e3", "name": "The Well", "location": {"address": "1344 Queen St W", "lat": 43.64151083909134, "lng": -79.43203007772871, "labeledLatLngs": [{"label": "display", "lat": 43.64151083909134, "lng": -79.43203007772871}], "distance": 604, "postalCode": "M6K 1L4", "cc": "CA", "city": "Toronto", "state": "ON", "country": "Canada", "formattedAddress": ["1344 Queen St W", "Toronto ON M6K 1L4", "Canada"]}, "categories": [{"id": "52e81612bcbc57f1066b7a3a", "name": "Chiropractor", "pluralName": "Chiropractors", "shortName": "Chiropractors", "icon": {"prefix": "https://ss3.4sqi.net/img/categories_v2/building/medical_doctorsoffice_", "suffix": ".png"}, "primary": true}], "photos": {"count": 0, "groups": []}}, "referralId": "e-0-4b5a7f7ff964a52054c828e3-39"}, {"reasons": {"count": 0, "items": [{"summary": "This spot is popular", "type": "general", "reasonName": "globalInteractionReason"}]}, "venue": {"id": "517c906be4b0a6c18b46b608", "name": "Joker Cafe", "location": {"address": "165 Dufferin St", "lat": 43.63572658167962, "lng": -79.42603944906266, "labeledLatLngs": [{"label": "display", "lat": 43.63572658167962, "lng": -79.42603944906266}], "distance": 213, "cc": "CA", "city": "Toronto", "state": "ON", "country": "Canada", "formattedAddress": ["165 Dufferin St", "Toronto ON", "Canada"]}, "categories": [{"id": "4bf58dd8d48988d16d941735", "name": "Caf\u00e9", "pluralName": "Caf\u00e9s", "shortName": "Caf\u00e9", "icon": {"prefix": "https://ss3.4sqi.net/img/categories_v2/food/cafe_", "suffix": ".png"}, "primary": true}], "photos": {"count": 0, "groups": []}}, "referralId": "e-0-517c906be4b0a6c18b46b608-40"}, {"reasons": {"count": 0, "items": [{"summary": "This spot is popular", "type": "general", "reasonName": "globalInteractionReason"}]}, "venue": {"id": "4afcdb05f964a520452622e3", "name": "The Midpoint", "location": {"address": "1180 Queen West", "lat": 43.64282081173139, "lng": -79.4256861560733, "labeledLatLngs": [{"label": "display", "lat": 43.64282081173139, "lng": -79.4256861560733}], "distance": 694, "cc": "CA", "city": "Toronto", "state": "ON", "country": "Canada", "formattedAddress": ["1180 Queen West", "Toronto ON", "Canada"]}, "categories": [{"id": "4bf58dd8d48988d11f941735", "name": "Nightclub", "pluralName": "Nightclubs", "shortName": "Nightclub", "icon": {"prefix": "https://ss3.4sqi.net/img/categories_v2/nightlife/nightclub_", "suffix": ".png"}, "primary": true}], "photos": {"count": 0, "groups": []}}, "referralId": "e-0-4afcdb05f964a520452622e3-41"}, {"reasons": {"count": 0, "items": [{"summary": "This spot is popular", "type": "general", "reasonName": "globalInteractionReason"}]}, "venue": {"id": "4dafb94881548efb15b1d7a9", "name": "Queen Elizabeth Theatre", "location": {"address": "190 Princes' Blvd", "crossStreet": "Canadian National Exhibitiom", "lat": 43.63304406988354, "lng": -79.42153318819182, "labeledLatLngs": [{"label": "display", "lat": 43.63304406988354, "lng": -79.42153318819182}], "distance": 683, "cc": "CA", "city": "Toronto", "state": "ON", "country": "Canada", "formattedAddress": ["190 Princes' Blvd (Canadian National Exhibitiom)", "Toronto ON", "Canada"]}, "categories": [{"id": "4bf58dd8d48988d1f2931735", "name": "Performing Arts Venue", "pluralName": "Performing Arts Venues", "shortName": "Performing Arts", "icon": {"prefix": "https://ss3.4sqi.net/img/categories_v2/arts_entertainment/performingarts_", "suffix": ".png"}, "primary": true}], "photos": {"count": 0, "groups": []}}, "referralId": "e-0-4dafb94881548efb15b1d7a9-42"}, {"reasons": {"count": 0, "items": [{"summary": "This spot is popular", "type": "general", "reasonName": "globalInteractionReason"}]}, "venue": {"id": "54934c0e498e138e70958ee8", "name": "Levetto", "location": {"address": "68 Sudbury Street", "crossStreet": "Dovercourt", "lat": 43.64142501412593, "lng": -79.42218023701327, "labeledLatLngs": [{"label": "display", "lat": 43.64142501412593, "lng": -79.42218023701327}], "distance": 702, "postalCode": "M6J 3S7", "cc": "CA", "city": "Toronto", "state": "ON", "country": "Canada", "formattedAddress": ["68 Sudbury Street (Dovercourt)", "Toronto ON M6J 3S7", "Canada"]}, "categories": [{"id": "4bf58dd8d48988d110941735", "name": "Italian Restaurant", "pluralName": "Italian Restaurants", "shortName": "Italian", "icon": {"prefix": "https://ss3.4sqi.net/img/categories_v2/food/italian_", "suffix": ".png"}, "primary": true}], "photos": {"count": 0, "groups": []}}, "referralId": "e-0-54934c0e498e138e70958ee8-43"}, {"reasons": {"count": 0, "items": [{"summary": "This spot is popular", "type": "general", "reasonName": "globalInteractionReason"}]}, "venue": {"id": "4e306212922e065e29f3a76c", "name": "Shopgirls Gallery Boutique", "location": {"address": "1342 Queen Street West", "lat": 43.64162533891366, "lng": -79.43195234215757, "labeledLatLngs": [{"label": "display", "lat": 43.64162533891366, "lng": -79.43195234215757}], "distance": 612, "postalCode": "m6k 1l4", "cc": "CA", "city": "Toronto", "state": "ON", "country": "Canada", "formattedAddress": ["1342 Queen Street West", "Toronto ON m6k 1l4", "Canada"]}, "categories": [{"id": "4bf58dd8d48988d102951735", "name": "Accessories Store", "pluralName": "Accessories Stores", "shortName": "Accessories", "icon": {"prefix": "https://ss3.4sqi.net/img/categories_v2/shops/apparel_accessories_", "suffix": ".png"}, "primary": true}], "photos": {"count": 0, "groups": []}}, "referralId": "e-0-4e306212922e065e29f3a76c-44"}, {"reasons": {"count": 0, "items": [{"summary": "This spot is popular", "type": "general", "reasonName": "globalInteractionReason"}]}, "venue": {"id": "4bbfe03bb492d13ab987a360", "name": "Motel", "location": {"address": "1235 Queen St. W.", "crossStreet": "at Gwynne", "lat": 43.641904734796846, "lng": -79.43021142769283, "labeledLatLngs": [{"label": "display", "lat": 43.641904734796846, "lng": -79.43021142769283}], "distance": 586, "cc": "CA", "city": "Toronto", "state": "ON", "country": "Canada", "formattedAddress": ["1235 Queen St. W. (at Gwynne)", "Toronto ON", "Canada"]}, "categories": [{"id": "4bf58dd8d48988d116941735", "name": "Bar", "pluralName": "Bars", "shortName": "Bar", "icon": {"prefix": "https://ss3.4sqi.net/img/categories_v2/nightlife/pub_", "suffix": ".png"}, "primary": true}], "photos": {"count": 0, "groups": []}}, "referralId": "e-0-4bbfe03bb492d13ab987a360-45"}, {"reasons": {"count": 0, "items": [{"summary": "This spot is popular", "type": "general", "reasonName": "globalInteractionReason"}]}, "venue": {"id": "53f95be4498e70ab364a23e0", "name": "Duggan's Brewery", "location": {"address": "1346 Queen St W", "crossStreet": "at Brock Ave", "lat": 43.64155614757265, "lng": -79.43221717928108, "labeledLatLngs": [{"label": "display", "lat": 43.64155614757265, "lng": -79.43221717928108}], "distance": 616, "postalCode": "M6K 1L4", "cc": "CA", "city": "Toronto", "state": "ON", "country": "Canada", "formattedAddress": ["1346 Queen St W (at Brock Ave)", "Toronto ON M6K 1L4", "Canada"]}, "categories": [{"id": "50327c8591d4c4b30a586d5d", "name": "Brewery", "pluralName": "Breweries", "shortName": "Brewery", "icon": {"prefix": "https://ss3.4sqi.net/img/categories_v2/food/brewery_", "suffix": ".png"}, "primary": true}], "photos": {"count": 0, "groups": []}}, "referralId": "e-0-53f95be4498e70ab364a23e0-46"}, {"reasons": {"count": 0, "items": [{"summary": "This spot is popular", "type": "general", "reasonName": "globalInteractionReason"}]}, "venue": {"id": "4c8d2f858018a1cdb440f3d2", "name": "The Future of Frances Watson", "location": {"address": "1390 Queen Street West", "lat": 43.64120250867021, "lng": -79.4338430400482, "labeledLatLngs": [{"label": "display", "lat": 43.64120250867021, "lng": -79.4338430400482}], "distance": 665, "postalCode": "M6K 1L7", "cc": "CA", "city": "Toronto", "state": "ON", "country": "Canada", "formattedAddress": ["1390 Queen Street West", "Toronto ON M6K 1L7", "Canada"]}, "categories": [{"id": "4bf58dd8d48988d104951735", "name": "Boutique", "pluralName": "Boutiques", "shortName": "Boutique", "icon": {"prefix": "https://ss3.4sqi.net/img/categories_v2/shops/apparel_boutique_", "suffix": ".png"}, "primary": true}], "photos": {"count": 0, "groups": []}}, "referralId": "e-0-4c8d2f858018a1cdb440f3d2-47"}, {"reasons": {"count": 0, "items": [{"summary": "This spot is popular", "type": "general", "reasonName": "globalInteractionReason"}]}, "venue": {"id": "5161f316498e98436011352f", "name": "Lakeshore Boardwalk", "location": {"lat": 43.63444650277126, "lng": -79.43564600668559, "labeledLatLngs": [{"label": "display", "lat": 43.63444650277126, "lng": -79.43564600668559}], "distance": 657, "cc": "CA", "city": "Toronto", "state": "ON", "country": "Canada", "formattedAddress": ["Toronto ON", "Canada"]}, "categories": [{"id": "4bf58dd8d48988d159941735", "name": "Trail", "pluralName": "Trails", "shortName": "Trail", "icon": {"prefix": "https://ss3.4sqi.net/img/categories_v2/parks_outdoors/hikingtrail_", "suffix": ".png"}, "primary": true}], "photos": {"count": 0, "groups": []}}, "referralId": "e-0-5161f316498e98436011352f-48"}, {"reasons": {"count": 0, "items": [{"summary": "This spot is popular", "type": "general", "reasonName": "globalInteractionReason"}]}, "venue": {"id": "4ae0fe45f964a520618421e3", "name": "Brooklynn", "location": {"address": "1186 Queen St. W", "crossStreet": "at Northcote Ave.", "lat": 43.64280061518871, "lng": -79.42606396727254, "labeledLatLngs": [{"label": "display", "lat": 43.64280061518871, "lng": -79.42606396727254}], "distance": 684, "postalCode": "M6J 1J6", "cc": "CA", "city": "Toronto", "state": "ON", "country": "Canada", "formattedAddress": ["1186 Queen St. W (at Northcote Ave.)", "Toronto ON M6J 1J6", "Canada"]}, "categories": [{"id": "4bf58dd8d48988d116941735", "name": "Bar", "pluralName": "Bars", "shortName": "Bar", "icon": {"prefix": "https://ss3.4sqi.net/img/categories_v2/nightlife/pub_", "suffix": ".png"}, "primary": true}], "photos": {"count": 0, "groups": []}}, "referralId": "e-0-4ae0fe45f964a520618421e3-49"}]}]}}