{"meta": {"code": 200, "requestId": "5e1973d4c8cff2001b363aa6"}, "response": {"suggestedFilters": {"header": "Tap to show:", "filters": [{"name": "Open now", "key": "openNow"}]}, "headerLocation": "Toronto", "headerFullLocation": "Toronto", "headerLocationGranularity": "city", "totalResults": 39, "suggestedBounds": {"ne": {"lat": 43.683031309846, "lng": -79.47367451355315}, "sw": {"lat": 43.663339290153985, "lng": -79.50084928644686}}, "groups": [{"type": "Recommended Places", "name": "recommended", "items": [{"reasons": {"count": 0, "items": [{"summary": "This spot is popular", "type": "general", "reasonName": "globalInteractionReason"}]}, "venue": {"id": "55569b59498ec5aeca07911e", "name": "Rainhard Brewing", "location": {"address": "100 Symes Rd", "lat": 43.67269006118166, "lng": -79.47867903828485, "labeledLatLngs": [{"label": "display", "lat": 43.67269006118166, "lng": -79.47867903828485}], "distance": 693, "postalCode": "M6N 3T1", "cc": "CA", "city": "Toronto", "state": "ON", "country": "Canada", "formattedAddress": ["100 Symes Rd", "Toronto ON M6N 3T1", "Canada"]}, "categories": [{"id": "50327c8591d4c4b30a586d5d", "name": "Brewery", "pluralName": "Breweries", "shortName": "Brewery", "icon": {"prefix": "https://ss3.4sqi.net/img/categories_v2/food/brewery_", "suffix": ".png"}, "primary": true}], "photos": {"count": 0, "groups": []}}, "referralId": "e-0-55569b59498ec5aeca07911e-0"}, {"reasons": {"count": 0, "items": [{"summary": "This spot is popular", "type": "general", "reasonName": "globalInteractionReason"}]}, "venue": {"id": "5a4eefd6666116293fc48635", "name": "Junction Craft Brewing", "location": {"address": "150 Symes Rd", "crossStreet": "Keele & St Clair", "lat": 43.67329938917178, "lng": -79.47839140892029, "labeledLatLngs": [{"label": "display", "lat": 43.67329938917178, "lng": -79.47839140892029}], "distance": 714, "postalCode": "M6N 0B1", "cc": "CA", "city": "Toronto", "state": "ON", "country": "Canada", "formattedAddress": ["150 Symes Rd (Keele & St Clair)", "Toronto ON M6N 0B1", "Canada"]}, "categories": [{"id": "50327c8591d4c4b30a586d5d", "name": "Brewery", "pluralName": "Breweries", "shortName": "Brewery", "icon": {"prefix": "https://ss3.4sqi.net/img/categories_v2/food/brewery_", "suffix": ".png"}, "primary": true}], "photos": {"count": 0, "groups": []}}, "referralId": "e-0-5a4eefd6666116293fc48635-1"}, {"reasons": {"count": 0, "items": [{"summary": "This spot is popular", "type": "general", "reasonName": "globalInteractionReason"}]}, "venue": {"id": "556116f9498ec3d385417a98", "name": "Bad Axe Throwing", "location": {"address": "346 Ryding Ave", "lat": 43.668256755814916, "lng": -79.48250283514746, "labeledLatLngs": [{"label": "display", "lat": 43.668256755814916, "lng": -79.48250283514746}], "distance": 669, "cc": "CA", "city": "Toronto", "state": "ON", "country": "Canada", "formattedAddress": ["346 Ryding Ave", "Toronto ON", "Canada"]}, "categories": [{"id": "4f4528bc4b90abdf24c9de85", "name": "Athletics & Sports", "pluralName": "Athletics & Sports", "shortName": "Athletics & Sports", "icon": {"prefix": "https://ss3.4sqi.net/img/categories_v2/shops/sports_outdoors_", "suffix": ".png"}, "primary": true}], "photos": {"count": 0, "groups": []}}, "referralId": "e-0-556116f9498ec3d385417a98-2"}, {"reasons": {"count": 0, "items": [{"summary": "This spot is popular", "type": "general", "reasonName": "globalInteractionReason"}]}, "venue": {"id": "584c4d050319b8682aa88aab", "name": "Shacklands Brewing", "location": {"address": "100 Symes Rd", "lat": 43.67295080687277, "lng": -79.47864755988121, "labeledLatLngs": [{"label": "display", "lat": 43.67295080687277, "lng": -79.47864755988121}], "distance": 694, "postalCode": "M6N 0A8", "cc": "CA", "city": "Toronto", "state": "ON", "country": "Canada", "formattedAddress": ["100 Symes Rd", "Toronto ON M6N 0A8", "Canada"]}, "categories": [{"id": "50327c8591d4c4b30a586d5d", "name": "Brewery", "pluralName": "Breweries", "shortName": "Brewery", "icon": {"prefix": "https://ss3.4sqi.net/img/categories_v2/food/brewery_", "suffix": ".png"}, "primary": true}], "photos": {"count": 0, "groups": []}}, "referralId": "e-0-584c4d050319b8682aa88aab-3"}, {"reasons": {"count": 0, "items": [{"summary": "This spot is popular", "type": "general", "reasonName": "globalInteractionReason"}]}, "venue": {"id": "4b646b24f964a52095b12ae3", "name": "Jumbo Burger", "location": {"address": "685 Runnymede Road", "crossStreet": "at Dundas St. W.", "lat": 43.66604656112246, "lng": -79.48223103271583, "labeledLatLngs": [{"label": "display", "lat": 43.66604656112246, "lng": -79.48223103271583}], "distance": 891, "postalCode": "M6S 3A4", "cc": "CA", "city": "Toronto", "state": "ON", "country": "Canada", "formattedAddress": ["685 Runnymede Road (at Dundas St. W.)", "Toronto ON M6S 3A4", "Canada"]}, "categories": [{"id": "4bf58dd8d48988d16c941735", "name": "Burger Joint", "pluralName": "Burger Joints", "shortName": "Burgers", "icon": {"prefix": "https://ss3.4sqi.net/img/categories_v2/food/burger_", "suffix": ".png"}, "primary": true}], "photos": {"count": 0, "groups": []}}, "referralId": "e-0-4b646b24f964a52095b12ae3-4"}, {"reasons": {"count": 0, "items": [{"summary": "This spot is popular", "type": "general", "reasonName": "globalInteractionReason"}]}, "venue": {"id": "4b89a452f964a520834832e3", "name": "LCBO", "location": {"address": "3520 Dundas St W", "crossStreet": "at Jane St", "lat": 43.66594666914182, "lng": -79.48886342242957, "labeledLatLngs": [{"label": "display", "lat": 43.66594666914182, "lng": -79.48886342242957}], "distance": 816, "postalCode": "M6S 2S1", "cc": "CA", "city": "Toronto", "state": "ON", "country": "Canada", "formattedAddress": ["3520 Dundas St W (at Jane St)", "Toronto ON M6S 2S1", "Canada"]}, "categories": [{"id": "4bf58dd8d48988d186941735", "name": "Liquor Store", "pluralName": "Liquor Stores", "shortName": "Liquor Store", "icon": {"prefix": "https://ss3.4sqi.net/img/categories_v2/shops/food_liquor_", "suffix": ".png"}, "primary": true}], "photos": {"count": 0, "groups": []}}, "referralId": "e-0-4b89a452f964a520834832e3-5"}, {"reasons": {"count": 0, "items": [{"summary": "This spot is popular", "type": "general", "reasonName": "globalInteractionReason"}]}, "venue": {"id": "4bfd86544cf820a1bd98ecf4", "name": "Smythe Park", "location": {"address": "61 Black Creek Blvd", "lat": 43.67621543710062, "lng": -79.49573972502156, "labeledLatLngs": [{"label": "display", "lat": 43.67621543710062, "lng": -79.49573972502156}], "distance": 761, "postalCode": "M6N 4K7", "cc": "CA", "city": "Toronto", "state": "ON", "country": "Canada", "formattedAddress": ["61 Black Creek Blvd", "Toronto ON M6N 4K7", "Canada"]}, "categories": [{"id": "4bf58dd8d48988d163941735", "name": "Park", "pluralName": "Parks", "shortName": "Park", "icon": {"prefix": "https://ss3.4sqi.net/img/categories_v2/parks_outdoors/park_", "suffix": ".png"}, "primary": true}], "photos": {"count": 0, "groups": []}}, "referralId": "e-0-4bfd86544cf820a1bd98ecf4-6"}, {"reasons": {"count": 0, "items": [{"summary": "This spot is popular", "type": "general", "reasonName": "globalInteractionReason"}]}, "venue": {"id": "4d2ca65877a2a1cdca6387b7", "name": "Pegasus Bar & Grill", "location": {"address": "3466 Dundas St. W", "lat": 43.66600066072253, "lng": -79.48716578291788, "labeledLatLngs": [{"label": "display", "lat": 43.66600066072253, "lng": -79.48716578291788}], "distance": 799, "cc": "CA", "city": "Toronto", "state": "ON", "country": "Canada", "formattedAddress": ["3466 Dundas St. W", "Toronto ON", "Canada"]}, "categories": [{"id": "4bf58dd8d48988d116941735", "name": "Bar", "pluralName": "Bars", "shortName": "Bar", "icon": {"prefix": "https://ss3.4sqi.net/img/categories_v2/nightlife/pub_", "suffix": ".png"}, "primary": true}], "photos": {"count": 0, "groups": []}}, "referralId": "e-0-4d2ca65877a2a1cdca6387b7-7"}, {"reasons": {"count": 0, "items": [{"summary": "This spot is popular", "type": "general", "reasonName": "globalInteractionReason"}]}, "venue": {"id": "4bb535a36edc76b0ff712f1c", "name": "The Beer Store", "location": {"address": "3524 Dundas St W", "crossStreet": "Jane", "lat": 43.6656664, "lng": -79.4901111, "labeledLatLngs": [{"label": "display", "lat": 43.6656664, "lng": -79.4901111}], "distance": 867, "postalCode": "M6S 2S1", "cc": "CA", "city": "Toronto", "state": "ON", "country": "Canada", "formattedAddress": ["3524 Dundas St W (Jane)", "Toronto ON M6S 2S1", "Canada"]}, "categories": [{"id": "5370f356bcbc57f1066c94c2", "name": "Beer Store", "pluralName": "Beer Stores", "shortName": "Beer Store", "icon": {"prefix": "https://ss3.4sqi.net/img/categories_v2/nightlife/beergarden_", "suffix": ".png"}, "primary": true}], "photos": {"count": 0, "groups": []}}, "referralId": "e-0-4bb535a36edc76b0ff712f1c-8"}, {"reasons": {"count": 0, "items": [{"summary": "This spot is popular", "type": "general", "reasonName": "globalInteractionReason"}]}, "venue": {"id": "4c082a5aa1b32d7f349895f0", "name": "Saigon Bangkok", "location": {"address": "2428 St Clair Ave W", "lat": 43.669513050651155, "lng": -79.48217577632411, "labeledLatLngs": [{"label": "display", "lat": 43.669513050651155, "lng": -79.48217577632411}], "distance": 578, "cc": "CA", "city": "Toronto", "state": "ON", "country": "Canada", "formattedAddress": ["2428 St Clair Ave W", "Toronto ON", "Canada"]}, "categories": [{"id": "4bf58dd8d48988d149941735", "name": "Thai Restaurant", "pluralName": "Thai Restaurants", "shortName": "Thai", "icon": {"prefix": "https://ss3.4sqi.net/img/categories_v2/food/thai_", "suffix": ".png"}, "primary": true}], "photos": {"count": 0, "groups": []}}, "referralId": "e-0-4c082a5aa1b32d7f349895f0-9"}, {"reasons": {"count": 0, "items": [{"summary": "This spot is popular", "type": "general", "reasonName": "globalInteractionReason"}]}, "venue": {"id": "4c718fd68efc370419c7107d", "name": "Caldense Bakery", "location": {"address": "1209 Dundas St W", "lat": 43.66552643533291, "lng": -79.48826342019743, "labeledLatLngs": [{"label": "display", "lat": 43.66552643533291, "lng": -79.48826342019743}], "distance": 856, "postalCode": "M6S 2S1", "cc": "CA", "city": "Toronto", "state": "ON", "country": "Canada", "formattedAddress": ["1209 Dundas St W", "Toronto ON M6S 2S1", "Canada"]}, "categories": [{"id": "4bf58dd8d48988d16d941735", "name": "Caf\u00e9", "pluralName": "Caf\u00e9s", "shortName": "Caf\u00e9", "icon": {"prefix": "https://ss3.4sqi.net/img/categories_v2/food/cafe_", "suffix": ".png"}, "primary": true}], "photos": {"count": 0, "groups": []}}, "referralId": "e-0-4c718fd68efc370419c7107d-10"}, {"reasons": {"count": 0, "items": [{"summary": "This spot is popular", "type": "general", "reasonName": "globalInteractionReason"}]}, "venue": {"id": "4ba17b97f964a520e8ba37e3", "name": "The Cat Pub and Eatery", "location": {"address": "3513 Dundas St. W.", "crossStreet": "Jane St.", "lat": 43.66560819560132, "lng": -79.48924499291752, "labeledLatLngs": [{"label": "display", "lat": 43.66560819560132, "lng": -79.48924499291752}], "distance": 858, "cc": "CA", "city": "Toronto", "state": "ON", "country": "Canada", "formattedAddress": ["3513 Dundas St. W. (Jane St.)", "Toronto ON", "Canada"]}, "categories": [{"id": "4bf58dd8d48988d118941735", "name": "Dive Bar", "pluralName": "Dive Bars", "shortName": "Dive Bar", "icon": {"prefix": "https://ss3.4sqi.net/img/categories_v2/nightlife/divebar_", "suffix": ".png"}, "primary": true}], "photos": {"count": 0, "groups": []}}, "referralId": "e-0-4ba17b97f964a520e8ba37e3-11"}, {"reasons": {"count": 0, "items": [{"summary": "This spot is popular", "type": "general", "reasonName": "globalInteractionReason"}]}, "venue": {"id": "4d8ba6900c4e41bd86f7667f", "name": "Pizza Pizza", "location": {"address": "847 Jane St.", "lat": 43.676602031841846, "lng": -79.49435794573112, "labeledLatLngs": [{"label": "display", "lat": 43.676602031841846, "lng": -79.49435794573112}], "distance": 686, "postalCode": "M6N 4C4", "cc": "CA", "city": "Toronto", "state": "ON", "country": "Canada", "formattedAddress": ["847 Jane St.", "Toronto ON M6N 4C4", "Canada"]}, "categories": [{"id": "4bf58dd8d48988d1ca941735", "name": "Pizza Place", "pluralName": "Pizza Places", "shortName": "Pizza", "icon": {"prefix": "https://ss3.4sqi.net/img/categories_v2/food/pizza_", "suffix": ".png"}, "primary": true}], "photos": {"count": 0, "groups": []}}, "referralId": "e-0-4d8ba6900c4e41bd86f7667f-12"}, {"reasons": {"count": 0, "items": [{"summary": "This spot is popular", "type": "general", "reasonName": "globalInteractionReason"}]}, "venue": {"id": "4c700d40d274b60ce25cd80d", "name": "Dollarama", "location": {"address": "2561 St Clair Ave W", "crossStreet": "Runnymeade", "lat": 43.667192, "lng": -79.487332, "labeledLatLngs": [{"label": "display", "lat": 43.667192, "lng": -79.487332}], "distance": 667, "postalCode": "M6N 4Z5", "cc": "CA", "city": "Toronto", "state": "ON", "country": "Canada", "formattedAddress": ["2561 St Clair Ave W (Runnymeade)", "Toronto ON M6N 4Z5", "Canada"]}, "categories": [{"id": "52dea92d3cf9994f4e043dbb", "name": "Discount Store", "pluralName": "Discount Stores", "shortName": "Discount Store", "icon": {"prefix": "https://ss3.4sqi.net/img/categories_v2/shops/discountstore_", "suffix": ".png"}, "primary": true}], "photos": {"count": 0, "groups": []}}, "referralId": "e-0-4c700d40d274b60ce25cd80d-13"}, {"reasons": {"count": 0, "items": [{"summary": "This spot is popular", "type": "general", "reasonName": "globalInteractionReason"}]}, "venue": {"id": "4cb0fb2939458cfa66ce07a0", "name": "Popeyes Louisiana Kitchen", "location": {"address": "2561 St.Clair Ave. W", "crossStreet": "at Runnymede Rd.", "lat": 43.667359043070654, "lng": -79.48678005057776, "labeledLatLngs": [{"label": "display", "lat": 43.667359043070654, "lng": -79.48678005057776}], "distance": 649, "postalCode": "M6N 2Z5", "cc": "CA", "city": "Toronto", "state": "ON", "country": "Canada", "formattedAddress": ["2561 St.Clair Ave. W (at Runnymede Rd.)", "Toronto ON M6N 2Z5", "Canada"]}, "categories": [{"id": "4d4ae6fc7a7b7dea34424761", "name": "Fried Chicken Joint", "pluralName": "Fried Chicken Joints", "shortName": "Fried Chicken", "icon": {"prefix": "https://ss3.4sqi.net/img/categories_v2/food/friedchicken_", "suffix": ".png"}, "primary": true}], "photos": {"count": 0, "groups": []}}, "referralId": "e-0-4cb0fb2939458cfa66ce07a0-14"}, {"reasons": {"count": 0, "items": [{"summary": "This spot is popular", "type": "general", "reasonName": "globalInteractionReason"}]}, "venue": {"id": "4b4b1d10f964a520789226e3", "name": "Tim Hortons", "location": {"address": "895 Jane St", "crossStreet": "Alliance Ave", "lat": 43.677095524202144, "lng": -79.49550658464432, "labeledLatLngs": [{"label": "display", "lat": 43.677095524202144, "lng": -79.49550658464432}], "distance": 793, "postalCode": "M6N 4C4", "cc": "CA", "city": "North York", "state": "ON", "country": "Canada", "formattedAddress": ["895 Jane St (Alliance Ave)", "North York ON M6N 4C4", "Canada"]}, "categories": [{"id": "4bf58dd8d48988d1e0931735", "name": "Coffee Shop", "pluralName": "Coffee Shops", "shortName": "Coffee Shop", "icon": {"prefix": "https://ss3.4sqi.net/img/categories_v2/food/coffeeshop_", "suffix": ".png"}, "primary": true}], "photos": {"count": 0, "groups": []}}, "referralId": "e-0-4b4b1d10f964a520789226e3-15"}, {"reasons": {"count": 0, "items": [{"summary": "This spot is popular", "type": "general", "reasonName": "globalInteractionReason"}]}, "venue": {"id": "4bf976c55efe2d7fe7446c34", "name": "7-Eleven", "location": {"address": "3355 Dundas St W", "lat": 43.6652594, "lng": -79.4823848, "labeledLatLngs": [{"label": "display", "lat": 43.6652594, "lng": -79.4823848}], "distance": 965, "postalCode": "M6S 2R8", "cc": "CA", "city": "Toronto", "state": "ON", "country": "Canada", "formattedAddress": ["3355 Dundas St W", "Toronto ON M6S 2R8", "Canada"]}, "categories": [{"id": "4d954b0ea243a5684a65b473", "name": "Convenience Store", "pluralName": "Convenience Stores", "shortName": "Convenience Store", "icon": {"prefix": "https://ss3.4sqi.net/img/categories_v2/shops/conveniencestore_", "suffix": ".png"}, "primary": true}], "photos": {"count": 0, "groups": []}}, "referralId": "e-0-4bf976c55efe2d7fe7446c34-16"}, {"reasons": {"count": 0, "items": [{"summary": "This spot is popular", "type": "general", "reasonName": "globalInteractionReason"}]}, "venue": {"id": "4d750cb7fe1b721e22a3b51f", "name": "Subway", "location": {"address": "Dundas St. W", "lat": 43.6659188127612, "lng": -79.48769768699339, "labeledLatLngs": [{"label": "display", "lat": 43.6659188127612, "lng": -79.48769768699339}], "distance": 809, "cc": "CA", "city": "Toronto", "state": "ON", "country": "Canada", "formattedAddress": ["Dundas St. W", "Toronto ON", "Canada"]}, "categories": [{"id": "4bf58dd8d48988d1c5941735", "name": "Sandwich Place", "pluralName": "Sandwich Places", "shortName": "Sandwiches", "icon": {"prefix": "https://ss3.4sqi.net/img/categories_v2/food/deli_", "suffix": ".png"}, "primary": true}], "photos": {"count": 0, "groups": []}}, "referralId": "e-0-4d750cb7fe1b721e22a3b51f-17"}, {"reasons": {"count": 0, "items": [{"summary": "This spot is popular", "type": "general", "reasonName": "globalInteractionReason"}]}, "venue": {"id": "4b3bd657f964a520377c25e3", "name": "Roti Time", "location": {"address": "2542 St. Clair West", "crossStreet": "Runnymede", "lat": 43.66821126969315, "lng": -79.48715239190194, "labeledLatLngs": [{"label": "display", "lat": 43.66821126969315, "lng": -79.48715239190194}], "distance": 553, "cc": "CA", "city": "Toronto", "state": "ON", "country": "Canada", "formattedAddress": ["2542 St. Clair West (Runnymede)", "Toronto ON", "Canada"]}, "categories": [{"id": "4bf58dd8d48988d10f941735", "name": "Indian Restaurant", "pluralName": "Indian Restaurants", "shortName": "Indian", "icon": {"prefix": "https://ss3.4sqi.net/img/categories_v2/food/indian_", "suffix": ".png"}, "primary": true}], "photos": {"count": 0, "groups": []}}, "referralId": "e-0-4b3bd657f964a520377c25e3-18"}, {"reasons": {"count": 0, "items": [{"summary": "This spot is popular", "type": "general", "reasonName": "globalInteractionReason"}]}, "venue": {"id": "4c5af11304f9be9a0601f360", "name": "Bairrada Churrasqueira", "location": {"address": "2293 St.Clair Ave. W.", "lat": 43.66992620738427, "lng": -79.47804059115232, "labeledLatLngs": [{"label": "display", "lat": 43.66992620738427, "lng": -79.47804059115232}], "distance": 826, "postalCode": "M6N 5C1", "cc": "CA", "city": "Toronto", "state": "ON", "country": "Canada", "formattedAddress": ["2293 St.Clair Ave. W.", "Toronto ON M6N 5C1", "Canada"]}, "categories": [{"id": "4bf58dd8d48988d1df931735", "name": "BBQ Joint", "pluralName": "BBQ Joints", "shortName": "BBQ", "icon": {"prefix": "https://ss3.4sqi.net/img/categories_v2/food/bbqalt_", "suffix": ".png"}, "primary": true}], "photos": {"count": 0, "groups": []}}, "referralId": "e-0-4c5af11304f9be9a0601f360-19"}, {"reasons": {"count": 0, "items": [{"summary": "This spot is popular", "type": "general", "reasonName": "globalInteractionReason"}]}, "venue": {"id": "4b92f4a5f964a520382a34e3", "name": "Little Caesars Pizza", "location": {"address": "3408 Dundas Street West", "lat": 43.66601745177888, "lng": -79.48535482248529, "labeledLatLngs": [{"label": "display", "lat": 43.66601745177888, "lng": -79.48535482248529}], "distance": 812, "postalCode": "M6S 2S1", "cc": "CA", "city": "Toronto", "state": "ON", "country": "Canada", "formattedAddress": ["3408 Dundas Street West", "Toronto ON M6S 2S1", "Canada"]}, "categories": [{"id": "4bf58dd8d48988d1ca941735", "name": "Pizza Place", "pluralName": "Pizza Places", "shortName": "Pizza", "icon": {"prefix": "https://ss3.4sqi.net/img/categories_v2/food/pizza_", "suffix": ".png"}, "primary": true}], "photos": {"count": 0, "groups": []}}, "referralId": "e-0-4b92f4a5f964a520382a34e3-20"}, {"reasons": {"count": 0, "items": [{"summary": "This spot is popular", "type": "general", "reasonName": "globalInteractionReason"}]}, "venue": {"id": "4dceb1aed164679b8d05df74", "name": "KFC", "location": {"address": "3517 Dundas Street West", "lat": 43.66535513378559, "lng": -79.48972642421722, "labeledLatLngs": [{"label": "display", "lat": 43.66535513378559, "lng": -79.48972642421722}], "distance": 893, "postalCode": "M6S 2S7", "cc": "CA", "city": "Toronto", "state": "ON", "country": "Canada", "formattedAddress": ["3517 Dundas Street West", "Toronto ON M6S 2S7", "Canada"]}, "categories": [{"id": "4bf58dd8d48988d16e941735", "name": "Fast Food Restaurant", "pluralName": "Fast Food Restaurants", "shortName": "Fast Food", "icon": {"prefix": "https://ss3.4sqi.net/img/categories_v2/food/fastfood_", "suffix": ".png"}, "primary": true}], "photos": {"count": 0, "groups": []}}, "referralId": "e-0-4dceb1aed164679b8d05df74-21"}, {"reasons": {"count": 0, "items": [{"summary": "This spot is popular", "type": "general", "reasonName": "globalInteractionReason"}]}, "venue": {"id": "4bd10d0f77b29c74741e8c82", "name": "Petro-Canada", "location": {"address": "2460 St Clair Ave W", "crossStreet": "at Runnymede Rd", "lat": 43.669362, "lng": -79.483156, "labeledLatLngs": [{"label": "display", "lat": 43.669362, "lng": -79.483156}], "distance": 538, "postalCode": "M6N 1L2", "cc": "CA", "city": "Toronto", "state": "ON", "country": "Canada", "formattedAddress": ["2460 St Clair Ave W (at Runnymede Rd)", "Toronto ON M6N 1L2", "Canada"]}, "categories": [{"id": "4bf58dd8d48988d113951735", "name": "Gas Station", "pluralName": "Gas Stations", "shortName": "Gas Station", "icon": {"prefix": "https://ss3.4sqi.net/img/categories_v2/shops/gas_", "suffix": ".png"}, "primary": true}], "photos": {"count": 0, "groups": []}}, "referralId": "e-0-4bd10d0f77b29c74741e8c82-22"}, {"reasons": {"count": 0, "items": [{"summary": "This spot is popular", "type": "general", "reasonName": "globalInteractionReason"}]}, "venue": {"id": "4c96506382b56dcb806ce0aa", "name": "Tim Hortons", "location": {"address": "2571 St Clair Ave West, Unit # E1", "crossStreet": "Castleton Ave", "lat": 43.6676955, "lng": -79.4880034, "labeledLatLngs": [{"label": "display", "lat": 43.6676955, "lng": -79.4880034}], "distance": 614, "postalCode": "M6N 4Z5", "cc": "CA", "city": "Toronto", "state": "ON", "country": "Canada", "formattedAddress": ["2571 St Clair Ave West, Unit # E1 (Castleton Ave)", "Toronto ON M6N 4Z5", "Canada"]}, "categories": [{"id": "4bf58dd8d48988d1e0931735", "name": "Coffee Shop", "pluralName": "Coffee Shops", "shortName": "Coffee Shop", "icon": {"prefix": "https://ss3.4sqi.net/img/categories_v2/food/coffeeshop_", "suffix": ".png"}, "primary": true}], "photos": {"count": 0, "groups": []}}, "referralId": "e-0-4c96506382b56dcb806ce0aa-23"}, {"reasons": {"count": 0, "items": [{"summary": "This spot is popular", "type": "general", "reasonName": "globalInteractionReason"}]}, "venue": {"id": "4c2a32da9fb5d13ad3599c57", "name": "Tim Hortons", "location": {"address": "3487 Dundas St West", "crossStreet": "Jane St / Bloor Village", "lat": 43.66539975995932, "lng": -79.48822304606438, "labeledLatLngs": [{"label": "display", "lat": 43.66539975995932, "lng": -79.48822304606438}], "distance": 870, "postalCode": "M6S 2S5", "cc": "CA", "city": "Toronto", "state": "ON", "country": "Canada", "formattedAddress": ["3487 Dundas St West (Jane St / Bloor Village)", "Toronto ON M6S 2S5", "Canada"]}, "categories": [{"id": "4bf58dd8d48988d1e0931735", "name": "Coffee Shop", "pluralName": "Coffee Shops", "shortName": "Coffee Shop", "icon": {"prefix": "https://ss3.4sqi.net/img/categories_v2/food/coffeeshop_", "suffix": ".png"}, "primary": true}], "photos": {"count": 0, "groups": []}}, "referralId": "e-0-4c2a32da9fb5d13ad3599c57-24"}, {"reasons": {"count": 0, "items": [{"summary": "This spot is popular", "type": "general", "reasonName": "globalInteractionReason"}]}, "venue": {"id": "4fb699dd7bebbeb2a6c7bb27", "name": "Shoppers Drug Mart", "location": {"address": "3446 Dundas St W", "lat": 43.666049, "lng": -79.486674, "labeledLatLngs": [{"label": "display", "lat": 43.666049, "lng": -79.486674}], "distance": 795, "postalCode": "M6S 2S1", "cc": "CA", "city": "Toronto", "state": "ON", "country": "Canada", "formattedAddress": ["3446 Dundas St W", "Toronto ON M6S 2S1", "Canada"]}, "categories": [{"id": "4bf58dd8d48988d10f951735", "name": "Pharmacy", "pluralName": "Pharmacies", "shortName": "Pharmacy", "icon": {"prefix": "https://ss3.4sqi.net/img/categories_v2/shops/pharmacy_", "suffix": ".png"}, "primary": true}], "photos": {"count": 0, "groups": []}}, "referralId": "e-0-4fb699dd7bebbeb2a6c7bb27-25"}, {"reasons": {"count": 0, "items": [{"summary": "This spot is popular", "type": "general", "reasonName": "globalInteractionReason"}]}, "venue": {"id": "4e90e126722ebb868be39300", "name": "Wonderfood", "location": {"address": "Woolner Ave", "crossStreet": "Jane & Woolner", "lat": 43.67235238324323, "lng": -79.49257115909873, "labeledLatLngs": [{"label": "display", "lat": 43.67235238324323, "lng": -79.49257115909873}], "distance": 437, "postalCode": "M6N 1Y6", "cc": "CA", "city": "Toronto", "state": "ON", "country": "Canada", "formattedAddress": ["Woolner Ave (Jane & Woolner)", "Toronto ON M6N 1Y6", "Canada"]}, "categories": [{"id": "4d954b0ea243a5684a65b473", "name": "Convenience Store", "pluralName": "Convenience Stores", "shortName": "Convenience Store", "icon": {"prefix": "https://ss3.4sqi.net/img/categories_v2/shops/conveniencestore_", "suffix": ".png"}, "primary": true}], "photos": {"count": 0, "groups": []}}, "referralId": "e-0-4e90e126722ebb868be39300-26"}, {"reasons": {"count": 0, "items": [{"summary": "This spot is popular", "type": "general", "reasonName": "globalInteractionReason"}]}, "venue": {"id": "53ea81ae498ef5f75620dde0", "name": "195 Jane Rocket", "location": {"lat": 43.672334850841, "lng": -79.49263389979957, "labeledLatLngs": [{"label": "display", "lat": 43.672334850841, "lng": -79.49263389979957}], "distance": 442, "cc": "CA", "country": "Canada", "formattedAddress": ["Canada"]}, "categories": [{"id": "4bf58dd8d48988d12b951735", "name": "Bus Line", "pluralName": "Bus Lines", "shortName": "Bus", "icon": {"prefix": "https://ss3.4sqi.net/img/categories_v2/travel/busstation_", "suffix": ".png"}, "primary": true}], "photos": {"count": 0, "groups": []}}, "referralId": "e-0-53ea81ae498ef5f75620dde0-27"}, {"reasons": {"count": 0, "items": [{"summary": "This spot is popular", "type": "general", "reasonName": "globalInteractionReason"}]}, "venue": {"id": "4ecc2fe882319a184b4ddd49", "name": "Welcome Food Mart", "location": {"address": "839 Runnymede Rd", "crossStreet": "at St Clair Ave W", "lat": 43.66970140136457, "lng": -79.48349146580819, "labeledLatLngs": [{"label": "display", "lat": 43.66970140136457, "lng": -79.48349146580819}], "distance": 492, "postalCode": "M6N 3V8", "cc": "CA", "city": "Toronto", "state": "ON", "country": "Canada", "formattedAddress": ["839 Runnymede Rd (at St Clair Ave W)", "Toronto ON M6N 3V8", "Canada"]}, "categories": [{"id": "4bf58dd8d48988d118951735", "name": "Grocery Store", "pluralName": "Grocery Stores", "shortName": "Grocery Store", "icon": {"prefix": "https://ss3.4sqi.net/img/categories_v2/shops/food_grocery_", "suffix": ".png"}, "primary": true}], "photos": {"count": 0, "groups": []}}, "referralId": "e-0-4ecc2fe882319a184b4ddd49-28"}, {"reasons": {"count": 0, "items": [{"summary": "This spot is popular", "type": "general", "reasonName": "globalInteractionReason"}]}, "venue": {"id": "4c116122d41e76b0e44c310d", "name": "TD Canada Trust", "location": {"address": "2555 St Clair Ave W", "crossStreet": "Runnymede Av", "lat": 43.66792023649918, "lng": -79.48719844222069, "labeledLatLngs": [{"label": "display", "lat": 43.66792023649918, "lng": -79.48719844222069}], "distance": 586, "postalCode": "M6N 4Z5", "cc": "CA", "city": "Toronto", "state": "ON", "country": "Canada", "formattedAddress": ["2555 St Clair Ave W (Runnymede Av)", "Toronto ON M6N 4Z5", "Canada"]}, "categories": [{"id": "4bf58dd8d48988d10a951735", "name": "Bank", "pluralName": "Banks", "shortName": "Bank", "icon": {"prefix": "https://ss3.4sqi.net/img/categories_v2/shops/financial_", "suffix": ".png"}, "primary": true}], "photos": {"count": 0, "groups": []}}, "referralId": "e-0-4c116122d41e76b0e44c310d-29"}, {"reasons": {"count": 0, "items": [{"summary": "This spot is popular", "type": "general", "reasonName": "globalInteractionReason"}]}, "venue": {"id": "4bb1358af964a5209e833ce3", "name": "EB Games", "location": {"address": "2471 St. Clair Ave W", "lat": 43.66859541777041, "lng": -79.48428831257917, "labeledLatLngs": [{"label": "display", "lat": 43.66859541777041, "lng": -79.48428831257917}], "distance": 564, "postalCode": "M6N 4Z5", "cc": "CA", "city": "Toronto", "state": "ON", "country": "Canada", "formattedAddress": ["2471 St. Clair Ave W", "Toronto ON M6N 4Z5", "Canada"]}, "categories": [{"id": "4bf58dd8d48988d10b951735", "name": "Video Game Store", "pluralName": "Video Game Stores", "shortName": "Video Games", "icon": {"prefix": "https://ss3.4sqi.net/img/categories_v2/shops/videogames_", "suffix": ".png"}, "primary": true}], "photos": {"count": 0, "groups": []}}, "referralId": "e-0-4bb1358af964a5209e833ce3-30"}, {"reasons": {"count": 0, "items": [{"summary": "This spot is popular", "type": "general", "reasonName": "globalInteractionReason"}]}, "venue": {"id": "4ca8df8cb7106dcb181777a5", "name": "Modern Sensibility", "location": {"address": "380 Alliance Ave", "lat": 43.67809164925885, "lng": -79.48476433753967, "labeledLatLngs": [{"label": "display", "lat": 43.67809164925885, "lng": -79.48476433753967}], "distance": 582, "postalCode": "M6N 2H8", "cc": "CA", "city": "Toronto", "state": "ON", "country": "Canada", "formattedAddress": ["380 Alliance Ave", "Toronto ON M6N 2H8", "Canada"]}, "categories": [{"id": "4bf58dd8d48988d1f8941735", "name": "Furniture / Home Store", "pluralName": "Furniture / Home Stores", "shortName": "Furniture / Home", "icon": {"prefix": "https://ss3.4sqi.net/img/categories_v2/shops/furniture_", "suffix": ".png"}, "primary": true}], "photos": {"count": 0, "groups": []}, "venuePage": {"id": "41894449"}}, "referralId": "e-0-4ca8df8cb7106dcb181777a5-31"}, {"reasons": {"count": 0, "items": [{"summary": "This spot is popular", "type": "general", "reasonName": "globalInteractionReason"}]}, "venue": {"id": "4eada8482c5bb67b23b7baa2", "name": "Haney Park", "location": {"address": "10 Haney Ave", "crossStreet": "at Jane St", "lat": 43.674141969553745, "lng": -79.49514985084534, "labeledLatLngs": [{"label": "display", "lat": 43.674141969553745, "lng": -79.49514985084534}], "distance": 643, "cc": "CA", "city": "Toronto", "state": "ON", "country": "Canada", "formattedAddress": ["10 Haney Ave (at Jane St)", "Toronto ON", "Canada"]}, "categories": [{"id": "4bf58dd8d48988d163941735", "name": "Park", "pluralName": "Parks", "shortName": "Park", "icon": {"prefix": "https://ss3.4sqi.net/img/categories_v2/parks_outdoors/park_", "suffix": ".png"}, "primary": true}], "photos": {"count": 0, "groups": []}}, "referralId": "e-0-4eada8482c5bb67b23b7baa2-32"}, {"reasons": {"count": 0, "items": [{"summary": "This spot is popular", "type": "general", "reasonName": "globalInteractionReason"}]}, "venue": {"id": "4bedb974946c0f47ffd4a263", "name": "The Beer Store", "location": {"address": "Jane", "lat": 43.67659531394424, "lng": -79.494596350364, "labeledLatLngs": [{"label": "display", "lat": 43.67659531394424, "lng": -79.494596350364}], "distance": 702, "cc": "CA", "country": "Canada", "formattedAddress": ["Jane", "Canada"]}, "categories": [{"id": "5370f356bcbc57f1066c94c2", "name": "Beer Store", "pluralName": "Beer Stores", "shortName": "Beer Store", "icon": {"prefix": "https://ss3.4sqi.net/img/categories_v2/nightlife/beergarden_", "suffix": ".png"}, "primary": true}], "photos": {"count": 0, "groups": []}}, "referralId": "e-0-4bedb974946c0f47ffd4a263-33"}, {"reasons": {"count": 0, "items": [{"summary": "This spot is popular", "type": "general", "reasonName": "globalInteractionReason"}]}, "venue": {"id": "4e6cccf2a80957ae44e2bdb9", "name": "Runnymede Park", "location": {"address": "215 Ryding Ave", "lat": 43.668476287575736, "lng": -79.47915788898584, "labeledLatLngs": [{"label": "display", "lat": 43.668476287575736, "lng": -79.47915788898584}], "distance": 837, "cc": "CA", "city": "Toronto", "state": "ON", "country": "Canada", "formattedAddress": ["215 Ryding Ave", "Toronto ON", "Canada"]}, "categories": [{"id": "4bf58dd8d48988d163941735", "name": "Park", "pluralName": "Parks", "shortName": "Park", "icon": {"prefix": "https://ss3.4sqi.net/img/categories_v2/parks_outdoors/park_", "suffix": ".png"}, "primary": true}], "photos": {"count": 0, "groups": []}}, "referralId": "e-0-4e6cccf2a80957ae44e2bdb9-34"}, {"reasons": {"count": 0, "items": [{"summary": "This spot is popular", "type": "general", "reasonName": "globalInteractionReason"}]}, "venue": {"id": "4c5f2c1fde6920a194309364", "name": "Island Breeze", "location": {"address": "907 Jane Street", "crossStreet": "Alliance", "lat": 43.67742716216074, "lng": -79.49604614685293, "labeledLatLngs": [{"label": "display", "lat": 43.67742716216074, "lng": -79.49604614685293}], "distance": 850, "cc": "CA", "city": "Toronto", "state": "ON", "country": "Canada", "formattedAddress": ["907 Jane Street (Alliance)", "Toronto ON", "Canada"]}, "categories": [{"id": "4bf58dd8d48988d142941735", "name": "Asian Restaurant", "pluralName": "Asian Restaurants", "shortName": "Asian", "icon": {"prefix": "https://ss3.4sqi.net/img/categories_v2/food/asian_", "suffix": ".png"}, "primary": true}], "photos": {"count": 0, "groups": []}}, "referralId": "e-0-4c5f2c1fde6920a194309364-35"}, {"reasons": {"count": 0, "items": [{"summary": "This spot is popular", "type": "general", "reasonName": "globalInteractionReason"}]}, "venue": {"id": "4c118838a9420f471dfb7c51", "name": "Food Basics", "location": {"address": "853 Jane Street", "crossStreet": "at Alliance Ave.", "lat": 43.67676818118445, "lng": -79.49521055113742, "labeledLatLngs": [{"label": "display", "lat": 43.67676818118445, "lng": -79.49521055113742}], "distance": 754, "postalCode": "M6N 4C4", "cc": "CA", "city": "Toronto", "state": "ON", "country": "Canada", "formattedAddress": ["853 Jane Street (at Alliance Ave.)", "Toronto ON M6N 4C4", "Canada"]}, "categories": [{"id": "52f2ab2ebcbc57f1066b8b46", "name": "Supermarket", "pluralName": "Supermarkets", "shortName": "Supermarket", "icon": {"prefix": "https://ss3.4sqi.net/img/categories_v2/shops/food_grocery_", "suffix": ".png"}, "primary": true}], "photos": {"count": 0, "groups": []}}, "referralId": "e-0-4c118838a9420f471dfb7c51-36"}, {"reasons": {"count": 0, "items": [{"summary": "This spot is popular", "type": "general", "reasonName": "globalInteractionReason"}]}, "venue": {"id": "536a80fa498ea4305dc91c43", "name": "Caboose Coffee House", "location": {"address": "3333 Dundas St. West\u00a0", "crossStreet": "Runnymede road", "lat": 43.66557382466553, "lng": -79.48098142157025, "labeledLatLngs": [{"label": "display", "lat": 43.66557382466553, "lng": -79.48098142157025}], "distance": 986, "cc": "CA", "city": "Toronto", "state": "ON", "country": "Canada", "formattedAddress": ["3333 Dundas St. West\u00a0 (Runnymede road)", "Toronto ON", "Canada"]}, "categories": [{"id": "4bf58dd8d48988d1e0931735", "name": "Coffee Shop", "pluralName": "Coffee Shops", "shortName": "Coffee Shop", "icon": {"prefix": "https://ss3.4sqi.net/img/categories_v2/food/coffeeshop_", "suffix": ".png"}, "primary": true}], "photos": {"count": 0, "groups": []}}, "referralId": "e-0-536a80fa498ea4305dc91c43-37"}, {"reasons": {"count": 0, "items": [{"summary": "This spot is popular", "type": "general", "reasonName": "globalInteractionReason"}]}, "venue": {"id": "4b5f1a6ef964a5203da629e3", "name": "Danier Leather Factory Outlet", "location": {"address": "2650 St Clair Ave W", "lat": 43.666856475320635, "lng": -79.4969856140433, "labeledLatLngs": [{"label": "display", "lat": 43.666856475320635, "lng": -79.4969856140433}], "distance": 1053, "postalCode": "M6N 1M2", "cc": "CA", "city": "Toronto", "state": "ON", "country": "Canada", "formattedAddress": ["2650 St Clair Ave W", "Toronto ON M6N 1M2", "Canada"]}, "categories": [{"id": "4bf58dd8d48988d103951735", "name": "Clothing Store", "pluralName": "Clothing Stores", "shortName": "Apparel", "icon": {"prefix": "https://ss3.4sqi.net/img/categories_v2/shops/apparel_", "suffix": ".png"}, "primary": true}], "photos": {"count": 0, "groups": []}}, "referralId": "e-0-4b5f1a6ef964a5203da629e3-38"}]}]}}