{"meta": {"code": 200, "requestId": "5e1973db0be7b4001b242d4e"}, "response": {"headerLocation": "Bloor West Village", "headerFullLocation": "Bloor West Village, Toronto", "headerLocationGranularity": "neighborhood", "totalResults": 78, "suggestedBounds": {"ne": {"lat": 43.65979660822601, "lng": -79.47310218443786}, "sw": {"lat": 43.64334459177399, "lng": -79.49579761556214}}, "groups": [{"type": "Recommended Places", "name": "recommended", "items": [{"reasons": {"count": 0, "items": [{"summary": "This spot is popular", "type": "general", "reasonName": "globalInteractionReason"}]}, "venue": {"id": "4e5ffdf962e13e3bcd932a0a", "name": "The Good Fork", "location": {"address": "2432 Bloor St. W", "crossStreet": "Jane", "lat": 43.64956534036813, "lng": -79.48402270694602, "labeledLatLngs": [{"label": "display", "lat": 43.64956534036813, "lng": -79.48402270694602}], "distance": 225, "postalCode": "M6S 1P9", "cc": "CA", "city": "Toronto", "state": "ON", "country": "Canada", "formattedAddress": ["2432 Bloor St. W (Jane)", "Toronto ON M6S 1P9", "Canada"]}, "categories": [{"id": "4d4b7105d754a06374d81259", "name": "Food", "pluralName": "Food", "shortName": "Food", "icon": {"prefix": "https://ss3.4sqi.net/img/categories_v2/food/default_", "suffix": ".png"}, "primary": true}], "photos": {"count": 0, "groups": []}, "venuePage": {"id": "32831185"}}, "referralId": "e-0-4e5ffdf962e13e3bcd932a0a-0"}, {"reasons": {"count": 0, "items": [{"summary": "This spot is popular", "type": "general", "reasonName": "globalInteractionReason"}]}, "venue": {"id": "4b52112bf964a520416527e3", "name": "DAVIDsTEA", "location": {"address": "2285 Bloor St W", "lat": 43.65058422430476, "lng": -79.47885289769167, "labeledLatLngs": [{"label": "display", "lat": 43.65058422430476, "lng": -79.47885289769167}], "distance": 463, "postalCode": "M6S 1P1", "cc": "CA", "city": "Toronto", "state": "ON", "country": "Canada", "formattedAddress": ["2285 Bloor St W", "Toronto ON M6S 1P1", "Canada"]}, "categories": [{"id": "4bf58dd8d48988d1dc931735", "name": "Tea Room", "pluralName": "Tea Rooms", "shortName": "Tea Room", "icon": {"prefix": "https://ss3.4sqi.net/img/categories_v2/food/tearoom_", "suffix": ".png"}, "primary": true}], "photos": {"count": 0, "groups": []}}, "referralId": "e-0-4b52112bf964a520416527e3-1"}, {"reasons": {"count": 0, "items": [{"summary": "This spot is popular", "type": "general", "reasonName": "globalInteractionReason"}]}, "venue": {"id": "4b91740af964a520adbd33e3", "name": "Coffee Tree Roastery", "location": {"address": "2412 Bloor Street West", "lat": 43.64964735112305, "lng": -79.48343639040918, "labeledLatLngs": [{"label": "display", "lat": 43.64964735112305, "lng": -79.48343639040918}], "distance": 229, "postalCode": "M6S 1P9", "cc": "CA", "city": "Toronto", "state": "ON", "country": "Canada", "formattedAddress": ["2412 Bloor Street West", "Toronto ON M6S 1P9", "Canada"]}, "categories": [{"id": "4bf58dd8d48988d16d941735", "name": "Caf\u00e9", "pluralName": "Caf\u00e9s", "shortName": "Caf\u00e9", "icon": {"prefix": "https://ss3.4sqi.net/img/categories_v2/food/cafe_", "suffix": ".png"}, "primary": true}], "photos": {"count": 0, "groups": []}}, "referralId": "e-0-4b91740af964a520adbd33e3-2"}, {"reasons": {"count": 0, "items": [{"summary": "This spot is popular", "type": "general", "reasonName": "globalInteractionReason"}]}, "venue": {"id": "546f7c9e498e9b5b70b88dca", "name": "Fat Bastard Burrito", "location": {"address": "2400 Bloor St W", "lat": 43.6497791550768, "lng": -79.48289414342419, "labeledLatLngs": [{"label": "display", "lat": 43.6497791550768, "lng": -79.48289414342419}], "distance": 235, "postalCode": "M6S 1P5", "cc": "CA", "country": "Canada", "formattedAddress": ["2400 Bloor St W", "M6S 1P5", "Canada"]}, "categories": [{"id": "4bf58dd8d48988d153941735", "name": "Burrito Place", "pluralName": "Burrito Places", "shortName": "Burritos", "icon": {"prefix": "https://ss3.4sqi.net/img/categories_v2/food/burrito_", "suffix": ".png"}, "primary": true}], "photos": {"count": 0, "groups": []}}, "referralId": "e-0-546f7c9e498e9b5b70b88dca-3"}, {"reasons": {"count": 0, "items": [{"summary": "This spot is popular", "type": "general", "reasonName": "globalInteractionReason"}]}, "venue": {"id": "51f2a052498e3c69bf38ee85", "name": "The One That Got Away", "location": {"address": "2392 Bloor St W", "lat": 43.64984188412754, "lng": -79.48261453424496, "labeledLatLngs": [{"label": "display", "lat": 43.64984188412754, "lng": -79.48261453424496}], "distance": 242, "cc": "CA", "city": "Toronto", "state": "ON", "country": "Canada", "formattedAddress": ["2392 Bloor St W", "Toronto ON", "Canada"]}, "categories": [{"id": "4edd64a0c7ddd24ca188df1a", "name": "Fish & Chips Shop", "pluralName": "Fish & Chips Shops", "shortName": "Fish & Chips", "icon": {"prefix": "https://ss3.4sqi.net/img/categories_v2/food/fishandchips_", "suffix": ".png"}, "primary": true}], "photos": {"count": 0, "groups": []}}, "referralId": "e-0-51f2a052498e3c69bf38ee85-4"}, {"reasons": {"count": 0, "items": [{"summary": "This spot is popular", "type": "general", "reasonName": "globalInteractionReason"}]}, "venue": {"id": "4af8ad0bf964a520200f22e3", "name": "Bryden's Pub", "location": {"address": "2455 Bloor St W", "crossStreet": "at Jane St.", "lat": 43.64925890136825, "lng": -79.4846509607823, "labeledLatLngs": [{"label": "display", "lat": 43.64925890136825, "lng": -79.4846509607823}], "distance": 257, "cc": "CA", "city": "Toronto", "state": "ON", "country": "Canada", "formattedAddress": ["2455 Bloor St W (at Jane St.)", "Toronto ON", "Canada"]}, "categories": [{"id": "4bf58dd8d48988d11b941735", "name": "Pub", "pluralName": "Pubs", "shortName": "Pub", "icon": {"prefix": "https://ss3.4sqi.net/img/categories_v2/nightlife/pub_", "suffix": ".png"}, "primary": true}], "photos": {"count": 0, "groups": []}}, "referralId": "e-0-4af8ad0bf964a520200f22e3-5"}, {"reasons": {"count": 0, "items": [{"summary": "This spot is popular", "type": "general", "reasonName": "globalInteractionReason"}]}, "venue": {"id": "4dceaf5db0fb25f6e349cae3", "name": "Wibke's Espresso Bar", "location": {"address": "2465 Bloor St. W", "crossStreet": "at Jane St.", "lat": 43.64913158497341, "lng": -79.48480237071465, "labeledLatLngs": [{"label": "display", "lat": 43.64913158497341, "lng": -79.48480237071465}], "distance": 272, "postalCode": "M6S 1P7", "cc": "CA", "city": "Toronto", "state": "ON", "country": "Canada", "formattedAddress": ["2465 Bloor St. W (at Jane St.)", "Toronto ON M6S 1P7", "Canada"]}, "categories": [{"id": "4bf58dd8d48988d1e0931735", "name": "Coffee Shop", "pluralName": "Coffee Shops", "shortName": "Coffee Shop", "icon": {"prefix": "https://ss3.4sqi.net/img/categories_v2/food/coffeeshop_", "suffix": ".png"}, "primary": true}], "photos": {"count": 0, "groups": []}, "venuePage": {"id": "36639285"}}, "referralId": "e-0-4dceaf5db0fb25f6e349cae3-6"}, {"reasons": {"count": 0, "items": [{"summary": "This spot is popular", "type": "general", "reasonName": "globalInteractionReason"}]}, "venue": {"id": "5434a336498e25b50077e07d", "name": "Campo", "location": {"address": "244 Jane St.", "crossStreet": "Jane And Bloor", "lat": 43.655191, "lng": -79.487067, "labeledLatLngs": [{"label": "display", "lat": 43.655191, "lng": -79.487067}], "distance": 454, "postalCode": "M6S 3Z1", "cc": "CA", "neighborhood": "Humberside", "city": "Toronto", "state": "ON", "country": "Canada", "formattedAddress": ["244 Jane St. (Jane And Bloor)", "Toronto ON M6S 3Z1", "Canada"]}, "categories": [{"id": "4bf58dd8d48988d110941735", "name": "Italian Restaurant", "pluralName": "Italian Restaurants", "shortName": "Italian", "icon": {"prefix": "https://ss3.4sqi.net/img/categories_v2/food/italian_", "suffix": ".png"}, "primary": true}], "photos": {"count": 0, "groups": []}}, "referralId": "e-0-5434a336498e25b50077e07d-7"}, {"reasons": {"count": 0, "items": [{"summary": "This spot is popular", "type": "general", "reasonName": "globalInteractionReason"}]}, "venue": {"id": "50e5ef7ee4b0e2b1ec8e24cf", "name": "Baka Gallery Cafe", "location": {"address": "2256 Bloor St W", "crossStreet": "Beresford Ave", "lat": 43.65103966439781, "lng": -79.47760530158712, "labeledLatLngs": [{"label": "display", "lat": 43.65103966439781, "lng": -79.47760530158712}], "distance": 554, "postalCode": "M6S 1N6", "cc": "CA", "city": "Toronto", "state": "ON", "country": "Canada", "formattedAddress": ["2256 Bloor St W (Beresford Ave)", "Toronto ON M6S 1N6", "Canada"]}, "categories": [{"id": "4bf58dd8d48988d16d941735", "name": "Caf\u00e9", "pluralName": "Caf\u00e9s", "shortName": "Caf\u00e9", "icon": {"prefix": "https://ss3.4sqi.net/img/categories_v2/food/cafe_", "suffix": ".png"}, "primary": true}], "photos": {"count": 0, "groups": []}}, "referralId": "e-0-50e5ef7ee4b0e2b1ec8e24cf-8"}, {"reasons": {"count": 0, "items": [{"summary": "This spot is popular", "type": "general", "reasonName": "globalInteractionReason"}]}, "venue": {"id": "4bacf4d6f964a520ef1d3be3", "name": "Bread & Roses Bakery Cafe", "location": {"address": "2232 Bloor St W", "lat": 43.651194318292276, "lng": -79.47665677628656, "labeledLatLngs": [{"label": "display", "lat": 43.651194318292276, "lng": -79.47665677628656}], "distance": 629, "postalCode": "M6S 1N6", "cc": "CA", "city": "Toronto", "state": "ON", "country": "Canada", "formattedAddress": ["2232 Bloor St W", "Toronto ON M6S 1N6", "Canada"]}, "categories": [{"id": "4bf58dd8d48988d16a941735", "name": "Bakery", "pluralName": "Bakeries", "shortName": "Bakery", "icon": {"prefix": "https://ss3.4sqi.net/img/categories_v2/food/bakery_", "suffix": ".png"}, "primary": true}], "photos": {"count": 0, "groups": []}}, "referralId": "e-0-4bacf4d6f964a520ef1d3be3-9"}, {"reasons": {"count": 0, "items": [{"summary": "This spot is popular", "type": "general", "reasonName": "globalInteractionReason"}]}, "venue": {"id": "538a2055498e7b711dd3798a", "name": "Book City (Bloor West)", "location": {"lat": 43.65021080519715, "lng": -79.48122019699115, "labeledLatLngs": [{"label": "display", "lat": 43.65021080519715, "lng": -79.48122019699115}], "distance": 300, "cc": "CA", "city": "Toronto", "state": "ON", "country": "Canada", "formattedAddress": ["Toronto ON", "Canada"]}, "categories": [{"id": "4bf58dd8d48988d114951735", "name": "Bookstore", "pluralName": "Bookstores", "shortName": "Bookstore", "icon": {"prefix": "https://ss3.4sqi.net/img/categories_v2/shops/bookstore_", "suffix": ".png"}, "primary": true}], "photos": {"count": 0, "groups": []}}, "referralId": "e-0-538a2055498e7b711dd3798a-10"}, {"reasons": {"count": 0, "items": [{"summary": "This spot is popular", "type": "general", "reasonName": "globalInteractionReason"}]}, "venue": {"id": "4ad4c05ff964a52032f720e3", "name": "Queen's Pasta Caf\u00e9", "location": {"address": "2263 Bloor St W", "lat": 43.65070658803776, "lng": -79.47797787214411, "labeledLatLngs": [{"label": "display", "lat": 43.65070658803776, "lng": -79.47797787214411}], "distance": 530, "postalCode": "M6S 1N8", "cc": "CA", "city": "Toronto", "state": "ON", "country": "Canada", "formattedAddress": ["2263 Bloor St W", "Toronto ON M6S 1N8", "Canada"]}, "categories": [{"id": "4bf58dd8d48988d110941735", "name": "Italian Restaurant", "pluralName": "Italian Restaurants", "shortName": "Italian", "icon": {"prefix": "https://ss3.4sqi.net/img/categories_v2/food/italian_", "suffix": ".png"}, "primary": true}], "photos": {"count": 0, "groups": []}}, "referralId": "e-0-4ad4c05ff964a52032f720e3-11"}, {"reasons": {"count": 0, "items": [{"summary": "This spot is popular", "type": "general", "reasonName": "globalInteractionReason"}]}, "venue": {"id": "4bd2e88077b29c74e9838f82", "name": "Bloom Restaurant", "location": {"address": "2315 Bloor Street West", "crossStreet": "between Windemere & Durie", "lat": 43.65030692996379, "lng": -79.4798355748952, "labeledLatLngs": [{"label": "display", "lat": 43.65030692996379, "lng": -79.4798355748952}], "distance": 397, "postalCode": "M6S 1P1", "cc": "CA", "city": "Toronto", "state": "ON", "country": "Canada", "formattedAddress": ["2315 Bloor Street West (between Windemere & Durie)", "Toronto ON M6S 1P1", "Canada"]}, "categories": [{"id": "4bf58dd8d48988d1be941735", "name": "Latin American Restaurant", "pluralName": "Latin American Restaurants", "shortName": "Latin American", "icon": {"prefix": "https://ss3.4sqi.net/img/categories_v2/food/latinamerican_", "suffix": ".png"}, "primary": true}], "photos": {"count": 0, "groups": []}, "venuePage": {"id": "59079762"}}, "referralId": "e-0-4bd2e88077b29c74e9838f82-12"}, {"reasons": {"count": 0, "items": [{"summary": "This spot is popular", "type": "general", "reasonName": "globalInteractionReason"}]}, "venue": {"id": "4b51f5c2f964a520945d27e3", "name": "Falafel World", "location": {"address": "2396 Bloor St W", "crossStreet": "at Armadale Ave", "lat": 43.649800784968164, "lng": -79.48272777159343, "labeledLatLngs": [{"label": "display", "lat": 43.649800784968164, "lng": -79.48272777159343}], "distance": 240, "postalCode": "M6S 1P5", "cc": "CA", "city": "Toronto", "state": "ON", "country": "Canada", "formattedAddress": ["2396 Bloor St W (at Armadale Ave)", "Toronto ON M6S 1P5", "Canada"]}, "categories": [{"id": "4bf58dd8d48988d10b941735", "name": "Falafel Restaurant", "pluralName": "Falafel Restaurants", "shortName": "Falafel", "icon": {"prefix": "https://ss3.4sqi.net/img/categories_v2/food/falafel_", "suffix": ".png"}, "primary": true}], "photos": {"count": 0, "groups": []}}, "referralId": "e-0-4b51f5c2f964a520945d27e3-13"}, {"reasons": {"count": 0, "items": [{"summary": "This spot is popular", "type": "general", "reasonName": "globalInteractionReason"}]}, "venue": {"id": "4ad4c05ff964a52003f720e3", "name": "Old Mill Toronto", "location": {"address": "21 Old Mill Rd.", "crossStreet": "btwn Home Smith Park & Old Mill Dr.", "lat": 43.651011078509626, "lng": -79.49322209020357, "labeledLatLngs": [{"label": "display", "lat": 43.651011078509626, "lng": -79.49322209020357}], "distance": 709, "postalCode": "M8X 1G5", "cc": "CA", "city": "Toronto", "state": "ON", "country": "Canada", "formattedAddress": ["21 Old Mill Rd. (btwn Home Smith Park & Old Mill Dr.)", "Toronto ON M8X 1G5", "Canada"]}, "categories": [{"id": "4bf58dd8d48988d14e941735", "name": "American Restaurant", "pluralName": "American Restaurants", "shortName": "American", "icon": {"prefix": "https://ss3.4sqi.net/img/categories_v2/food/default_", "suffix": ".png"}, "primary": true}], "photos": {"count": 0, "groups": []}}, "referralId": "e-0-4ad4c05ff964a52003f720e3-14"}, {"reasons": {"count": 0, "items": [{"summary": "This spot is popular", "type": "general", "reasonName": "globalInteractionReason"}]}, "venue": {"id": "502d7d4ee4b0eed9c2a73957", "name": "Yogurty's", "location": {"address": "2203 Bloor St. W", "lat": 43.651228146043934, "lng": -79.4755243018108, "labeledLatLngs": [{"label": "display", "lat": 43.651228146043934, "lng": -79.4755243018108}], "distance": 719, "postalCode": "M6S 1N5", "cc": "CA", "city": "Toronto", "state": "ON", "country": "Canada", "formattedAddress": ["2203 Bloor St. W", "Toronto ON M6S 1N5", "Canada"]}, "categories": [{"id": "512e7cae91d4cbb4e5efe0af", "name": "Frozen Yogurt Shop", "pluralName": "Frozen Yogurt Shops", "shortName": "Yogurt", "icon": {"prefix": "https://ss3.4sqi.net/img/categories_v2/food/frozenyogurt_", "suffix": ".png"}, "primary": true}], "photos": {"count": 0, "groups": []}}, "referralId": "e-0-502d7d4ee4b0eed9c2a73957-15"}, {"reasons": {"count": 0, "items": [{"summary": "This spot is popular", "type": "general", "reasonName": "globalInteractionReason"}]}, "venue": {"id": "51439564e4b0df0d66a5267e", "name": "Queen Margherita", "location": {"address": "785 Annette St.", "lat": 43.65822425389276, "lng": -79.48803424201802, "labeledLatLngs": [{"label": "display", "lat": 43.65822425389276, "lng": -79.48803424201802}], "distance": 794, "postalCode": "M6S 2E2", "cc": "CA", "city": "Toronto", "state": "ON", "country": "Canada", "formattedAddress": ["785 Annette St.", "Toronto ON M6S 2E2", "Canada"]}, "categories": [{"id": "4bf58dd8d48988d1ca941735", "name": "Pizza Place", "pluralName": "Pizza Places", "shortName": "Pizza", "icon": {"prefix": "https://ss3.4sqi.net/img/categories_v2/food/pizza_", "suffix": ".png"}, "primary": true}], "photos": {"count": 0, "groups": []}}, "referralId": "e-0-51439564e4b0df0d66a5267e-16"}, {"reasons": {"count": 0, "items": [{"summary": "This spot is popular", "type": "general", "reasonName": "globalInteractionReason"}]}, "venue": {"id": "4b3bde3ff964a520097d25e3", "name": "Max's Market", "location": {"address": "2299 Bloor St. W", "crossStreet": "Durie St", "lat": 43.65052462233729, "lng": -79.47914453187883, "labeledLatLngs": [{"label": "display", "lat": 43.65052462233729, "lng": -79.47914453187883}], "distance": 442, "postalCode": "M6S 1P1", "cc": "CA", "city": "Toronto", "state": "ON", "country": "Canada", "formattedAddress": ["2299 Bloor St. W (Durie St)", "Toronto ON M6S 1P1", "Canada"]}, "categories": [{"id": "4bf58dd8d48988d1f5941735", "name": "Gourmet Shop", "pluralName": "Gourmet Shops", "shortName": "Gourmet", "icon": {"prefix": "https://ss3.4sqi.net/img/categories_v2/shops/food_gourmet_", "suffix": ".png"}, "primary": true}], "photos": {"count": 0, "groups": []}, "venuePage": {"id": "114183191"}}, "referralId": "e-0-4b3bde3ff964a520097d25e3-17"}, {"reasons": {"count": 0, "items": [{"summary": "This spot is popular", "type": "general", "reasonName": "globalInteractionReason"}]}, "venue": {"id": "4b92dbe4f964a5202b2234e3", "name": "Yumi Sushi", "location": {"address": "2384 Bloor Street West", "lat": 43.64989127391365, "lng": -79.4824044490675, "labeledLatLngs": [{"label": "display", "lat": 43.64989127391365, "lng": -79.4824044490675}], "distance": 249, "cc": "CA", "city": "Toronto", "state": "ON", "country": "Canada", "formattedAddress": ["2384 Bloor Street West", "Toronto ON", "Canada"]}, "categories": [{"id": "4bf58dd8d48988d1d2941735", "name": "Sushi Restaurant", "pluralName": "Sushi Restaurants", "shortName": "Sushi", "icon": {"prefix": "https://ss3.4sqi.net/img/categories_v2/food/sushi_", "suffix": ".png"}, "primary": true}], "photos": {"count": 0, "groups": []}}, "referralId": "e-0-4b92dbe4f964a5202b2234e3-18"}, {"reasons": {"count": 0, "items": [{"summary": "This spot is popular", "type": "general", "reasonName": "globalInteractionReason"}]}, "venue": {"id": "4b929821f964a520e90734e3", "name": "New Balance", "location": {"address": "2252 Bloor St. W", "crossStreet": "at Runnymede Rd", "lat": 43.65095377580209, "lng": -79.4773976977124, "labeledLatLngs": [{"label": "display", "lat": 43.65095377580209, "lng": -79.4773976977124}], "distance": 572, "postalCode": "M6S 1N6", "cc": "CA", "city": "Toronto", "state": "ON", "country": "Canada", "formattedAddress": ["2252 Bloor St. W (at Runnymede Rd)", "Toronto ON M6S 1N6", "Canada"]}, "categories": [{"id": "4bf58dd8d48988d107951735", "name": "Shoe Store", "pluralName": "Shoe Stores", "shortName": "Shoes", "icon": {"prefix": "https://ss3.4sqi.net/img/categories_v2/shops/apparel_shoestore_", "suffix": ".png"}, "primary": true}], "photos": {"count": 0, "groups": []}}, "referralId": "e-0-4b929821f964a520e90734e3-19"}, {"reasons": {"count": 0, "items": [{"summary": "This spot is popular", "type": "general", "reasonName": "globalInteractionReason"}]}, "venue": {"id": "4b22d90ff964a520ab4e24e3", "name": "Amber European Restaurant", "location": {"address": "2372 Bloor Street West", "crossStreet": "Jane", "lat": 43.64994563414707, "lng": -79.48200902277628, "labeledLatLngs": [{"label": "display", "lat": 43.64994563414707, "lng": -79.48200902277628}], "distance": 267, "cc": "CA", "city": "Toronto", "state": "ON", "country": "Canada", "formattedAddress": ["2372 Bloor Street West (Jane)", "Toronto ON", "Canada"]}, "categories": [{"id": "4bf58dd8d48988d10c941735", "name": "French Restaurant", "pluralName": "French Restaurants", "shortName": "French", "icon": {"prefix": "https://ss3.4sqi.net/img/categories_v2/food/french_", "suffix": ".png"}, "primary": true}], "photos": {"count": 0, "groups": []}}, "referralId": "e-0-4b22d90ff964a520ab4e24e3-20"}, {"reasons": {"count": 0, "items": [{"summary": "This spot is popular", "type": "general", "reasonName": "globalInteractionReason"}]}, "venue": {"id": "580a459338faf1db4438ba33", "name": "Goodfellas Wood Oven Pizza", "location": {"lat": 43.648224, "lng": -79.486356, "labeledLatLngs": [{"label": "display", "lat": 43.648224, "lng": -79.486356}], "distance": 402, "cc": "CA", "country": "Canada", "formattedAddress": ["Canada"]}, "categories": [{"id": "4bf58dd8d48988d110941735", "name": "Italian Restaurant", "pluralName": "Italian Restaurants", "shortName": "Italian", "icon": {"prefix": "https://ss3.4sqi.net/img/categories_v2/food/italian_", "suffix": ".png"}, "primary": true}], "photos": {"count": 0, "groups": []}}, "referralId": "e-0-580a459338faf1db4438ba33-21"}, {"reasons": {"count": 0, "items": [{"summary": "This spot is popular", "type": "general", "reasonName": "globalInteractionReason"}]}, "venue": {"id": "4af74251f964a520ba0722e3", "name": "Starbucks", "location": {"address": "2210 Bloor St", "crossStreet": "at Runnymede Rd", "lat": 43.651395, "lng": -79.47599, "labeledLatLngs": [{"label": "display", "lat": 43.651395, "lng": -79.47599}], "distance": 681, "postalCode": "M6S 1N4", "cc": "CA", "city": "Toronto", "state": "ON", "country": "Canada", "formattedAddress": ["2210 Bloor St (at Runnymede Rd)", "Toronto ON M6S 1N4", "Canada"]}, "categories": [{"id": "4bf58dd8d48988d1e0931735", "name": "Coffee Shop", "pluralName": "Coffee Shops", "shortName": "Coffee Shop", "icon": {"prefix": "https://ss3.4sqi.net/img/categories_v2/food/coffeeshop_", "suffix": ".png"}, "primary": true}], "photos": {"count": 0, "groups": []}}, "referralId": "e-0-4af74251f964a520ba0722e3-22"}, {"reasons": {"count": 0, "items": [{"summary": "This spot is popular", "type": "general", "reasonName": "globalInteractionReason"}]}, "venue": {"id": "4b15aef7f964a52074b223e3", "name": "Asa Sushi", "location": {"address": "18 Jane St.", "crossStreet": "Bloor", "lat": 43.64990164450559, "lng": -79.4846109228881, "labeledLatLngs": [{"label": "display", "lat": 43.64990164450559, "lng": -79.4846109228881}], "distance": 186, "cc": "CA", "city": "Toronto", "state": "ON", "country": "Canada", "formattedAddress": ["18 Jane St. (Bloor)", "Toronto ON", "Canada"]}, "categories": [{"id": "4bf58dd8d48988d1d2941735", "name": "Sushi Restaurant", "pluralName": "Sushi Restaurants", "shortName": "Sushi", "icon": {"prefix": "https://ss3.4sqi.net/img/categories_v2/food/sushi_", "suffix": ".png"}, "primary": true}], "photos": {"count": 0, "groups": []}}, "referralId": "e-0-4b15aef7f964a52074b223e3-23"}, {"reasons": {"count": 0, "items": [{"summary": "This spot is popular", "type": "general", "reasonName": "globalInteractionReason"}]}, "venue": {"id": "4b3be644f964a520ee7d25e3", "name": "Simply Thai", "location": {"address": "2253 Bloor St. West", "lat": 43.65078180371, "lng": -79.47760089101641, "labeledLatLngs": [{"label": "display", "lat": 43.65078180371, "lng": -79.47760089101641}], "distance": 558, "cc": "CA", "city": "Toronto", "state": "ON", "country": "Canada", "formattedAddress": ["2253 Bloor St. West", "Toronto ON", "Canada"]}, "categories": [{"id": "4bf58dd8d48988d149941735", "name": "Thai Restaurant", "pluralName": "Thai Restaurants", "shortName": "Thai", "icon": {"prefix": "https://ss3.4sqi.net/img/categories_v2/food/thai_", "suffix": ".png"}, "primary": true}], "photos": {"count": 0, "groups": []}}, "referralId": "e-0-4b3be644f964a520ee7d25e3-24"}, {"reasons": {"count": 0, "items": [{"summary": "This spot is popular", "type": "general", "reasonName": "globalInteractionReason"}]}, "venue": {"id": "4bb76b33d535b7132b77dd21", "name": "Bloor & Kennedy Flower Shop", "location": {"address": "2194 Bloor St W", "crossStreet": "at Kennedy Ave", "lat": 43.65142711461149, "lng": -79.47529492449927, "labeledLatLngs": [{"label": "display", "lat": 43.65142711461149, "lng": -79.47529492449927}], "distance": 737, "postalCode": "M6S 1N4", "cc": "CA", "city": "Toronto", "state": "ON", "country": "Canada", "formattedAddress": ["2194 Bloor St W (at Kennedy Ave)", "Toronto ON M6S 1N4", "Canada"]}, "categories": [{"id": "4bf58dd8d48988d11b951735", "name": "Flower Shop", "pluralName": "Flower Shops", "shortName": "Flower Shop", "icon": {"prefix": "https://ss3.4sqi.net/img/categories_v2/shops/flowershop_", "suffix": ".png"}, "primary": true}], "photos": {"count": 0, "groups": []}}, "referralId": "e-0-4bb76b33d535b7132b77dd21-25"}, {"reasons": {"count": 0, "items": [{"summary": "This spot is popular", "type": "general", "reasonName": "globalInteractionReason"}]}, "venue": {"id": "4b23e094f964a520e65b24e3", "name": "Cobs Bread", "location": {"address": "2204 Bloor St W", "crossStreet": "btwn Runnymede Rd & Kennedy Ave", "lat": 43.651347693482606, "lng": -79.4756394651729, "labeledLatLngs": [{"label": "display", "lat": 43.651347693482606, "lng": -79.4756394651729}], "distance": 710, "postalCode": "M6S 1N4", "cc": "CA", "city": "Toronto", "state": "ON", "country": "Canada", "formattedAddress": ["2204 Bloor St W (btwn Runnymede Rd & Kennedy Ave)", "Toronto ON M6S 1N4", "Canada"]}, "categories": [{"id": "4bf58dd8d48988d16a941735", "name": "Bakery", "pluralName": "Bakeries", "shortName": "Bakery", "icon": {"prefix": "https://ss3.4sqi.net/img/categories_v2/food/bakery_", "suffix": ".png"}, "primary": true}], "photos": {"count": 0, "groups": []}}, "referralId": "e-0-4b23e094f964a520e65b24e3-26"}, {"reasons": {"count": 0, "items": [{"summary": "This spot is popular", "type": "general", "reasonName": "globalInteractionReason"}]}, "venue": {"id": "4b3a379bf964a520696225e3", "name": "Booster Juice", "location": {"address": "2296 Bloor Street West", "crossStreet": "btwn Armadale & Jane", "lat": 43.64980188, "lng": -79.4836826, "labeledLatLngs": [{"label": "display", "lat": 43.64980188, "lng": -79.4836826}], "distance": 206, "postalCode": "M6S 3G3", "cc": "CA", "city": "Toronto", "state": "ON", "country": "Canada", "formattedAddress": ["2296 Bloor Street West (btwn Armadale & Jane)", "Toronto ON M6S 3G3", "Canada"]}, "categories": [{"id": "52f2ab2ebcbc57f1066b8b41", "name": "Smoothie Shop", "pluralName": "Smoothie Shops", "shortName": "Smoothie Shop", "icon": {"prefix": "https://ss3.4sqi.net/img/categories_v2/food/juicebar_", "suffix": ".png"}, "primary": true}], "photos": {"count": 0, "groups": []}}, "referralId": "e-0-4b3a379bf964a520696225e3-27"}, {"reasons": {"count": 0, "items": [{"summary": "This spot is popular", "type": "general", "reasonName": "globalInteractionReason"}]}, "venue": {"id": "4d4c6033e1ec6dcb878bd875", "name": "Shakey's Original Bar & Grill", "location": {"address": "2255 Bloor Street West", "crossStreet": "Runnymede", "lat": 43.6507708866875, "lng": -79.47758071386558, "labeledLatLngs": [{"label": "display", "lat": 43.6507708866875, "lng": -79.47758071386558}], "distance": 560, "postalCode": "M6S 1N8", "cc": "CA", "city": "Toronto", "state": "ON", "country": "Canada", "formattedAddress": ["2255 Bloor Street West (Runnymede)", "Toronto ON M6S 1N8", "Canada"]}, "categories": [{"id": "4bf58dd8d48988d155941735", "name": "Gastropub", "pluralName": "Gastropubs", "shortName": "Gastropub", "icon": {"prefix": "https://ss3.4sqi.net/img/categories_v2/food/gastropub_", "suffix": ".png"}, "primary": true}], "photos": {"count": 0, "groups": []}}, "referralId": "e-0-4d4c6033e1ec6dcb878bd875-28"}, {"reasons": {"count": 0, "items": [{"summary": "This spot is popular", "type": "general", "reasonName": "globalInteractionReason"}]}, "venue": {"id": "4fecca6ee4b02235f35b9110", "name": "Mad Mexican", "location": {"address": "405 Jane Street", "crossStreet": "Annette", "lat": 43.658522787607566, "lng": -79.48823335648142, "labeledLatLngs": [{"label": "display", "lat": 43.658522787607566, "lng": -79.48823335648142}], "distance": 831, "postalCode": "M6S 3Z3", "cc": "CA", "city": "Toronto", "state": "ON", "country": "Canada", "formattedAddress": ["405 Jane Street (Annette)", "Toronto ON M6S 3Z3", "Canada"]}, "categories": [{"id": "4bf58dd8d48988d151941735", "name": "Taco Place", "pluralName": "Taco Places", "shortName": "Tacos", "icon": {"prefix": "https://ss3.4sqi.net/img/categories_v2/food/taco_", "suffix": ".png"}, "primary": true}], "photos": {"count": 0, "groups": []}, "venuePage": {"id": "78812090"}}, "referralId": "e-0-4fecca6ee4b02235f35b9110-29"}, {"reasons": {"count": 0, "items": [{"summary": "This spot is popular", "type": "general", "reasonName": "globalInteractionReason"}]}, "venue": {"id": "4f64f614e4b0eae10ad6bf2d", "name": "Zaza Espresso Bar & Gelato", "location": {"address": "256 Beresford Ave", "crossStreet": "at Bloor St W", "lat": 43.65110626640462, "lng": -79.4777101044724, "labeledLatLngs": [{"label": "display", "lat": 43.65110626640462, "lng": -79.4777101044724}], "distance": 545, "postalCode": "M6S 3B4", "cc": "CA", "city": "Toronto", "state": "ON", "country": "Canada", "formattedAddress": ["256 Beresford Ave (at Bloor St W)", "Toronto ON M6S 3B4", "Canada"]}, "categories": [{"id": "4bf58dd8d48988d16d941735", "name": "Caf\u00e9", "pluralName": "Caf\u00e9s", "shortName": "Caf\u00e9", "icon": {"prefix": "https://ss3.4sqi.net/img/categories_v2/food/cafe_", "suffix": ".png"}, "primary": true}], "photos": {"count": 0, "groups": []}}, "referralId": "e-0-4f64f614e4b0eae10ad6bf2d-30"}, {"reasons": {"count": 0, "items": [{"summary": "This spot is popular", "type": "general", "reasonName": "globalInteractionReason"}]}, "venue": {"id": "525e1812498e2c14b4d80b8b", "name": "Bukhara indian cuisine", "location": {"address": "2241A Bloor Street West", "crossStreet": "Runnymede & Bloor", "lat": 43.65110529992475, "lng": -79.47710362509072, "labeledLatLngs": [{"label": "display", "lat": 43.65110529992475, "lng": -79.47710362509072}], "distance": 593, "postalCode": "M6S 1N7", "cc": "CA", "city": "Toronto", "state": "ON", "country": "Canada", "formattedAddress": ["2241A Bloor Street West (Runnymede & Bloor)", "Toronto ON M6S 1N7", "Canada"]}, "categories": [{"id": "4bf58dd8d48988d10f941735", "name": "Indian Restaurant", "pluralName": "Indian Restaurants", "shortName": "Indian", "icon": {"prefix": "https://ss3.4sqi.net/img/categories_v2/food/indian_", "suffix": ".png"}, "primary": true}], "photos": {"count": 0, "groups": []}}, "referralId": "e-0-525e1812498e2c14b4d80b8b-31"}, {"reasons": {"count": 0, "items": [{"summary": "This spot is popular", "type": "general", "reasonName": "globalInteractionReason"}]}, "venue": {"id": "4b520e5df964a520876427e3", "name": "Hot Oven Bakery", "location": {"address": "2226 Bloor St W", "crossStreet": "at Runnymede Rd", "lat": 43.651155311711776, "lng": -79.47656563536279, "labeledLatLngs": [{"label": "display", "lat": 43.651155311711776, "lng": -79.47656563536279}], "distance": 636, "postalCode": "M6S 1N6", "cc": "CA", "city": "Toronto", "state": "ON", "country": "Canada", "formattedAddress": ["2226 Bloor St W (at Runnymede Rd)", "Toronto ON M6S 1N6", "Canada"]}, "categories": [{"id": "4bf58dd8d48988d16a941735", "name": "Bakery", "pluralName": "Bakeries", "shortName": "Bakery", "icon": {"prefix": "https://ss3.4sqi.net/img/categories_v2/food/bakery_", "suffix": ".png"}, "primary": true}], "photos": {"count": 0, "groups": []}}, "referralId": "e-0-4b520e5df964a520876427e3-32"}, {"reasons": {"count": 0, "items": [{"summary": "This spot is popular", "type": "general", "reasonName": "globalInteractionReason"}]}, "venue": {"id": "4bf312546ba2b7133a148977", "name": "\u00c9tienne Brul\u00e9 Park", "location": {"address": "13 Crosby Ave", "lat": 43.65281386452948, "lng": -79.49217796325684, "labeledLatLngs": [{"label": "display", "lat": 43.65281386452948, "lng": -79.49217796325684}], "distance": 637, "postalCode": "M6S 2P8", "cc": "CA", "city": "Toronto", "state": "ON", "country": "Canada", "formattedAddress": ["13 Crosby Ave", "Toronto ON M6S 2P8", "Canada"]}, "categories": [{"id": "4bf58dd8d48988d163941735", "name": "Park", "pluralName": "Parks", "shortName": "Park", "icon": {"prefix": "https://ss3.4sqi.net/img/categories_v2/parks_outdoors/park_", "suffix": ".png"}, "primary": true}], "photos": {"count": 0, "groups": []}}, "referralId": "e-0-4bf312546ba2b7133a148977-33"}, {"reasons": {"count": 0, "items": [{"summary": "This spot is popular", "type": "general", "reasonName": "globalInteractionReason"}]}, "venue": {"id": "4f77179ee4b0d69368ca5529", "name": "Patisserie 27", "location": {"address": "401 Jane St", "crossStreet": "at Baby Point Rd", "lat": 43.65835465149958, "lng": -79.48813736310686, "labeledLatLngs": [{"label": "display", "lat": 43.65835465149958, "lng": -79.48813736310686}], "distance": 811, "postalCode": "M6S 3Z6", "cc": "CA", "city": "Toronto", "state": "ON", "country": "Canada", "formattedAddress": ["401 Jane St (at Baby Point Rd)", "Toronto ON M6S 3Z6", "Canada"]}, "categories": [{"id": "4bf58dd8d48988d16a941735", "name": "Bakery", "pluralName": "Bakeries", "shortName": "Bakery", "icon": {"prefix": "https://ss3.4sqi.net/img/categories_v2/food/bakery_", "suffix": ".png"}, "primary": true}], "photos": {"count": 0, "groups": []}}, "referralId": "e-0-4f77179ee4b0d69368ca5529-34"}, {"reasons": {"count": 0, "items": [{"summary": "This spot is popular", "type": "general", "reasonName": "globalInteractionReason"}]}, "venue": {"id": "4d101ae29302a35dde45796e", "name": "Ali Baba's", "location": {"address": "2246 Bloor St W", "crossStreet": "at Beresford Ave", "lat": 43.65100956228928, "lng": -79.4771792559058, "labeledLatLngs": [{"label": "display", "lat": 43.65100956228928, "lng": -79.4771792559058}], "distance": 588, "postalCode": "M6S 1N6", "cc": "CA", "city": "Toronto", "state": "ON", "country": "Canada", "formattedAddress": ["2246 Bloor St W (at Beresford Ave)", "Toronto ON M6S 1N6", "Canada"]}, "categories": [{"id": "4bf58dd8d48988d10b941735", "name": "Falafel Restaurant", "pluralName": "Falafel Restaurants", "shortName": "Falafel", "icon": {"prefix": "https://ss3.4sqi.net/img/categories_v2/food/falafel_", "suffix": ".png"}, "primary": true}], "photos": {"count": 0, "groups": []}}, "referralId": "e-0-4d101ae29302a35dde45796e-35"}, {"reasons": {"count": 0, "items": [{"summary": "This spot is popular", "type": "general", "reasonName": "globalInteractionReason"}]}, "venue": {"id": "508d4771e4b0661bf55bc6c2", "name": "The Works Gourmet Burger Bistro", "location": {"address": "2245 Bloor St W", "crossStreet": "btwn Beresford & Runnymede", "lat": 43.650735, "lng": -79.47744, "labeledLatLngs": [{"label": "display", "lat": 43.650735, "lng": -79.47744}], "distance": 572, "postalCode": "M6S 1N8", "cc": "CA", "city": "Toronto", "state": "ON", "country": "Canada", "formattedAddress": ["2245 Bloor St W (btwn Beresford & Runnymede)", "Toronto ON M6S 1N8", "Canada"]}, "categories": [{"id": "4bf58dd8d48988d1c4941735", "name": "Restaurant", "pluralName": "Restaurants", "shortName": "Restaurant", "icon": {"prefix": "https://ss3.4sqi.net/img/categories_v2/food/default_", "suffix": ".png"}, "primary": true}], "photos": {"count": 0, "groups": []}}, "referralId": "e-0-508d4771e4b0661bf55bc6c2-36"}, {"reasons": {"count": 0, "items": [{"summary": "This spot is popular", "type": "general", "reasonName": "globalInteractionReason"}]}, "venue": {"id": "595f98076cf01a44b376679d", "name": "Lit Cafe + Bar", "location": {"crossStreet": "Bloor And Runnymede", "lat": 43.651378942423236, "lng": -79.47538026986466, "labeledLatLngs": [{"label": "display", "lat": 43.651378942423236, "lng": -79.47538026986466}], "distance": 730, "postalCode": "M6S 1N4", "cc": "CA", "city": "Toronto", "state": "ON", "country": "Canada", "formattedAddress": ["Bloor And Runnymede", "Toronto ON M6S 1N4", "Canada"]}, "categories": [{"id": "4bf58dd8d48988d1e0931735", "name": "Coffee Shop", "pluralName": "Coffee Shops", "shortName": "Coffee Shop", "icon": {"prefix": "https://ss3.4sqi.net/img/categories_v2/food/coffeeshop_", "suffix": ".png"}, "primary": true}], "photos": {"count": 0, "groups": []}}, "referralId": "e-0-595f98076cf01a44b376679d-37"}, {"reasons": {"count": 0, "items": [{"summary": "This spot is popular", "type": "general", "reasonName": "globalInteractionReason"}]}, "venue": {"id": "5824a5305309361c4ad317de", "name": "Awai", "location": {"address": "2277 Bloor Street West", "lat": 43.65041203760419, "lng": -79.47847723960876, "labeledLatLngs": [{"label": "display", "lat": 43.65041203760419, "lng": -79.47847723960876}], "distance": 498, "postalCode": "M6S 1P1", "cc": "CA", "city": "Toronto", "state": "ON", "country": "Canada", "formattedAddress": ["2277 Bloor Street West", "Toronto ON M6S 1P1", "Canada"]}, "categories": [{"id": "4bf58dd8d48988d1d3941735", "name": "Vegetarian / Vegan Restaurant", "pluralName": "Vegetarian / Vegan Restaurants", "shortName": "Vegetarian / Vegan", "icon": {"prefix": "https://ss3.4sqi.net/img/categories_v2/food/vegetarian_", "suffix": ".png"}, "primary": true}], "photos": {"count": 0, "groups": []}}, "referralId": "e-0-5824a5305309361c4ad317de-38"}, {"reasons": {"count": 0, "items": [{"summary": "This spot is popular", "type": "general", "reasonName": "globalInteractionReason"}]}, "venue": {"id": "4dc999a0ae602be5e00a3a8b", "name": "Subway", "location": {"address": "2430 Bloor Street W", "crossStreet": "at Jane St.", "lat": 43.649622374302474, "lng": -79.48402761012142, "labeledLatLngs": [{"label": "display", "lat": 43.649622374302474, "lng": -79.48402761012142}], "distance": 219, "postalCode": "M6S 1P9", "cc": "CA", "city": "Toronto", "state": "ON", "country": "Canada", "formattedAddress": ["2430 Bloor Street W (at Jane St.)", "Toronto ON M6S 1P9", "Canada"]}, "categories": [{"id": "4bf58dd8d48988d1c5941735", "name": "Sandwich Place", "pluralName": "Sandwich Places", "shortName": "Sandwiches", "icon": {"prefix": "https://ss3.4sqi.net/img/categories_v2/food/deli_", "suffix": ".png"}, "primary": true}], "photos": {"count": 0, "groups": []}}, "referralId": "e-0-4dc999a0ae602be5e00a3a8b-39"}, {"reasons": {"count": 0, "items": [{"summary": "This spot is popular", "type": "general", "reasonName": "globalInteractionReason"}]}, "venue": {"id": "4dbc8f5a4df044e524e81846", "name": "Humber Cinema", "location": {"address": "2442 Bloor Street West", "lat": 43.64911832002547, "lng": -79.48481789910943, "labeledLatLngs": [{"label": "display", "lat": 43.64911832002547, "lng": -79.48481789910943}], "distance": 274, "postalCode": "M6S 1P7", "cc": "CA", "city": "Toronto", "state": "ON", "country": "Canada", "formattedAddress": ["2442 Bloor Street West", "Toronto ON M6S 1P7", "Canada"]}, "categories": [{"id": "4bf58dd8d48988d17e941735", "name": "Indie Movie Theater", "pluralName": "Indie Movie Theaters", "shortName": "Indie Movies", "icon": {"prefix": "https://ss3.4sqi.net/img/categories_v2/arts_entertainment/movietheater_", "suffix": ".png"}, "primary": true}], "photos": {"count": 0, "groups": []}}, "referralId": "e-0-4dbc8f5a4df044e524e81846-40"}, {"reasons": {"count": 0, "items": [{"summary": "This spot is popular", "type": "general", "reasonName": "globalInteractionReason"}]}, "venue": {"id": "4af6185af964a5201c0122e3", "name": "A Dark Horse", "location": {"address": "2401 Bloor Street West", "lat": 43.64953295859084, "lng": -79.4830557372747, "labeledLatLngs": [{"label": "display", "lat": 43.64953295859084, "lng": -79.4830557372747}], "distance": 253, "cc": "CA", "city": "Toronto", "state": "ON", "country": "Canada", "formattedAddress": ["2401 Bloor Street West", "Toronto ON", "Canada"]}, "categories": [{"id": "4bf58dd8d48988d116941735", "name": "Bar", "pluralName": "Bars", "shortName": "Bar", "icon": {"prefix": "https://ss3.4sqi.net/img/categories_v2/nightlife/pub_", "suffix": ".png"}, "primary": true}], "photos": {"count": 0, "groups": []}}, "referralId": "e-0-4af6185af964a5201c0122e3-41"}, {"reasons": {"count": 0, "items": [{"summary": "This spot is popular", "type": "general", "reasonName": "globalInteractionReason"}]}, "venue": {"id": "4b772419f964a5208e812ee3", "name": "LCBO", "location": {"address": "2180 Bloor St W", "crossStreet": "at Glendonwaynne Rd", "lat": 43.651707310433466, "lng": -79.47427796129955, "labeledLatLngs": [{"label": "display", "lat": 43.651707310433466, "lng": -79.47427796129955}], "distance": 819, "postalCode": "M6S 1N3", "cc": "CA", "city": "Toronto", "state": "ON", "country": "Canada", "formattedAddress": ["2180 Bloor St W (at Glendonwaynne Rd)", "Toronto ON M6S 1N3", "Canada"]}, "categories": [{"id": "4bf58dd8d48988d186941735", "name": "Liquor Store", "pluralName": "Liquor Stores", "shortName": "Liquor Store", "icon": {"prefix": "https://ss3.4sqi.net/img/categories_v2/shops/food_liquor_", "suffix": ".png"}, "primary": true}], "photos": {"count": 0, "groups": []}}, "referralId": "e-0-4b772419f964a5208e812ee3-42"}, {"reasons": {"count": 0, "items": [{"summary": "This spot is popular", "type": "general", "reasonName": "globalInteractionReason"}]}, "venue": {"id": "4bf8186babdaef3b819ea184", "name": "Coffee Culture", "location": {"address": "399 Jane St.", "crossStreet": "Annette St.", "lat": 43.6583591813047, "lng": -79.48797103929881, "labeledLatLngs": [{"label": "display", "lat": 43.6583591813047, "lng": -79.48797103929881}], "distance": 807, "cc": "CA", "city": "Toronto", "state": "ON", "country": "Canada", "formattedAddress": ["399 Jane St. (Annette St.)", "Toronto ON", "Canada"]}, "categories": [{"id": "4bf58dd8d48988d16d941735", "name": "Caf\u00e9", "pluralName": "Caf\u00e9s", "shortName": "Caf\u00e9", "icon": {"prefix": "https://ss3.4sqi.net/img/categories_v2/food/cafe_", "suffix": ".png"}, "primary": true}], "photos": {"count": 0, "groups": []}}, "referralId": "e-0-4bf8186babdaef3b819ea184-43"}, {"reasons": {"count": 0, "items": [{"summary": "This spot is popular", "type": "general", "reasonName": "globalInteractionReason"}]}, "venue": {"id": "529139a111d2c233d7ae2851", "name": "Java Joe's", "location": {"address": "2312 Bloor St West", "crossStreet": "Windermere", "lat": 43.650424, "lng": -79.479755, "labeledLatLngs": [{"label": "display", "lat": 43.650424, "lng": -79.479755}], "distance": 399, "cc": "CA", "city": "Toronto", "state": "ON", "country": "Canada", "formattedAddress": ["2312 Bloor St West (Windermere)", "Toronto ON", "Canada"]}, "categories": [{"id": "4bf58dd8d48988d16d941735", "name": "Caf\u00e9", "pluralName": "Caf\u00e9s", "shortName": "Caf\u00e9", "icon": {"prefix": "https://ss3.4sqi.net/img/categories_v2/food/cafe_", "suffix": ".png"}, "primary": true}], "photos": {"count": 0, "groups": []}}, "referralId": "e-0-529139a111d2c233d7ae2851-44"}, {"reasons": {"count": 0, "items": [{"summary": "This spot is popular", "type": "general", "reasonName": "globalInteractionReason"}]}, "venue": {"id": "4fca5cc9e4b0c1168226c1aa", "name": "Souvlaki Hut", "location": {"address": "2184 Bloor St West", "lat": 43.65154441668675, "lng": -79.47453931478424, "labeledLatLngs": [{"label": "display", "lat": 43.65154441668675, "lng": -79.47453931478424}], "distance": 798, "cc": "CA", "city": "Toronto", "state": "ON", "country": "Canada", "formattedAddress": ["2184 Bloor St West", "Toronto ON", "Canada"]}, "categories": [{"id": "4bf58dd8d48988d10e941735", "name": "Greek Restaurant", "pluralName": "Greek Restaurants", "shortName": "Greek", "icon": {"prefix": "https://ss3.4sqi.net/img/categories_v2/food/greek_", "suffix": ".png"}, "primary": true}], "photos": {"count": 0, "groups": []}}, "referralId": "e-0-4fca5cc9e4b0c1168226c1aa-45"}, {"reasons": {"count": 0, "items": [{"summary": "This spot is popular", "type": "general", "reasonName": "globalInteractionReason"}]}, "venue": {"id": "4b6471a2f964a5209db32ae3", "name": "TD Canada Trust", "location": {"address": "2220 Bloor St W", "crossStreet": "at Runnymede Rd", "lat": 43.651284593586276, "lng": -79.47659432888031, "labeledLatLngs": [{"label": "display", "lat": 43.651284593586276, "lng": -79.47659432888031}], "distance": 633, "postalCode": "M6S 1N6", "cc": "CA", "city": "Toronto", "state": "ON", "country": "Canada", "formattedAddress": ["2220 Bloor St W (at Runnymede Rd)", "Toronto ON M6S 1N6", "Canada"]}, "categories": [{"id": "4bf58dd8d48988d10a951735", "name": "Bank", "pluralName": "Banks", "shortName": "Bank", "icon": {"prefix": "https://ss3.4sqi.net/img/categories_v2/shops/financial_", "suffix": ".png"}, "primary": true}], "photos": {"count": 0, "groups": []}}, "referralId": "e-0-4b6471a2f964a5209db32ae3-46"}, {"reasons": {"count": 0, "items": [{"summary": "This spot is popular", "type": "general", "reasonName": "globalInteractionReason"}]}, "venue": {"id": "5389345e498e7b711dcff942", "name": "Heart", "location": {"address": "2326 Bloor Street West", "lat": 43.650310315403544, "lng": -79.48012458547709, "labeledLatLngs": [{"label": "display", "lat": 43.650310315403544, "lng": -79.48012458547709}], "distance": 375, "cc": "CA", "city": "Toronto", "state": "ON", "country": "Canada", "formattedAddress": ["2326 Bloor Street West", "Toronto ON", "Canada"]}, "categories": [{"id": "4bf58dd8d48988d1d0941735", "name": "Dessert Shop", "pluralName": "Dessert Shops", "shortName": "Desserts", "icon": {"prefix": "https://ss3.4sqi.net/img/categories_v2/food/dessert_", "suffix": ".png"}, "primary": true}], "photos": {"count": 0, "groups": []}}, "referralId": "e-0-5389345e498e7b711dcff942-47"}, {"reasons": {"count": 0, "items": [{"summary": "This spot is popular", "type": "general", "reasonName": "globalInteractionReason"}]}, "venue": {"id": "57a529f9cd106ad949856d60", "name": "Woody's Burgers Bar and Grill", "location": {"address": "383 Jane St", "lat": 43.657862, "lng": -79.487644, "labeledLatLngs": [{"label": "display", "lat": 43.657862, "lng": -79.487644}], "distance": 746, "postalCode": "M6S 3Z3", "cc": "CA", "city": "Toronto", "state": "ON", "country": "Canada", "formattedAddress": ["383 Jane St", "Toronto ON M6S 3Z3", "Canada"]}, "categories": [{"id": "4bf58dd8d48988d16c941735", "name": "Burger Joint", "pluralName": "Burger Joints", "shortName": "Burgers", "icon": {"prefix": "https://ss3.4sqi.net/img/categories_v2/food/burger_", "suffix": ".png"}, "primary": true}], "photos": {"count": 0, "groups": []}}, "referralId": "e-0-57a529f9cd106ad949856d60-48"}, {"reasons": {"count": 0, "items": [{"summary": "This spot is popular", "type": "general", "reasonName": "globalInteractionReason"}]}, "venue": {"id": "4ae9f27af964a520e5b721e3", "name": "Swan & Firkin", "location": {"address": "2205 Bloor St. W.", "crossStreet": "btwn Runnymede Rd. & Kennedy Ave.", "lat": 43.651217856234474, "lng": -79.47580613516895, "labeledLatLngs": [{"label": "display", "lat": 43.651217856234474, "lng": -79.47580613516895}], "distance": 697, "postalCode": "M6S 1N5", "cc": "CA", "city": "Toronto", "state": "ON", "country": "Canada", "formattedAddress": ["2205 Bloor St. W. (btwn Runnymede Rd. & Kennedy Ave.)", "Toronto ON M6S 1N5", "Canada"]}, "categories": [{"id": "4bf58dd8d48988d11b941735", "name": "Pub", "pluralName": "Pubs", "shortName": "Pub", "icon": {"prefix": "https://ss3.4sqi.net/img/categories_v2/nightlife/pub_", "suffix": ".png"}, "primary": true}], "photos": {"count": 0, "groups": []}}, "referralId": "e-0-4ae9f27af964a520e5b721e3-49"}]}]}}