{"meta": {"code": 200, "requestId": "5e197389a2e538001b92a19a"}, "response": {"warning": {"text": "There aren't a lot of results near you. Try something more general, reset your filters, or expand the search area."}, "headerLocation": "Bay Street Corridor", "headerFullLocation": "Bay Street Corridor, Toronto", "headerLocationGranularity": "neighborhood", "totalResults": 3, "suggestedBounds": {"ne": {"lat": 43.664605502304, "lng": -79.38631487835708}, "sw": {"lat": 43.659997497696, "lng": -79.39267272164291}}, "groups": [{"type": "Recommended Places", "name": "recommended", "items": [{"reasons": {"count": 0, "items": [{"summary": "This spot is popular", "type": "general", "reasonName": "globalInteractionReason"}]}, "venue": {"id": "4ecd63d96da162f1bb0f11c4", "name": "Sushi Box", "location": {"address": "891 Bay street", "lat": 43.66295954544153, "lng": -79.38657996066198, "labeledLatLngs": [{"label": "display", "lat": 43.66295954544153, "lng": -79.38657996066198}], "distance": 245, "postalCode": "M5S 3K6", "cc": "CA", "city": "Toronto", "state": "ON", "country": "Canada", "formattedAddress": ["891 Bay street", "Toronto ON M5S 3K6", "Canada"]}, "categories": [{"id": "4bf58dd8d48988d1d2941735", "name": "Sushi Restaurant", "pluralName": "Sushi Restaurants", "shortName": "Sushi", "icon": {"prefix": "https://ss3.4sqi.net/img/categories_v2/food/sushi_", "suffix": ".png"}, "primary": true}], "photos": {"count": 0, "groups": []}}, "referralId": "e-0-4ecd63d96da162f1bb0f11c4-0"}, {"reasons": {"count": 0, "items": [{"summary": "This spot is popular", "type": "general", "reasonName": "globalInteractionReason"}]}, "venue": {"id": "556df351498eebb865351b61", "name": "Yummy Zone", "location": {"address": "895 Bay Street", "crossStreet": "Breadalbane", "lat": 43.662755747929545, "lng": -79.38659907574278, "labeledLatLngs": [{"label": "display", "lat": 43.662755747929545, "lng": -79.38659907574278}], "distance": 238, "cc": "CA", "city": "Toronto", "state": "ON", "country": "Canada", "formattedAddress": ["895 Bay Street (Breadalbane)", "Toronto ON", "Canada"]}, "categories": [{"id": "52e81612bcbc57f1066b7a0c", "name": "Bubble Tea Shop", "pluralName": "Bubble Tea Shops", "shortName": "Bubble Tea", "icon": {"prefix": "https://ss3.4sqi.net/img/categories_v2/food/bubble_", "suffix": ".png"}, "primary": true}], "photos": {"count": 0, "groups": []}}, "referralId": "e-0-556df351498eebb865351b61-1"}, {"reasons": {"count": 0, "items": [{"summary": "This spot is popular", "type": "general", "reasonName": "globalInteractionReason"}]}, "venue": {"id": "541acbbe498ebf9d61765ff9", "name": "Presse Cafe", "location": {"lat": 43.66257675207432, "lng": -79.38633959907268, "labeledLatLngs": [{"label": "display", "lat": 43.66257675207432, "lng": -79.38633959907268}], "distance": 255, "cc": "CA", "city": "Toronto", "state": "ON", "country": "Canada", "formattedAddress": ["Toronto ON", "Canada"]}, "categories": [{"id": "4bf58dd8d48988d16d941735", "name": "Caf\u00e9", "pluralName": "Caf\u00e9s", "shortName": "Caf\u00e9", "icon": {"prefix": "https://ss3.4sqi.net/img/categories_v2/food/cafe_", "suffix": ".png"}, "primary": true}], "photos": {"count": 0, "groups": []}}, "referralId": "e-0-541acbbe498ebf9d61765ff9-2"}]}]}}