{"meta": {"code": 200, "requestId": "5e1973d9c8cff2001b36490e"}, "response": {"suggestedFilters": {"header": "Tap to show:", "filters": [{"name": "Open now", "key": "openNow"}]}, "headerLocation": "Toronto", "headerFullLocation": "Toronto", "headerLocationGranularity": "city", "totalResults": 41, "suggestedBounds": {"ne": {"lat": 43.619263613617015, "lng": -79.48255048043079}, "sw": {"lat": 43.592029586382985, "lng": -79.52009091956923}}, "groups": [{"type": "Recommended Places", "name": "recommended", "items": [{"reasons": {"count": 0, "items": [{"summary": "This spot is popular", "type": "general", "reasonName": "globalInteractionReason"}]}, "venue": {"id": "4b119977f964a520488023e3", "name": "LCBO", "location": {"address": "2762 Lake Shore Blvd W", "crossStreet": "btwn 1st & 2nd St", "lat": 43.60228082768786, "lng": -79.4993016827402, "labeledLatLngs": [{"label": "display", "lat": 43.60228082768786, "lng": -79.4993016827402}], "distance": 408, "postalCode": "M8V 1H1", "cc": "CA", "city": "Toronto", "state": "ON", "country": "Canada", "formattedAddress": ["2762 Lake Shore Blvd W (btwn 1st & 2nd St)", "Toronto ON M8V 1H1", "Canada"]}, "categories": [{"id": "4bf58dd8d48988d186941735", "name": "Liquor Store", "pluralName": "Liquor Stores", "shortName": "Liquor Store", "icon": {"prefix": "https://ss3.4sqi.net/img/categories_v2/shops/food_liquor_", "suffix": ".png"}, "primary": true}], "photos": {"count": 0, "groups": []}}, "referralId": "e-0-4b119977f964a520488023e3-0"}, {"reasons": {"count": 0, "items": [{"summary": "This spot is popular", "type": "general", "reasonName": "globalInteractionReason"}]}, "venue": {"id": "5395d784498e085ff3c18198", "name": "Huevos Gourmet", "location": {"address": "2888 Lakeshore Blvd. W.", "lat": 43.601187646118454, "lng": -79.50371705335499, "labeledLatLngs": [{"label": "display", "lat": 43.601187646118454, "lng": -79.50371705335499}], "distance": 532, "cc": "CA", "city": "Etobicoke", "state": "ON", "country": "Canada", "formattedAddress": ["2888 Lakeshore Blvd. W.", "Etobicoke ON", "Canada"]}, "categories": [{"id": "4bf58dd8d48988d1c1941735", "name": "Mexican Restaurant", "pluralName": "Mexican Restaurants", "shortName": "Mexican", "icon": {"prefix": "https://ss3.4sqi.net/img/categories_v2/food/mexican_", "suffix": ".png"}, "primary": true}], "photos": {"count": 0, "groups": []}}, "referralId": "e-0-5395d784498e085ff3c18198-1"}, {"reasons": {"count": 0, "items": [{"summary": "This spot is popular", "type": "general", "reasonName": "globalInteractionReason"}]}, "venue": {"id": "4c081867ffb8c9b6d7b66761", "name": "Sweet Olenka's", "location": {"address": "2790 Lake Shore Blvd W", "crossStreet": "3rd St.", "lat": 43.60109921195078, "lng": -79.50032493418274, "labeledLatLngs": [{"label": "display", "lat": 43.60109921195078, "lng": -79.50032493418274}], "distance": 512, "postalCode": "M8V 1H5", "cc": "CA", "city": "Etobicoke", "state": "ON", "country": "Canada", "formattedAddress": ["2790 Lake Shore Blvd W (3rd St.)", "Etobicoke ON M8V 1H5", "Canada"]}, "categories": [{"id": "4bf58dd8d48988d1d0941735", "name": "Dessert Shop", "pluralName": "Dessert Shops", "shortName": "Desserts", "icon": {"prefix": "https://ss3.4sqi.net/img/categories_v2/food/dessert_", "suffix": ".png"}, "primary": true}], "photos": {"count": 0, "groups": []}}, "referralId": "e-0-4c081867ffb8c9b6d7b66761-2"}, {"reasons": {"count": 0, "items": [{"summary": "This spot is popular", "type": "general", "reasonName": "globalInteractionReason"}]}, "venue": {"id": "571cdf3e38faaa76e74049d7", "name": "Kitchen on 6th", "location": {"crossStreet": "6th Street & Lakeshore", "lat": 43.601396, "lng": -79.504563, "labeledLatLngs": [{"label": "display", "lat": 43.601396, "lng": -79.504563}], "distance": 540, "cc": "CA", "city": "Etobicoke", "state": "ON", "country": "Canada", "formattedAddress": ["6th Street & Lakeshore", "Etobicoke ON", "Canada"]}, "categories": [{"id": "4bf58dd8d48988d143941735", "name": "Breakfast Spot", "pluralName": "Breakfast Spots", "shortName": "Breakfast", "icon": {"prefix": "https://ss3.4sqi.net/img/categories_v2/food/breakfast_", "suffix": ".png"}, "primary": true}], "photos": {"count": 0, "groups": []}}, "referralId": "e-0-571cdf3e38faaa76e74049d7-3"}, {"reasons": {"count": 0, "items": [{"summary": "This spot is popular", "type": "general", "reasonName": "globalInteractionReason"}]}, "venue": {"id": "53938d4c498ea919cfa0117f", "name": "Cellar Door Restaurant", "location": {"address": "3003 Lake Shore Blvd W", "crossStreet": "Lakeshore And Islington", "lat": 43.600221, "lng": -79.507638, "labeledLatLngs": [{"label": "display", "lat": 43.600221, "lng": -79.507638}], "distance": 790, "postalCode": "M8V 1K2", "cc": "CA", "city": "Etobicoke", "state": "ON", "country": "Canada", "formattedAddress": ["3003 Lake Shore Blvd W (Lakeshore And Islington)", "Etobicoke ON M8V 1K2", "Canada"]}, "categories": [{"id": "4bf58dd8d48988d110941735", "name": "Italian Restaurant", "pluralName": "Italian Restaurants", "shortName": "Italian", "icon": {"prefix": "https://ss3.4sqi.net/img/categories_v2/food/italian_", "suffix": ".png"}, "primary": true}], "photos": {"count": 0, "groups": []}}, "referralId": "e-0-53938d4c498ea919cfa0117f-4"}, {"reasons": {"count": 0, "items": [{"summary": "This spot is popular", "type": "general", "reasonName": "globalInteractionReason"}]}, "venue": {"id": "4e4eebf26284416669876925", "name": "Prince Of Wales Park", "location": {"lat": 43.59879724109164, "lng": -79.49900058525606, "labeledLatLngs": [{"label": "display", "lat": 43.59879724109164, "lng": -79.49900058525606}], "distance": 785, "cc": "CA", "city": "Toronto", "state": "ON", "country": "Canada", "formattedAddress": ["Toronto ON", "Canada"]}, "categories": [{"id": "4bf58dd8d48988d163941735", "name": "Park", "pluralName": "Parks", "shortName": "Park", "icon": {"prefix": "https://ss3.4sqi.net/img/categories_v2/parks_outdoors/park_", "suffix": ".png"}, "primary": true}], "photos": {"count": 0, "groups": []}}, "referralId": "e-0-4e4eebf26284416669876925-5"}, {"reasons": {"count": 0, "items": [{"summary": "This spot is popular", "type": "general", "reasonName": "globalInteractionReason"}]}, "venue": {"id": "4b912dfef964a52077a833e3", "name": "Birds and Beans Cafe", "location": {"address": "2413 Lake Shore Blvd. W", "crossStreet": "at Mimico Ave.", "lat": 43.61394176407451, "lng": -79.48906159405638, "labeledLatLngs": [{"label": "display", "lat": 43.61394176407451, "lng": -79.48906159405638}], "distance": 1352, "postalCode": "M8V 1C5", "cc": "CA", "city": "Toronto", "state": "ON", "country": "Canada", "formattedAddress": ["2413 Lake Shore Blvd. W (at Mimico Ave.)", "Toronto ON M8V 1C5", "Canada"]}, "categories": [{"id": "4bf58dd8d48988d16d941735", "name": "Caf\u00e9", "pluralName": "Caf\u00e9s", "shortName": "Caf\u00e9", "icon": {"prefix": "https://ss3.4sqi.net/img/categories_v2/food/cafe_", "suffix": ".png"}, "primary": true}], "photos": {"count": 0, "groups": []}}, "referralId": "e-0-4b912dfef964a52077a833e3-6"}, {"reasons": {"count": 0, "items": [{"summary": "This spot is popular", "type": "general", "reasonName": "globalInteractionReason"}]}, "venue": {"id": "4ba3fa87f964a520d17338e3", "name": "SanRemo Bakery", "location": {"address": "374 Royal York Rd", "crossStreet": "at Simpson Ave", "lat": 43.618542136521064, "lng": -79.49948481145465, "labeledLatLngs": [{"label": "display", "lat": 43.618542136521064, "lng": -79.49948481145465}], "distance": 1443, "postalCode": "M8Y 2R3", "cc": "CA", "city": "Toronto", "state": "ON", "country": "Canada", "formattedAddress": ["374 Royal York Rd (at Simpson Ave)", "Toronto ON M8Y 2R3", "Canada"]}, "categories": [{"id": "4bf58dd8d48988d16a941735", "name": "Bakery", "pluralName": "Bakeries", "shortName": "Bakery", "icon": {"prefix": "https://ss3.4sqi.net/img/categories_v2/food/bakery_", "suffix": ".png"}, "primary": true}], "photos": {"count": 0, "groups": []}}, "referralId": "e-0-4ba3fa87f964a520d17338e3-7"}, {"reasons": {"count": 0, "items": [{"summary": "This spot is popular", "type": "general", "reasonName": "globalInteractionReason"}]}, "venue": {"id": "4ba527a4f964a520f0e438e3", "name": "Black Oak Brewing", "location": {"address": "75 Horner Ave", "lat": 43.61374711788485, "lng": -79.51633914145589, "labeledLatLngs": [{"label": "display", "lat": 43.61374711788485, "lng": -79.51633914145589}], "distance": 1509, "postalCode": "M8Z 4X5", "cc": "CA", "city": "Toronto", "state": "ON", "country": "Canada", "formattedAddress": ["75 Horner Ave", "Toronto ON M8Z 4X5", "Canada"]}, "categories": [{"id": "50327c8591d4c4b30a586d5d", "name": "Brewery", "pluralName": "Breweries", "shortName": "Brewery", "icon": {"prefix": "https://ss3.4sqi.net/img/categories_v2/food/brewery_", "suffix": ".png"}, "primary": true}], "photos": {"count": 0, "groups": []}}, "referralId": "e-0-4ba527a4f964a520f0e438e3-8"}, {"reasons": {"count": 0, "items": [{"summary": "This spot is popular", "type": "general", "reasonName": "globalInteractionReason"}]}, "venue": {"id": "4bc305c04cdfc9b67cbb9621", "name": "William F. White International Inc.", "location": {"address": "800 Islington Ave", "crossStreet": "Evans Ave", "lat": 43.61654208909391, "lng": -79.51087229163909, "labeledLatLngs": [{"label": "display", "lat": 43.61654208909391, "lng": -79.51087229163909}], "distance": 1436, "postalCode": "M8Z 6A1", "cc": "CA", "city": "Etobicoke", "state": "ON", "country": "Canada", "formattedAddress": ["800 Islington Ave (Evans Ave)", "Etobicoke ON M8Z 6A1", "Canada"]}, "categories": [{"id": "4bf58dd8d48988d1f1931735", "name": "General Entertainment", "pluralName": "General Entertainment", "shortName": "Entertainment", "icon": {"prefix": "https://ss3.4sqi.net/img/categories_v2/arts_entertainment/default_", "suffix": ".png"}, "primary": true}], "photos": {"count": 0, "groups": []}, "venuePage": {"id": "52886042"}}, "referralId": "e-0-4bc305c04cdfc9b67cbb9621-9"}, {"reasons": {"count": 0, "items": [{"summary": "This spot is popular", "type": "general", "reasonName": "globalInteractionReason"}]}, "venue": {"id": "51c08c38498e825fdbe37f4e", "name": "Nimman Thai Cuisine", "location": {"address": "2451 Lakeshore Blvd west", "crossStreet": "Mimico", "lat": 43.613348862360546, "lng": -79.48871553032649, "labeledLatLngs": [{"label": "display", "lat": 43.613348862360546, "lng": -79.48871553032649}], "distance": 1329, "postalCode": "M8V 1C5", "cc": "CA", "neighborhood": "Humber Bay", "city": "Toronto", "state": "ON", "country": "Canada", "formattedAddress": ["2451 Lakeshore Blvd west (Mimico)", "Toronto ON M8V 1C5", "Canada"]}, "categories": [{"id": "4bf58dd8d48988d149941735", "name": "Thai Restaurant", "pluralName": "Thai Restaurants", "shortName": "Thai", "icon": {"prefix": "https://ss3.4sqi.net/img/categories_v2/food/thai_", "suffix": ".png"}, "primary": true}], "photos": {"count": 0, "groups": []}}, "referralId": "e-0-51c08c38498e825fdbe37f4e-10"}, {"reasons": {"count": 0, "items": [{"summary": "This spot is popular", "type": "general", "reasonName": "globalInteractionReason"}]}, "venue": {"id": "4ff092a0e4b07cca83dd590a", "name": "Norris Crescent Parkette", "location": {"address": "24A Norris Crescent", "crossStreet": "at Lake Shore Blvd", "lat": 43.61074429138466, "lng": -79.48728918435411, "labeledLatLngs": [{"label": "display", "lat": 43.61074429138466, "lng": -79.48728918435411}], "distance": 1265, "cc": "CA", "city": "Toronto", "state": "ON", "country": "Canada", "formattedAddress": ["24A Norris Crescent (at Lake Shore Blvd)", "Toronto ON", "Canada"]}, "categories": [{"id": "4bf58dd8d48988d163941735", "name": "Park", "pluralName": "Parks", "shortName": "Park", "icon": {"prefix": "https://ss3.4sqi.net/img/categories_v2/parks_outdoors/park_", "suffix": ".png"}, "primary": true}], "photos": {"count": 0, "groups": []}}, "referralId": "e-0-4ff092a0e4b07cca83dd590a-11"}, {"reasons": {"count": 0, "items": [{"summary": "This spot is popular", "type": "general", "reasonName": "globalInteractionReason"}]}, "venue": {"id": "4ddfdca752b16128c623495c", "name": "Pearl Sushi", "location": {"address": "2391B Lake Shore Blvd W", "lat": 43.61485807881039, "lng": -79.48831114897837, "labeledLatLngs": [{"label": "display", "lat": 43.61485807881039, "lng": -79.48831114897837}], "distance": 1466, "postalCode": "M8V 1B7", "cc": "CA", "city": "Toronto", "state": "ON", "country": "Canada", "formattedAddress": ["2391B Lake Shore Blvd W", "Toronto ON M8V 1B7", "Canada"]}, "categories": [{"id": "4bf58dd8d48988d1d2941735", "name": "Sushi Restaurant", "pluralName": "Sushi Restaurants", "shortName": "Sushi", "icon": {"prefix": "https://ss3.4sqi.net/img/categories_v2/food/sushi_", "suffix": ".png"}, "primary": true}], "photos": {"count": 0, "groups": []}}, "referralId": "e-0-4ddfdca752b16128c623495c-12"}, {"reasons": {"count": 0, "items": [{"summary": "This spot is popular", "type": "general", "reasonName": "globalInteractionReason"}]}, "venue": {"id": "4e1f329fae60cd553deeb4a0", "name": "Domino's Pizza", "location": {"address": "2811 Lake Shore Boulevard West", "crossStreet": "Third Street", "lat": 43.60158294371704, "lng": -79.50090463107409, "labeledLatLngs": [{"label": "display", "lat": 43.60158294371704, "lng": -79.50090463107409}], "distance": 453, "postalCode": "M8V 1H6", "cc": "CA", "city": "Etobicoke", "state": "ON", "country": "Canada", "formattedAddress": ["2811 Lake Shore Boulevard West (Third Street)", "Etobicoke ON M8V 1H6", "Canada"]}, "categories": [{"id": "4bf58dd8d48988d1ca941735", "name": "Pizza Place", "pluralName": "Pizza Places", "shortName": "Pizza", "icon": {"prefix": "https://ss3.4sqi.net/img/categories_v2/food/pizza_", "suffix": ".png"}, "primary": true}], "photos": {"count": 0, "groups": []}}, "referralId": "e-0-4e1f329fae60cd553deeb4a0-13"}, {"reasons": {"count": 0, "items": [{"summary": "This spot is popular", "type": "general", "reasonName": "globalInteractionReason"}]}, "venue": {"id": "4e88ebbb8231210e528f1523", "name": "Mario & Selina's No Frills", "location": {"address": "220 Royal York Rd", "crossStreet": "Mimico Ave.", "lat": 43.612186, "lng": -79.497828, "labeledLatLngs": [{"label": "display", "lat": 43.612186, "lng": -79.497828}], "distance": 780, "postalCode": "M8V 2V7", "cc": "CA", "city": "Etobicoke", "state": "ON", "country": "Canada", "formattedAddress": ["220 Royal York Rd (Mimico Ave.)", "Etobicoke ON M8V 2V7", "Canada"]}, "categories": [{"id": "4bf58dd8d48988d118951735", "name": "Grocery Store", "pluralName": "Grocery Stores", "shortName": "Grocery Store", "icon": {"prefix": "https://ss3.4sqi.net/img/categories_v2/shops/food_grocery_", "suffix": ".png"}, "primary": true}], "photos": {"count": 0, "groups": []}}, "referralId": "e-0-4e88ebbb8231210e528f1523-14"}, {"reasons": {"count": 0, "items": [{"summary": "This spot is popular", "type": "general", "reasonName": "globalInteractionReason"}]}, "venue": {"id": "4bc10d44abf49521d773c093", "name": "Bombay on the Lake", "location": {"address": "3007 Lakeshore Blvd W", "lat": 43.600157309834074, "lng": -79.50799174394479, "labeledLatLngs": [{"label": "display", "lat": 43.600157309834074, "lng": -79.50799174394479}], "distance": 813, "postalCode": "M8V 1K2", "cc": "CA", "city": "Toronto", "state": "ON", "country": "Canada", "formattedAddress": ["3007 Lakeshore Blvd W", "Toronto ON M8V 1K2", "Canada"]}, "categories": [{"id": "4bf58dd8d48988d10f941735", "name": "Indian Restaurant", "pluralName": "Indian Restaurants", "shortName": "Indian", "icon": {"prefix": "https://ss3.4sqi.net/img/categories_v2/food/indian_", "suffix": ".png"}, "primary": true}], "photos": {"count": 0, "groups": []}}, "referralId": "e-0-4bc10d44abf49521d773c093-15"}, {"reasons": {"count": 0, "items": [{"summary": "This spot is popular", "type": "general", "reasonName": "globalInteractionReason"}]}, "venue": {"id": "4bc8f684937ca593f1e4a492", "name": "Albatros Pub", "location": {"address": "3057 Lakeshore Blvd. W", "lat": 43.59973728807503, "lng": -79.51009383603599, "labeledLatLngs": [{"label": "display", "lat": 43.59973728807503, "lng": -79.51009383603599}], "distance": 965, "postalCode": "M8V 1K6", "cc": "CA", "city": "Toronto", "state": "ON", "country": "Canada", "formattedAddress": ["3057 Lakeshore Blvd. W", "Toronto ON M8V 1K6", "Canada"]}, "categories": [{"id": "4bf58dd8d48988d11b941735", "name": "Pub", "pluralName": "Pubs", "shortName": "Pub", "icon": {"prefix": "https://ss3.4sqi.net/img/categories_v2/nightlife/pub_", "suffix": ".png"}, "primary": true}], "photos": {"count": 0, "groups": []}}, "referralId": "e-0-4bc8f684937ca593f1e4a492-16"}, {"reasons": {"count": 0, "items": [{"summary": "This spot is popular", "type": "general", "reasonName": "globalInteractionReason"}]}, "venue": {"id": "4b9322cbf964a5201a3734e3", "name": "New Toronto Fish & Chips", "location": {"address": "146 Fifth St.", "lat": 43.60184940532482, "lng": -79.50328125758809, "labeledLatLngs": [{"label": "display", "lat": 43.60184940532482, "lng": -79.50328125758809}], "distance": 451, "cc": "CA", "city": "Toronto", "state": "ON", "country": "Canada", "formattedAddress": ["146 Fifth St.", "Toronto ON", "Canada"]}, "categories": [{"id": "4bf58dd8d48988d1c4941735", "name": "Restaurant", "pluralName": "Restaurants", "shortName": "Restaurant", "icon": {"prefix": "https://ss3.4sqi.net/img/categories_v2/food/default_", "suffix": ".png"}, "primary": true}], "photos": {"count": 0, "groups": []}}, "referralId": "e-0-4b9322cbf964a5201a3734e3-17"}, {"reasons": {"count": 0, "items": [{"summary": "This spot is popular", "type": "general", "reasonName": "globalInteractionReason"}]}, "venue": {"id": "4c276929a852c9289127e86c", "name": "Mimico Arena", "location": {"lat": 43.612739007491555, "lng": -79.49868183926128, "labeledLatLngs": [{"label": "display", "lat": 43.612739007491555, "lng": -79.49868183926128}], "distance": 817, "cc": "CA", "country": "Canada", "formattedAddress": ["Canada"]}, "categories": [{"id": "4bf58dd8d48988d168941735", "name": "Skating Rink", "pluralName": "Skating Rinks", "shortName": "Skating Rink", "icon": {"prefix": "https://ss3.4sqi.net/img/categories_v2/parks_outdoors/skatingrink_", "suffix": ".png"}, "primary": true}], "photos": {"count": 0, "groups": []}}, "referralId": "e-0-4c276929a852c9289127e86c-18"}, {"reasons": {"count": 0, "items": [{"summary": "This spot is popular", "type": "general", "reasonName": "globalInteractionReason"}]}, "venue": {"id": "4cf040f81c158cfa7bb4c8b5", "name": "TD Canada Trust", "location": {"address": "2472 Lake Shore Blvd West", "crossStreet": "Allen Ave", "lat": 43.61318188021061, "lng": -79.48995835614369, "labeledLatLngs": [{"label": "display", "lat": 43.61318188021061, "lng": -79.48995835614369}], "distance": 1241, "postalCode": "M8V 1C9", "cc": "CA", "city": "Etobicoke", "state": "ON", "country": "Canada", "formattedAddress": ["2472 Lake Shore Blvd West (Allen Ave)", "Etobicoke ON M8V 1C9", "Canada"]}, "categories": [{"id": "4bf58dd8d48988d10a951735", "name": "Bank", "pluralName": "Banks", "shortName": "Bank", "icon": {"prefix": "https://ss3.4sqi.net/img/categories_v2/shops/financial_", "suffix": ".png"}, "primary": true}], "photos": {"count": 0, "groups": []}}, "referralId": "e-0-4cf040f81c158cfa7bb4c8b5-19"}, {"reasons": {"count": 0, "items": [{"summary": "This spot is popular", "type": "general", "reasonName": "globalInteractionReason"}]}, "venue": {"id": "4b6e460cf964a52094b52ce3", "name": "The Blue Goose", "location": {"address": "1 Blue Goose St", "crossStreet": "Cavell", "lat": 43.61678873297203, "lng": -79.4958701202763, "labeledLatLngs": [{"label": "display", "lat": 43.61678873297203, "lng": -79.4958701202763}], "distance": 1315, "postalCode": "M8V 2R5", "cc": "CA", "city": "Toronto", "state": "ON", "country": "Canada", "formattedAddress": ["1 Blue Goose St (Cavell)", "Toronto ON M8V 2R5", "Canada"]}, "categories": [{"id": "4bf58dd8d48988d116941735", "name": "Bar", "pluralName": "Bars", "shortName": "Bar", "icon": {"prefix": "https://ss3.4sqi.net/img/categories_v2/nightlife/pub_", "suffix": ".png"}, "primary": true}], "photos": {"count": 0, "groups": []}}, "referralId": "e-0-4b6e460cf964a52094b52ce3-20"}, {"reasons": {"count": 0, "items": [{"summary": "This spot is popular", "type": "general", "reasonName": "globalInteractionReason"}]}, "venue": {"id": "4bc45c08b492d13afbdea960", "name": "Delicia Bakery & Pastry", "location": {"lat": 43.601402988357286, "lng": -79.50301234678948, "labeledLatLngs": [{"label": "display", "lat": 43.601402988357286, "lng": -79.50301234678948}], "distance": 491, "cc": "CA", "country": "Canada", "formattedAddress": ["Canada"]}, "categories": [{"id": "4bf58dd8d48988d16a941735", "name": "Bakery", "pluralName": "Bakeries", "shortName": "Bakery", "icon": {"prefix": "https://ss3.4sqi.net/img/categories_v2/food/bakery_", "suffix": ".png"}, "primary": true}], "photos": {"count": 0, "groups": []}}, "referralId": "e-0-4bc45c08b492d13afbdea960-21"}, {"reasons": {"count": 0, "items": [{"summary": "This spot is popular", "type": "general", "reasonName": "globalInteractionReason"}]}, "venue": {"id": "4bfad08d328d76b02eff14ec", "name": "Cliff Lumsdon Park", "location": {"address": "1 sixth street", "lat": 43.59577563273237, "lng": -79.50177108539548, "labeledLatLngs": [{"label": "display", "lat": 43.59577563273237, "lng": -79.50177108539548}], "distance": 1099, "cc": "CA", "city": "Toronto", "state": "ON", "country": "Canada", "formattedAddress": ["1 sixth street", "Toronto ON", "Canada"]}, "categories": [{"id": "4bf58dd8d48988d163941735", "name": "Park", "pluralName": "Parks", "shortName": "Park", "icon": {"prefix": "https://ss3.4sqi.net/img/categories_v2/parks_outdoors/park_", "suffix": ".png"}, "primary": true}], "photos": {"count": 0, "groups": []}}, "referralId": "e-0-4bfad08d328d76b02eff14ec-22"}, {"reasons": {"count": 0, "items": [{"summary": "This spot is popular", "type": "general", "reasonName": "globalInteractionReason"}]}, "venue": {"id": "4b0a80a3f964a520892423e3", "name": "Lucky Dice Restaurant", "location": {"address": "2868 Lake Shore Blvd W", "crossStreet": "5th Street", "lat": 43.601392135734876, "lng": -79.50305626141281, "labeledLatLngs": [{"label": "display", "lat": 43.601392135734876, "lng": -79.50305626141281}], "distance": 493, "cc": "CA", "city": "Toronto", "state": "ON", "country": "Canada", "formattedAddress": ["2868 Lake Shore Blvd W (5th Street)", "Toronto ON", "Canada"]}, "categories": [{"id": "4bf58dd8d48988d16d941735", "name": "Caf\u00e9", "pluralName": "Caf\u00e9s", "shortName": "Caf\u00e9", "icon": {"prefix": "https://ss3.4sqi.net/img/categories_v2/food/cafe_", "suffix": ".png"}, "primary": true}], "photos": {"count": 0, "groups": []}}, "referralId": "e-0-4b0a80a3f964a520892423e3-23"}, {"reasons": {"count": 0, "items": [{"summary": "This spot is popular", "type": "general", "reasonName": "globalInteractionReason"}]}, "venue": {"id": "4be213391dd22d7f5a4e93bd", "name": "Rabba Fine Foods", "location": {"lat": 43.59905009747002, "lng": -79.51203773840156, "labeledLatLngs": [{"label": "display", "lat": 43.59905009747002, "lng": -79.51203773840156}], "distance": 1133, "cc": "CA", "country": "Canada", "formattedAddress": ["Canada"]}, "categories": [{"id": "52f2ab2ebcbc57f1066b8b46", "name": "Supermarket", "pluralName": "Supermarkets", "shortName": "Supermarket", "icon": {"prefix": "https://ss3.4sqi.net/img/categories_v2/shops/food_grocery_", "suffix": ".png"}, "primary": true}], "photos": {"count": 0, "groups": []}}, "referralId": "e-0-4be213391dd22d7f5a4e93bd-24"}, {"reasons": {"count": 0, "items": [{"summary": "This spot is popular", "type": "general", "reasonName": "globalInteractionReason"}]}, "venue": {"id": "4e1787b37d8b8af91384a504", "name": "Popeyes Louisiana Kitchen", "location": {"address": "2765 Lake Shore Blvd. W", "crossStreet": "at Second St.", "lat": 43.6020694028516, "lng": -79.49940016778937, "labeledLatLngs": [{"label": "display", "lat": 43.6020694028516, "lng": -79.49940016778937}], "distance": 427, "postalCode": "M8V 1H1", "cc": "CA", "city": "Toronto", "state": "ON", "country": "Canada", "formattedAddress": ["2765 Lake Shore Blvd. W (at Second St.)", "Toronto ON M8V 1H1", "Canada"]}, "categories": [{"id": "4d4ae6fc7a7b7dea34424761", "name": "Fried Chicken Joint", "pluralName": "Fried Chicken Joints", "shortName": "Fried Chicken", "icon": {"prefix": "https://ss3.4sqi.net/img/categories_v2/food/friedchicken_", "suffix": ".png"}, "primary": true}], "photos": {"count": 0, "groups": []}}, "referralId": "e-0-4e1787b37d8b8af91384a504-25"}, {"reasons": {"count": 0, "items": [{"summary": "This spot is popular", "type": "general", "reasonName": "globalInteractionReason"}]}, "venue": {"id": "4b90ff4bf964a520499e33e3", "name": "Canadiana Restaurant", "location": {"crossStreet": "Lakshore Blvd W & Mimico", "lat": 43.61358750347395, "lng": -79.48966619920637, "labeledLatLngs": [{"label": "display", "lat": 43.61358750347395, "lng": -79.48966619920637}], "distance": 1289, "cc": "CA", "city": "Etobicoke", "state": "ON", "country": "Canada", "formattedAddress": ["Etobicoke ON", "Canada"]}, "categories": [{"id": "4bf58dd8d48988d143941735", "name": "Breakfast Spot", "pluralName": "Breakfast Spots", "shortName": "Breakfast", "icon": {"prefix": "https://ss3.4sqi.net/img/categories_v2/food/breakfast_", "suffix": ".png"}, "primary": true}], "photos": {"count": 0, "groups": []}}, "referralId": "e-0-4b90ff4bf964a520499e33e3-26"}, {"reasons": {"count": 0, "items": [{"summary": "This spot is popular", "type": "general", "reasonName": "globalInteractionReason"}]}, "venue": {"id": "4b6b3ac2f964a520e7fa2be3", "name": "7-Eleven", "location": {"address": "2480 Lakeshore Blvd W", "lat": 43.61307628496873, "lng": -79.49004654587952, "labeledLatLngs": [{"label": "display", "lat": 43.61307628496873, "lng": -79.49004654587952}], "distance": 1228, "postalCode": "M8V 1C9", "cc": "CA", "city": "Etobicoke", "state": "ON", "country": "Canada", "formattedAddress": ["2480 Lakeshore Blvd W", "Etobicoke ON M8V 1C9", "Canada"]}, "categories": [{"id": "4d954b0ea243a5684a65b473", "name": "Convenience Store", "pluralName": "Convenience Stores", "shortName": "Convenience Store", "icon": {"prefix": "https://ss3.4sqi.net/img/categories_v2/shops/conveniencestore_", "suffix": ".png"}, "primary": true}], "photos": {"count": 0, "groups": []}}, "referralId": "e-0-4b6b3ac2f964a520e7fa2be3-27"}, {"reasons": {"count": 0, "items": [{"summary": "This spot is popular", "type": "general", "reasonName": "globalInteractionReason"}]}, "venue": {"id": "4be80a5688ed2d7fa158cb1d", "name": "Lakeshore valu-mart", "location": {"address": "2399 Lakeshore Blvd", "lat": 43.614666, "lng": -79.488418, "labeledLatLngs": [{"label": "display", "lat": 43.614666, "lng": -79.488418}], "distance": 1445, "postalCode": "M8V 1C5", "cc": "CA", "city": "Etobicoke", "state": "ON", "country": "Canada", "formattedAddress": ["2399 Lakeshore Blvd", "Etobicoke ON M8V 1C5", "Canada"]}, "categories": [{"id": "4bf58dd8d48988d118951735", "name": "Grocery Store", "pluralName": "Grocery Stores", "shortName": "Grocery Store", "icon": {"prefix": "https://ss3.4sqi.net/img/categories_v2/shops/food_grocery_", "suffix": ".png"}, "primary": true}], "photos": {"count": 0, "groups": []}}, "referralId": "e-0-4be80a5688ed2d7fa158cb1d-28"}, {"reasons": {"count": 0, "items": [{"summary": "This spot is popular", "type": "general", "reasonName": "globalInteractionReason"}]}, "venue": {"id": "4bee4cb5d355a593c1c40a60", "name": "McDonald's", "location": {"address": "2736 Lakeshore Blvd W", "crossStreet": "at Clarkson Rd.", "lat": 43.60246404619248, "lng": -79.49885909892578, "labeledLatLngs": [{"label": "display", "lat": 43.60246404619248, "lng": -79.49885909892578}], "distance": 406, "postalCode": "M8V 1G5", "cc": "CA", "city": "Etobicoke", "state": "ON", "country": "Canada", "formattedAddress": ["2736 Lakeshore Blvd W (at Clarkson Rd.)", "Etobicoke ON M8V 1G5", "Canada"]}, "categories": [{"id": "4bf58dd8d48988d16e941735", "name": "Fast Food Restaurant", "pluralName": "Fast Food Restaurants", "shortName": "Fast Food", "icon": {"prefix": "https://ss3.4sqi.net/img/categories_v2/food/fastfood_", "suffix": ".png"}, "primary": true}], "photos": {"count": 0, "groups": []}}, "referralId": "e-0-4bee4cb5d355a593c1c40a60-29"}, {"reasons": {"count": 0, "items": [{"summary": "This spot is popular", "type": "general", "reasonName": "globalInteractionReason"}]}, "venue": {"id": "4bca0bf5fb84c9b60e411c3e", "name": "Shoppers Drug Mart", "location": {"address": "2850 Lakeshore Blvd W", "lat": 43.601677, "lng": -79.502239, "labeledLatLngs": [{"label": "display", "lat": 43.601677, "lng": -79.502239}], "distance": 448, "postalCode": "M8V 1J2", "cc": "CA", "city": "Etobicoke", "state": "ON", "country": "Canada", "formattedAddress": ["2850 Lakeshore Blvd W", "Etobicoke ON M8V 1J2", "Canada"]}, "categories": [{"id": "4bf58dd8d48988d10f951735", "name": "Pharmacy", "pluralName": "Pharmacies", "shortName": "Pharmacy", "icon": {"prefix": "https://ss3.4sqi.net/img/categories_v2/shops/pharmacy_", "suffix": ".png"}, "primary": true}], "photos": {"count": 0, "groups": []}}, "referralId": "e-0-4bca0bf5fb84c9b60e411c3e-30"}, {"reasons": {"count": 0, "items": [{"summary": "This spot is popular", "type": "general", "reasonName": "globalInteractionReason"}]}, "venue": {"id": "50a6bb8de4b0ec4c79616846", "name": "Maurya East Indian Roti Cuisine", "location": {"address": "2481 Lakeshore Blvd W.", "crossStreet": "Mimico", "lat": 43.61360596157636, "lng": -79.4892971696755, "labeledLatLngs": [{"label": "display", "lat": 43.61360596157636, "lng": -79.4892971696755}], "distance": 1313, "postalCode": "M8V 1C5", "cc": "CA", "city": "Etobicoke", "state": "ON", "country": "Canada", "formattedAddress": ["2481 Lakeshore Blvd W. (Mimico)", "Etobicoke ON M8V 1C5", "Canada"]}, "categories": [{"id": "4bf58dd8d48988d10f941735", "name": "Indian Restaurant", "pluralName": "Indian Restaurants", "shortName": "Indian", "icon": {"prefix": "https://ss3.4sqi.net/img/categories_v2/food/indian_", "suffix": ".png"}, "primary": true}], "photos": {"count": 0, "groups": []}}, "referralId": "e-0-50a6bb8de4b0ec4c79616846-31"}, {"reasons": {"count": 0, "items": [{"summary": "This spot is popular", "type": "general", "reasonName": "globalInteractionReason"}]}, "venue": {"id": "5086d512e4b0aafd9871629f", "name": "Tim Hortons", "location": {"address": "3089 Lakeshore Blvd", "crossStreet": "Lakeshore", "lat": 43.598932118044694, "lng": -79.51199010014534, "labeledLatLngs": [{"label": "display", "lat": 43.598932118044694, "lng": -79.51199010014534}], "distance": 1139, "postalCode": "M8V 1A3", "cc": "CA", "city": "Etobicoke", "state": "ON", "country": "Canada", "formattedAddress": ["3089 Lakeshore Blvd (Lakeshore)", "Etobicoke ON M8V 1A3", "Canada"]}, "categories": [{"id": "4bf58dd8d48988d1e0931735", "name": "Coffee Shop", "pluralName": "Coffee Shops", "shortName": "Coffee Shop", "icon": {"prefix": "https://ss3.4sqi.net/img/categories_v2/food/coffeeshop_", "suffix": ".png"}, "primary": true}], "photos": {"count": 0, "groups": []}}, "referralId": "e-0-5086d512e4b0aafd9871629f-32"}, {"reasons": {"count": 0, "items": [{"summary": "This spot is popular", "type": "general", "reasonName": "globalInteractionReason"}]}, "venue": {"id": "4b60cd12f964a52063fa29e3", "name": "The Beer Store", "location": {"address": "2458 Lakeshore Blvd W", "crossStreet": "at Mimico", "lat": 43.613543, "lng": -79.4894523, "labeledLatLngs": [{"label": "display", "lat": 43.613543, "lng": -79.4894523}], "distance": 1299, "postalCode": "M8V 1C9", "cc": "CA", "city": "Etobicoke", "state": "ON", "country": "Canada", "formattedAddress": ["2458 Lakeshore Blvd W (at Mimico)", "Etobicoke ON M8V 1C9", "Canada"]}, "categories": [{"id": "5370f356bcbc57f1066c94c2", "name": "Beer Store", "pluralName": "Beer Stores", "shortName": "Beer Store", "icon": {"prefix": "https://ss3.4sqi.net/img/categories_v2/nightlife/beergarden_", "suffix": ".png"}, "primary": true}], "photos": {"count": 0, "groups": []}}, "referralId": "e-0-4b60cd12f964a52063fa29e3-33"}, {"reasons": {"count": 0, "items": [{"summary": "This spot is popular", "type": "general", "reasonName": "globalInteractionReason"}]}, "venue": {"id": "51d85bc8498e179ed0fbe8c3", "name": "Subway\u00ae Restaurants", "location": {"address": "2378 Lakeshore Blvd West", "lat": 43.615506914122285, "lng": -79.4886475434958, "labeledLatLngs": [{"label": "display", "lat": 43.615506914122285, "lng": -79.4886475434958}], "distance": 1499, "postalCode": "M8V 2L4", "cc": "CA", "city": "Etobicoke", "state": "ON", "country": "Canada", "formattedAddress": ["2378 Lakeshore Blvd West", "Etobicoke ON M8V 2L4", "Canada"]}, "categories": [{"id": "4bf58dd8d48988d1c5941735", "name": "Sandwich Place", "pluralName": "Sandwich Places", "shortName": "Sandwiches", "icon": {"prefix": "https://ss3.4sqi.net/img/categories_v2/food/deli_", "suffix": ".png"}, "primary": true}], "photos": {"count": 0, "groups": []}}, "referralId": "e-0-51d85bc8498e179ed0fbe8c3-34"}, {"reasons": {"count": 0, "items": [{"summary": "This spot is popular", "type": "general", "reasonName": "globalInteractionReason"}]}, "venue": {"id": "4e50026718a8af30fd8d8541", "name": "Miles Road End Parkette", "location": {"address": "4 Mile Road", "lat": 43.60876845985822, "lng": -79.48993927294168, "labeledLatLngs": [{"label": "display", "lat": 43.60876845985822, "lng": -79.48993927294168}], "distance": 981, "cc": "CA", "city": "Toronto", "state": "ON", "country": "Canada", "formattedAddress": ["4 Mile Road", "Toronto ON", "Canada"]}, "categories": [{"id": "4bf58dd8d48988d163941735", "name": "Park", "pluralName": "Parks", "shortName": "Park", "icon": {"prefix": "https://ss3.4sqi.net/img/categories_v2/parks_outdoors/park_", "suffix": ".png"}, "primary": true}], "photos": {"count": 0, "groups": []}}, "referralId": "e-0-4e50026718a8af30fd8d8541-35"}, {"reasons": {"count": 0, "items": [{"summary": "This spot is popular", "type": "general", "reasonName": "globalInteractionReason"}]}, "venue": {"id": "4c0719e20ed3c9282f26797d", "name": "Lake Crescent Park", "location": {"address": "55 lake crescent", "lat": 43.60748607134589, "lng": -79.48842347494204, "labeledLatLngs": [{"label": "display", "lat": 43.60748607134589, "lng": -79.48842347494204}], "distance": 1059, "cc": "CA", "city": "Etobicoke", "state": "ON", "country": "Canada", "formattedAddress": ["55 lake crescent", "Etobicoke ON", "Canada"]}, "categories": [{"id": "4bf58dd8d48988d163941735", "name": "Park", "pluralName": "Parks", "shortName": "Park", "icon": {"prefix": "https://ss3.4sqi.net/img/categories_v2/parks_outdoors/park_", "suffix": ".png"}, "primary": true}], "photos": {"count": 0, "groups": []}}, "referralId": "e-0-4c0719e20ed3c9282f26797d-36"}, {"reasons": {"count": 0, "items": [{"summary": "This spot is popular", "type": "general", "reasonName": "globalInteractionReason"}]}, "venue": {"id": "4ba6a5f8f964a520f76539e3", "name": "Ourland Community Centre", "location": {"address": "18 Ourland Ave", "crossStreet": "Islington Ave", "lat": 43.61515530761945, "lng": -79.50804518621686, "labeledLatLngs": [{"label": "display", "lat": 43.61515530761945, "lng": -79.50804518621686}], "distance": 1189, "cc": "CA", "city": "Etobicoke", "state": "ON", "country": "Canada", "formattedAddress": ["18 Ourland Ave (Islington Ave)", "Etobicoke ON", "Canada"]}, "categories": [{"id": "4bf58dd8d48988d163941735", "name": "Park", "pluralName": "Parks", "shortName": "Park", "icon": {"prefix": "https://ss3.4sqi.net/img/categories_v2/parks_outdoors/park_", "suffix": ".png"}, "primary": true}], "photos": {"count": 0, "groups": []}}, "referralId": "e-0-4ba6a5f8f964a520f76539e3-37"}, {"reasons": {"count": 0, "items": [{"summary": "This spot is popular", "type": "general", "reasonName": "globalInteractionReason"}]}, "venue": {"id": "4bf312506a31d13a453c942e", "name": "Ourland Park", "location": {"address": "18 Ourland Drive", "crossStreet": "Evans Ave.", "lat": 43.61629188324124, "lng": -79.50889561126202, "labeledLatLngs": [{"label": "display", "lat": 43.61629188324124, "lng": -79.50889561126202}], "distance": 1333, "cc": "CA", "city": "Toronto Division", "state": "ON", "country": "Canada", "formattedAddress": ["18 Ourland Drive (Evans Ave.)", "Toronto Division ON", "Canada"]}, "categories": [{"id": "4cce455aebf7b749d5e191f5", "name": "Soccer Field", "pluralName": "Soccer Fields", "shortName": "Soccer Field", "icon": {"prefix": "https://ss3.4sqi.net/img/categories_v2/arts_entertainment/stadium_soccer_", "suffix": ".png"}, "primary": true}], "photos": {"count": 0, "groups": []}}, "referralId": "e-0-4bf312506a31d13a453c942e-38"}, {"reasons": {"count": 0, "items": [{"summary": "This spot is popular", "type": "general", "reasonName": "globalInteractionReason"}]}, "venue": {"id": "4b90fe17f964a520fa9d33e3", "name": "Mimico Coffee & Bagel", "location": {"address": "2391 Lakeshore Blvd. W.", "crossStreet": "at Superior Ave.", "lat": 43.614898801794844, "lng": -79.48860758973238, "labeledLatLngs": [{"label": "display", "lat": 43.614898801794844, "lng": -79.48860758973238}], "distance": 1452, "postalCode": "M8V 1B7", "cc": "CA", "city": "Toronto", "state": "ON", "country": "Canada", "formattedAddress": ["2391 Lakeshore Blvd. W. (at Superior Ave.)", "Toronto ON M8V 1B7", "Canada"]}, "categories": [{"id": "4bf58dd8d48988d1e0931735", "name": "Coffee Shop", "pluralName": "Coffee Shops", "shortName": "Coffee Shop", "icon": {"prefix": "https://ss3.4sqi.net/img/categories_v2/food/coffeeshop_", "suffix": ".png"}, "primary": true}], "photos": {"count": 0, "groups": []}}, "referralId": "e-0-4b90fe17f964a520fa9d33e3-39"}, {"reasons": {"count": 0, "items": [{"summary": "This spot is popular", "type": "general", "reasonName": "globalInteractionReason"}]}, "venue": {"id": "5bd617a7acc5f5002cc44845", "name": "Jimmy\u2019s Coffee", "location": {"address": "380", "crossStreet": "Royal York Rd", "lat": 43.618715, "lng": -79.499506, "labeledLatLngs": [{"label": "display", "lat": 43.618715, "lng": -79.499506}], "distance": 1462, "postalCode": "M8Y 2R3", "cc": "CA", "city": "Etobicoke", "state": "ON", "country": "Canada", "formattedAddress": ["380 (Royal York Rd)", "Etobicoke ON M8Y 2R3", "Canada"]}, "categories": [{"id": "4bf58dd8d48988d16d941735", "name": "Caf\u00e9", "pluralName": "Caf\u00e9s", "shortName": "Caf\u00e9", "icon": {"prefix": "https://ss3.4sqi.net/img/categories_v2/food/cafe_", "suffix": ".png"}, "primary": true}], "photos": {"count": 0, "groups": []}}, "referralId": "e-0-5bd617a7acc5f5002cc44845-40"}]}]}}