{"meta": {"code": 200, "requestId": "5e1973ed618f43001b7a0527"}, "response": {"headerLocation": "Islington - City Centre West", "headerFullLocation": "Islington - City Centre West, Toronto", "headerLocationGranularity": "neighborhood", "totalResults": 14, "suggestedBounds": {"ne": {"lat": 43.65990720896401, "lng": -79.5423587472302}, "sw": {"lat": 43.64197919103599, "lng": -79.56709005276983}}, "groups": [{"type": "Recommended Places", "name": "recommended", "items": [{"reasons": {"count": 0, "items": [{"summary": "This spot is popular", "type": "general", "reasonName": "globalInteractionReason"}]}, "venue": {"id": "4b034267f964a520064e22e3", "name": "Loblaws", "location": {"address": "380 The East Mall", "crossStreet": "at Burnhamthorpe Rd.", "lat": 43.643848, "lng": -79.560113, "labeledLatLngs": [{"label": "display", "lat": 43.643848, "lng": -79.560113}], "distance": 901, "postalCode": "M9B 6L5", "cc": "CA", "city": "Etobicoke", "state": "ON", "country": "Canada", "formattedAddress": ["380 The East Mall (at Burnhamthorpe Rd.)", "Etobicoke ON M9B 6L5", "Canada"]}, "categories": [{"id": "4bf58dd8d48988d118951735", "name": "Grocery Store", "pluralName": "Grocery Stores", "shortName": "Grocery Store", "icon": {"prefix": "https://ss3.4sqi.net/img/categories_v2/shops/food_grocery_", "suffix": ".png"}, "primary": true}], "photos": {"count": 0, "groups": []}}, "referralId": "e-0-4b034267f964a520064e22e3-0"}, {"reasons": {"count": 0, "items": [{"summary": "This spot is popular", "type": "general", "reasonName": "globalInteractionReason"}]}, "venue": {"id": "59021d4666f3cd3ef4d5e114", "name": "State & Main Kitchen & Bar", "location": {"address": "396 The East Mall", "crossStreet": "at Burnhamthorpe Rd.", "lat": 43.645750197244666, "lng": -79.56023054509336, "labeledLatLngs": [{"label": "display", "lat": 43.645750197244666, "lng": -79.56023054509336}], "distance": 728, "postalCode": "M9B 6J4", "cc": "CA", "neighborhood": "Islington - City Centre West", "city": "Etobicoke", "state": "ON", "country": "Canada", "formattedAddress": ["396 The East Mall (at Burnhamthorpe Rd.)", "Etobicoke ON M9B 6J4", "Canada"]}, "categories": [{"id": "4bf58dd8d48988d14e941735", "name": "American Restaurant", "pluralName": "American Restaurants", "shortName": "American", "icon": {"prefix": "https://ss3.4sqi.net/img/categories_v2/food/default_", "suffix": ".png"}, "primary": true}], "photos": {"count": 0, "groups": []}}, "referralId": "e-0-59021d4666f3cd3ef4d5e114-1"}, {"reasons": {"count": 0, "items": [{"summary": "This spot is popular", "type": "general", "reasonName": "globalInteractionReason"}]}, "venue": {"id": "4b005bd9f964a520463d22e3", "name": "McNies Fish and Chips", "location": {"address": "315 Burnhamthorpe Rd.", "crossStreet": "Martingrove", "lat": 43.645340930309125, "lng": -79.54841516132466, "labeledLatLngs": [{"label": "display", "lat": 43.645340930309125, "lng": -79.54841516132466}], "distance": 804, "cc": "CA", "city": "Toronto", "state": "ON", "country": "Canada", "formattedAddress": ["315 Burnhamthorpe Rd. (Martingrove)", "Toronto ON", "Canada"]}, "categories": [{"id": "4edd64a0c7ddd24ca188df1a", "name": "Fish & Chips Shop", "pluralName": "Fish & Chips Shops", "shortName": "Fish & Chips", "icon": {"prefix": "https://ss3.4sqi.net/img/categories_v2/food/fishandchips_", "suffix": ".png"}, "primary": true}], "photos": {"count": 0, "groups": []}}, "referralId": "e-0-4b005bd9f964a520463d22e3-2"}, {"reasons": {"count": 0, "items": [{"summary": "This spot is popular", "type": "general", "reasonName": "globalInteractionReason"}]}, "venue": {"id": "4d6d1a2ccf7e41bda7bb8285", "name": "TD Canada Trust", "location": {"address": "390 THE EAST MALL, Unit #100", "lat": 43.64550170005129, "lng": -79.5600064576721, "labeledLatLngs": [{"label": "display", "lat": 43.64550170005129, "lng": -79.5600064576721}], "distance": 740, "postalCode": "M9B 6L5", "cc": "CA", "city": "Toronto", "state": "ON", "country": "Canada", "formattedAddress": ["390 THE EAST MALL, Unit #100", "Toronto ON M9B 6L5", "Canada"]}, "categories": [{"id": "4bf58dd8d48988d10a951735", "name": "Bank", "pluralName": "Banks", "shortName": "Bank", "icon": {"prefix": "https://ss3.4sqi.net/img/categories_v2/shops/financial_", "suffix": ".png"}, "primary": true}], "photos": {"count": 0, "groups": []}}, "referralId": "e-0-4d6d1a2ccf7e41bda7bb8285-3"}, {"reasons": {"count": 0, "items": [{"summary": "This spot is popular", "type": "general", "reasonName": "globalInteractionReason"}]}, "venue": {"id": "4af601f3f964a5201f0022e3", "name": "Pizza Pizza", "location": {"address": "316 BURNHAMTHORPE ROAD", "lat": 43.648754693274114, "lng": -79.54872638036836, "labeledLatLngs": [{"label": "display", "lat": 43.648754693274114, "lng": -79.54872638036836}], "distance": 541, "postalCode": "M9B 2A1", "cc": "CA", "city": "Etobicoke", "state": "ON", "country": "Canada", "formattedAddress": ["316 BURNHAMTHORPE ROAD", "Etobicoke ON M9B 2A1", "Canada"]}, "categories": [{"id": "4bf58dd8d48988d1ca941735", "name": "Pizza Place", "pluralName": "Pizza Places", "shortName": "Pizza", "icon": {"prefix": "https://ss3.4sqi.net/img/categories_v2/food/pizza_", "suffix": ".png"}, "primary": true}], "photos": {"count": 0, "groups": []}}, "referralId": "e-0-4af601f3f964a5201f0022e3-4"}, {"reasons": {"count": 0, "items": [{"summary": "This spot is popular", "type": "general", "reasonName": "globalInteractionReason"}]}, "venue": {"id": "4bb2878f2397b713df2737b3", "name": "GoodLife Fitness", "location": {"address": "380 The East Mall", "crossStreet": "Burnhamthorpe Road", "lat": 43.645403, "lng": -79.559604, "labeledLatLngs": [{"label": "display", "lat": 43.645403, "lng": -79.559604}], "distance": 731, "postalCode": "M9B 6L5", "cc": "CA", "city": "Etobicoke", "state": "ON", "country": "Canada", "formattedAddress": ["380 The East Mall (Burnhamthorpe Road)", "Etobicoke ON M9B 6L5", "Canada"]}, "categories": [{"id": "4bf58dd8d48988d176941735", "name": "Gym", "pluralName": "Gyms", "shortName": "Gym", "icon": {"prefix": "https://ss3.4sqi.net/img/categories_v2/building/gym_", "suffix": ".png"}, "primary": true}], "photos": {"count": 0, "groups": []}}, "referralId": "e-0-4bb2878f2397b713df2737b3-5"}, {"reasons": {"count": 0, "items": [{"summary": "This spot is popular", "type": "general", "reasonName": "globalInteractionReason"}]}, "venue": {"id": "4b3e3d4ef964a520ff9925e3", "name": "Pizza Nova", "location": {"address": "129 Martin Grove", "crossStreet": "at Burnhamthorpe", "lat": 43.649092, "lng": -79.549, "labeledLatLngs": [{"label": "display", "lat": 43.649092, "lng": -79.549}], "distance": 505, "postalCode": "M9B 4K8", "cc": "CA", "city": "Toronto", "state": "ON", "country": "Canada", "formattedAddress": ["129 Martin Grove (at Burnhamthorpe)", "Toronto ON M9B 4K8", "Canada"]}, "categories": [{"id": "4bf58dd8d48988d1ca941735", "name": "Pizza Place", "pluralName": "Pizza Places", "shortName": "Pizza", "icon": {"prefix": "https://ss3.4sqi.net/img/categories_v2/food/pizza_", "suffix": ".png"}, "primary": true}], "photos": {"count": 0, "groups": []}}, "referralId": "e-0-4b3e3d4ef964a520ff9925e3-6"}, {"reasons": {"count": 0, "items": [{"summary": "This spot is popular", "type": "general", "reasonName": "globalInteractionReason"}]}, "venue": {"id": "4ba4e357f964a52044bf38e3", "name": "Burnhamthorpe Adult Learning Centre", "location": {"address": "500 The East Mall", "lat": 43.648356198695225, "lng": -79.56209729688265, "labeledLatLngs": [{"label": "display", "lat": 43.648356198695225, "lng": -79.56209729688265}], "distance": 660, "cc": "CA", "city": "Toronto", "state": "ON", "country": "Canada", "formattedAddress": ["500 The East Mall", "Toronto ON", "Canada"]}, "categories": [{"id": "4bf58dd8d48988d137941735", "name": "Theater", "pluralName": "Theaters", "shortName": "Theater", "icon": {"prefix": "https://ss3.4sqi.net/img/categories_v2/arts_entertainment/performingarts_theater_", "suffix": ".png"}, "primary": true}], "photos": {"count": 0, "groups": []}}, "referralId": "e-0-4ba4e357f964a52044bf38e3-7"}, {"reasons": {"count": 0, "items": [{"summary": "This spot is popular", "type": "general", "reasonName": "globalInteractionReason"}]}, "venue": {"id": "58c04865d70282604a8688e7", "name": "barBURRITO", "location": {"address": "390 The East Mall", "lat": 43.64571, "lng": -79.560135, "labeledLatLngs": [{"label": "display", "lat": 43.64571, "lng": -79.560135}], "distance": 727, "postalCode": "M9B 6L5", "cc": "CA", "city": "Etobicoke", "state": "ON", "country": "Canada", "formattedAddress": ["390 The East Mall", "Etobicoke ON M9B 6L5", "Canada"]}, "categories": [{"id": "4bf58dd8d48988d1c1941735", "name": "Mexican Restaurant", "pluralName": "Mexican Restaurants", "shortName": "Mexican", "icon": {"prefix": "https://ss3.4sqi.net/img/categories_v2/food/mexican_", "suffix": ".png"}, "primary": true}], "photos": {"count": 0, "groups": []}}, "referralId": "e-0-58c04865d70282604a8688e7-8"}, {"reasons": {"count": 0, "items": [{"summary": "This spot is popular", "type": "general", "reasonName": "globalInteractionReason"}]}, "venue": {"id": "4c050d3539d476b0554332a7", "name": "Hampton Inn", "location": {"address": "5155 Eglinton Ave W", "lat": 43.65619274840501, "lng": -79.56016965363763, "labeledLatLngs": [{"label": "display", "lat": 43.65619274840501, "lng": -79.56016965363763}], "distance": 730, "postalCode": "M9C 5K5", "cc": "CA", "city": "Toronto", "state": "ON", "country": "Canada", "formattedAddress": ["5155 Eglinton Ave W", "Toronto ON M9C 5K5", "Canada"]}, "categories": [{"id": "4bf58dd8d48988d1fa931735", "name": "Hotel", "pluralName": "Hotels", "shortName": "Hotel", "icon": {"prefix": "https://ss3.4sqi.net/img/categories_v2/travel/hotel_", "suffix": ".png"}, "primary": true}], "photos": {"count": 0, "groups": []}}, "referralId": "e-0-4c050d3539d476b0554332a7-9"}, {"reasons": {"count": 0, "items": [{"summary": "This spot is popular", "type": "general", "reasonName": "globalInteractionReason"}]}, "venue": {"id": "4b816fa8f964a520eca530e3", "name": "Wedgewood Park", "location": {"crossStreet": "Charleston Rd and Swan Ave", "lat": 43.6453346838194, "lng": -79.54841084471819, "labeledLatLngs": [{"label": "display", "lat": 43.6453346838194, "lng": -79.54841084471819}], "distance": 805, "cc": "CA", "city": "Toronto", "state": "ON", "country": "Canada", "formattedAddress": ["Charleston Rd and Swan Ave", "Toronto ON", "Canada"]}, "categories": [{"id": "4bf58dd8d48988d163941735", "name": "Park", "pluralName": "Parks", "shortName": "Park", "icon": {"prefix": "https://ss3.4sqi.net/img/categories_v2/parks_outdoors/park_", "suffix": ".png"}, "primary": true}], "photos": {"count": 0, "groups": []}}, "referralId": "e-0-4b816fa8f964a520eca530e3-10"}, {"reasons": {"count": 0, "items": [{"summary": "This spot is popular", "type": "general", "reasonName": "globalInteractionReason"}]}, "venue": {"id": "4e90c616d22dccc37ee7a4cb", "name": "Ravenscrest Park", "location": {"address": "305 Martin Grove Rd", "lat": 43.658333994936655, "lng": -79.55222450794535, "labeledLatLngs": [{"label": "display", "lat": 43.658333994936655, "lng": -79.55222450794535}], "distance": 847, "postalCode": "M1M 1M1", "cc": "CA", "city": "Toronto", "state": "ON", "country": "Canada", "formattedAddress": ["305 Martin Grove Rd", "Toronto ON M1M 1M1", "Canada"]}, "categories": [{"id": "4bf58dd8d48988d163941735", "name": "Park", "pluralName": "Parks", "shortName": "Park", "icon": {"prefix": "https://ss3.4sqi.net/img/categories_v2/parks_outdoors/park_", "suffix": ".png"}, "primary": true}], "photos": {"count": 0, "groups": []}}, "referralId": "e-0-4e90c616d22dccc37ee7a4cb-11"}, {"reasons": {"count": 0, "items": [{"summary": "This spot is popular", "type": "general", "reasonName": "globalInteractionReason"}]}, "venue": {"id": "4eec1ae2e300215591ef4bfb", "name": "Joe Fresh", "location": {"address": "380 The East Mall", "crossStreet": "Loblaws", "lat": 43.643911, "lng": -79.560126, "labeledLatLngs": [{"label": "display", "lat": 43.643911, "lng": -79.560126}], "distance": 895, "postalCode": "M9B 6L5", "cc": "CA", "city": "Etobicoke", "state": "ON", "country": "Canada", "formattedAddress": ["380 The East Mall (Loblaws)", "Etobicoke ON M9B 6L5", "Canada"]}, "categories": [{"id": "4bf58dd8d48988d103951735", "name": "Clothing Store", "pluralName": "Clothing Stores", "shortName": "Apparel", "icon": {"prefix": "https://ss3.4sqi.net/img/categories_v2/shops/apparel_", "suffix": ".png"}, "primary": true}], "photos": {"count": 0, "groups": []}}, "referralId": "e-0-4eec1ae2e300215591ef4bfb-12"}, {"reasons": {"count": 0, "items": [{"summary": "This spot is popular", "type": "general", "reasonName": "globalInteractionReason"}]}, "venue": {"id": "4e4074d5b61cdcbed35565da", "name": "East Mall Park", "location": {"address": "355 The East Mall", "lat": 43.643032139406, "lng": -79.5573832973678, "labeledLatLngs": [{"label": "display", "lat": 43.643032139406, "lng": -79.5573832973678}], "distance": 906, "cc": "CA", "city": "Toronto", "state": "ON", "country": "Canada", "formattedAddress": ["355 The East Mall", "Toronto ON", "Canada"]}, "categories": [{"id": "4bf58dd8d48988d163941735", "name": "Park", "pluralName": "Parks", "shortName": "Park", "icon": {"prefix": "https://ss3.4sqi.net/img/categories_v2/parks_outdoors/park_", "suffix": ".png"}, "primary": true}], "photos": {"count": 0, "groups": []}}, "referralId": "e-0-4e4074d5b61cdcbed35565da-13"}]}]}}