{"meta": {"code": 200, "requestId": "5e197427df2774001cb245c1"}, "response": {"suggestedFilters": {"header": "Tap to show:", "filters": [{"name": "Open now", "key": "openNow"}]}, "headerLocation": "Toronto", "headerFullLocation": "Toronto", "headerLocationGranularity": "city", "totalResults": 33, "suggestedBounds": {"ne": {"lat": 43.72320031645201, "lng": -79.57133808801109}, "sw": {"lat": 43.69029628354798, "lng": -79.61677071198892}}, "groups": [{"type": "Recommended Places", "name": "recommended", "items": [{"reasons": {"count": 0, "items": [{"summary": "This spot is popular", "type": "general", "reasonName": "globalInteractionReason"}]}, "venue": {"id": "4ba50113f964a52018cf38e3", "name": "Fortinos", "location": {"address": "330 Queens Plate Dr", "crossStreet": "at Hwy 27", "lat": 43.721438, "lng": -79.596291, "labeledLatLngs": [{"label": "display", "lat": 43.721438, "lng": -79.596291}], "distance": 1645, "postalCode": "M9W 7J7", "cc": "CA", "city": "Etobicoke", "state": "ON", "country": "Canada", "formattedAddress": ["330 Queens Plate Dr (at Hwy 27)", "Etobicoke ON M9W 7J7", "Canada"]}, "categories": [{"id": "4bf58dd8d48988d118951735", "name": "Grocery Store", "pluralName": "Grocery Stores", "shortName": "Grocery Store", "icon": {"prefix": "https://ss3.4sqi.net/img/categories_v2/shops/food_grocery_", "suffix": ".png"}, "primary": true}], "photos": {"count": 0, "groups": []}}, "referralId": "e-0-4ba50113f964a52018cf38e3-0"}, {"reasons": {"count": 0, "items": [{"summary": "This spot is popular", "type": "general", "reasonName": "globalInteractionReason"}]}, "venue": {"id": "4be452122457a593c40eaa15", "name": "Tim Hortons", "location": {"address": "116 Queens Plate Dr", "lat": 43.71465748224628, "lng": -79.59371566772467, "labeledLatLngs": [{"label": "display", "lat": 43.71465748224628, "lng": -79.59371566772467}], "distance": 880, "postalCode": "M9W 7K4", "cc": "CA", "city": "Etobicoke", "state": "ON", "country": "Canada", "formattedAddress": ["116 Queens Plate Dr", "Etobicoke ON M9W 7K4", "Canada"]}, "categories": [{"id": "4bf58dd8d48988d1e0931735", "name": "Coffee Shop", "pluralName": "Coffee Shops", "shortName": "Coffee Shop", "icon": {"prefix": "https://ss3.4sqi.net/img/categories_v2/food/coffeeshop_", "suffix": ".png"}, "primary": true}], "photos": {"count": 0, "groups": []}}, "referralId": "e-0-4be452122457a593c40eaa15-1"}, {"reasons": {"count": 0, "items": [{"summary": "This spot is popular", "type": "general", "reasonName": "globalInteractionReason"}]}, "venue": {"id": "4bbd615ea8cf76b015cfb1fd", "name": "Woodbine Racetrack", "location": {"address": "555 Rexdale Blvd", "crossStreet": "at Hwy. 27", "lat": 43.7179293, "lng": -79.5985735, "labeledLatLngs": [{"label": "display", "lat": 43.7179293, "lng": -79.5985735}], "distance": 1296, "postalCode": "M9W 5L2", "cc": "CA", "city": "Toronto", "state": "ON", "country": "Canada", "formattedAddress": ["555 Rexdale Blvd (at Hwy. 27)", "Toronto ON M9W 5L2", "Canada"]}, "categories": [{"id": "56aa371be4b08b9a8d573514", "name": "Racecourse", "pluralName": "Racecourses", "shortName": "Racecourse", "icon": {"prefix": "https://ss3.4sqi.net/img/categories_v2/arts_entertainment/stadium_track_", "suffix": ".png"}, "primary": true}], "photos": {"count": 0, "groups": []}}, "referralId": "e-0-4bbd615ea8cf76b015cfb1fd-2"}, {"reasons": {"count": 0, "items": [{"summary": "This spot is popular", "type": "general", "reasonName": "globalInteractionReason"}]}, "venue": {"id": "4b5f8a3df964a52062c029e3", "name": "Mandarin Buffet", "location": {"address": "200 Queens Plate Dr", "crossStreet": "at Hwy 27", "lat": 43.7203596, "lng": -79.5943875, "labeledLatLngs": [{"label": "display", "lat": 43.7203596, "lng": -79.5943875}], "distance": 1515, "postalCode": "M9W 6Y9", "cc": "CA", "city": "Rexdale", "state": "ON", "country": "Canada", "formattedAddress": ["200 Queens Plate Dr (at Hwy 27)", "Rexdale ON M9W 6Y9", "Canada"]}, "categories": [{"id": "4bf58dd8d48988d145941735", "name": "Chinese Restaurant", "pluralName": "Chinese Restaurants", "shortName": "Chinese", "icon": {"prefix": "https://ss3.4sqi.net/img/categories_v2/food/asian_", "suffix": ".png"}, "primary": true}], "photos": {"count": 0, "groups": []}}, "referralId": "e-0-4b5f8a3df964a52062c029e3-3"}, {"reasons": {"count": 0, "items": [{"summary": "This spot is popular", "type": "general", "reasonName": "globalInteractionReason"}]}, "venue": {"id": "4be594a12468c92856310043", "name": "Schuey's Bar and Grill", "location": {"lat": 43.700943561076556, "lng": -79.57543658325682, "labeledLatLngs": [{"label": "display", "lat": 43.700943561076556, "lng": -79.57543658325682}], "distance": 1631, "cc": "CA", "city": "Toronto Division", "state": "ON", "country": "Canada", "formattedAddress": ["Toronto Division ON", "Canada"]}, "categories": [{"id": "4bf58dd8d48988d16c941735", "name": "Burger Joint", "pluralName": "Burger Joints", "shortName": "Burgers", "icon": {"prefix": "https://ss3.4sqi.net/img/categories_v2/food/burger_", "suffix": ".png"}, "primary": true}], "photos": {"count": 0, "groups": []}}, "referralId": "e-0-4be594a12468c92856310043-4"}, {"reasons": {"count": 0, "items": [{"summary": "This spot is popular", "type": "general", "reasonName": "globalInteractionReason"}]}, "venue": {"id": "4b6c5c60f964a520a4332ce3", "name": "Tim Hortons", "location": {"address": "285 Rexdale Blvd.", "lat": 43.71317728570077, "lng": -79.5801859349013, "labeledLatLngs": [{"label": "display", "lat": 43.71317728570077, "lng": -79.5801859349013}], "distance": 1325, "postalCode": "M9W 1P7", "cc": "CA", "city": "Etobicoke", "state": "ON", "country": "Canada", "formattedAddress": ["285 Rexdale Blvd.", "Etobicoke ON M9W 1P7", "Canada"]}, "categories": [{"id": "4bf58dd8d48988d1e0931735", "name": "Coffee Shop", "pluralName": "Coffee Shops", "shortName": "Coffee Shop", "icon": {"prefix": "https://ss3.4sqi.net/img/categories_v2/food/coffeeshop_", "suffix": ".png"}, "primary": true}], "photos": {"count": 0, "groups": []}}, "referralId": "e-0-4b6c5c60f964a520a4332ce3-5"}, {"reasons": {"count": 0, "items": [{"summary": "This spot is popular", "type": "general", "reasonName": "globalInteractionReason"}]}, "venue": {"id": "561d7a54498ed5c87ce4159d", "name": "Xawaash", "location": {"address": "130 Queens Plate Dr, Unit 1", "crossStreet": "at Rexdale Blvd", "lat": 43.71578559593828, "lng": -79.59305324759328, "labeledLatLngs": [{"label": "display", "lat": 43.71578559593828, "lng": -79.59305324759328}], "distance": 1009, "postalCode": "M9W 0B4", "cc": "CA", "city": "Toronto", "state": "ON", "country": "Canada", "formattedAddress": ["130 Queens Plate Dr, Unit 1 (at Rexdale Blvd)", "Toronto ON M9W 0B4", "Canada"]}, "categories": [{"id": "4bf58dd8d48988d1c0941735", "name": "Mediterranean Restaurant", "pluralName": "Mediterranean Restaurants", "shortName": "Mediterranean", "icon": {"prefix": "https://ss3.4sqi.net/img/categories_v2/food/mediterranean_", "suffix": ".png"}, "primary": true}], "photos": {"count": 0, "groups": []}}, "referralId": "e-0-561d7a54498ed5c87ce4159d-6"}, {"reasons": {"count": 0, "items": [{"summary": "This spot is popular", "type": "general", "reasonName": "globalInteractionReason"}]}, "venue": {"id": "4c655ce05e61d13a3ca8bb85", "name": "Winners", "location": {"address": "160 Queens Plate Drive", "crossStreet": "at Hwy 27", "lat": 43.7198189817913, "lng": -79.5949226617813, "labeledLatLngs": [{"label": "display", "lat": 43.7198189817913, "lng": -79.5949226617813}], "distance": 1456, "postalCode": "M9W 6Y9", "cc": "CA", "city": "Etobicoke", "state": "ON", "country": "Canada", "formattedAddress": ["160 Queens Plate Drive (at Hwy 27)", "Etobicoke ON M9W 6Y9", "Canada"]}, "categories": [{"id": "4bf58dd8d48988d103951735", "name": "Clothing Store", "pluralName": "Clothing Stores", "shortName": "Apparel", "icon": {"prefix": "https://ss3.4sqi.net/img/categories_v2/shops/apparel_", "suffix": ".png"}, "primary": true}], "photos": {"count": 0, "groups": []}}, "referralId": "e-0-4c655ce05e61d13a3ca8bb85-7"}, {"reasons": {"count": 0, "items": [{"summary": "This spot is popular", "type": "general", "reasonName": "globalInteractionReason"}]}, "venue": {"id": "4d6ec39e12196ea832fa548e", "name": "Staples Rexdale", "location": {"address": "180 Queens Plate Drive", "lat": 43.7185385, "lng": -79.5945701, "labeledLatLngs": [{"label": "display", "lat": 43.7185385, "lng": -79.5945701}], "distance": 1313, "postalCode": "M9W 6V1", "cc": "CA", "city": "Etobicoke", "state": "ON", "country": "Canada", "formattedAddress": ["180 Queens Plate Drive", "Etobicoke ON M9W 6V1", "Canada"]}, "categories": [{"id": "4bf58dd8d48988d121951735", "name": "Paper / Office Supplies Store", "pluralName": "Paper / Office Supplies Stores", "shortName": "Office Supplies", "icon": {"prefix": "https://ss3.4sqi.net/img/categories_v2/shops/papergoods_", "suffix": ".png"}, "primary": true}], "photos": {"count": 0, "groups": []}}, "referralId": "e-0-4d6ec39e12196ea832fa548e-8"}, {"reasons": {"count": 0, "items": [{"summary": "This spot is popular", "type": "general", "reasonName": "globalInteractionReason"}]}, "venue": {"id": "4b60bccff964a5209cf629e3", "name": "Harvey's", "location": {"address": "269 Rexdale Blvd.", "lat": 43.71228923363633, "lng": -79.57743591075904, "labeledLatLngs": [{"label": "display", "lat": 43.71228923363633, "lng": -79.57743591075904}], "distance": 1472, "postalCode": "M9W 1P7", "cc": "CA", "city": "Etobicoke", "state": "ON", "country": "Canada", "formattedAddress": ["269 Rexdale Blvd.", "Etobicoke ON M9W 1P7", "Canada"]}, "categories": [{"id": "4bf58dd8d48988d16c941735", "name": "Burger Joint", "pluralName": "Burger Joints", "shortName": "Burgers", "icon": {"prefix": "https://ss3.4sqi.net/img/categories_v2/food/burger_", "suffix": ".png"}, "primary": true}], "photos": {"count": 0, "groups": []}}, "referralId": "e-0-4b60bccff964a5209cf629e3-9"}, {"reasons": {"count": 0, "items": [{"summary": "This spot is popular", "type": "general", "reasonName": "globalInteractionReason"}]}, "venue": {"id": "4d6d1a2acf7e41bd76ba8285", "name": "TD Canada Trust", "location": {"address": "500 Rexdale Blvd", "lat": 43.7196303, "lng": -79.5998964, "labeledLatLngs": [{"label": "display", "lat": 43.7196303, "lng": -79.5998964}], "distance": 1509, "postalCode": "M9W 6K5", "cc": "CA", "city": "Etobicoke", "state": "ON", "country": "Canada", "formattedAddress": ["500 Rexdale Blvd", "Etobicoke ON M9W 6K5", "Canada"]}, "categories": [{"id": "4bf58dd8d48988d10a951735", "name": "Bank", "pluralName": "Banks", "shortName": "Bank", "icon": {"prefix": "https://ss3.4sqi.net/img/categories_v2/shops/financial_", "suffix": ".png"}, "primary": true}], "photos": {"count": 0, "groups": []}}, "referralId": "e-0-4d6d1a2acf7e41bd76ba8285-10"}, {"reasons": {"count": 0, "items": [{"summary": "This spot is popular", "type": "general", "reasonName": "globalInteractionReason"}]}, "venue": {"id": "4ba25180f964a520d1ec37e3", "name": "Subway", "location": {"address": "285 Rexdale Blvd., Unit 3", "crossStreet": "at Martin Grove Rd.", "lat": 43.713118580829274, "lng": -79.5801910396703, "labeledLatLngs": [{"label": "display", "lat": 43.713118580829274, "lng": -79.5801910396703}], "distance": 1321, "postalCode": "M9W 1P7", "cc": "CA", "city": "Etobicoke", "state": "ON", "country": "Canada", "formattedAddress": ["285 Rexdale Blvd., Unit 3 (at Martin Grove Rd.)", "Etobicoke ON M9W 1P7", "Canada"]}, "categories": [{"id": "4bf58dd8d48988d1c5941735", "name": "Sandwich Place", "pluralName": "Sandwich Places", "shortName": "Sandwiches", "icon": {"prefix": "https://ss3.4sqi.net/img/categories_v2/food/deli_", "suffix": ".png"}, "primary": true}], "photos": {"count": 0, "groups": []}}, "referralId": "e-0-4ba25180f964a520d1ec37e3-11"}, {"reasons": {"count": 0, "items": [{"summary": "This spot is popular", "type": "general", "reasonName": "globalInteractionReason"}]}, "venue": {"id": "5a9d9afc1cf2e15a1e090870", "name": "Petro-Canada", "location": {"address": "288 Rexdale Blvd", "lat": 43.714398, "lng": -79.581868, "labeledLatLngs": [{"label": "display", "lat": 43.714398, "lng": -79.581868}], "distance": 1298, "postalCode": "M9W 1R6", "cc": "CA", "city": "Etobicoke", "state": "ON", "country": "Canada", "formattedAddress": ["288 Rexdale Blvd", "Etobicoke ON M9W 1R6", "Canada"]}, "categories": [{"id": "4bf58dd8d48988d113951735", "name": "Gas Station", "pluralName": "Gas Stations", "shortName": "Gas Station", "icon": {"prefix": "https://ss3.4sqi.net/img/categories_v2/shops/gas_", "suffix": ".png"}, "primary": true}], "photos": {"count": 0, "groups": []}}, "referralId": "e-0-5a9d9afc1cf2e15a1e090870-12"}, {"reasons": {"count": 0, "items": [{"summary": "This spot is popular", "type": "general", "reasonName": "globalInteractionReason"}]}, "venue": {"id": "4fa6633be4b028d55ab6d0c6", "name": "Tim Hortons", "location": {"address": "555 Rexdale Blvd", "crossStreet": "Gate F66 - T1", "lat": 43.714866277071636, "lng": -79.60468670726641, "labeledLatLngs": [{"label": "display", "lat": 43.714866277071636, "lng": -79.60468670726641}], "distance": 1244, "postalCode": "L4V 1R8", "cc": "CA", "city": "Etobicoke", "state": "ON", "country": "Canada", "formattedAddress": ["555 Rexdale Blvd (Gate F66 - T1)", "Etobicoke ON L4V 1R8", "Canada"]}, "categories": [{"id": "4bf58dd8d48988d1e0931735", "name": "Coffee Shop", "pluralName": "Coffee Shops", "shortName": "Coffee Shop", "icon": {"prefix": "https://ss3.4sqi.net/img/categories_v2/food/coffeeshop_", "suffix": ".png"}, "primary": true}], "photos": {"count": 0, "groups": []}}, "referralId": "e-0-4fa6633be4b028d55ab6d0c6-13"}, {"reasons": {"count": 0, "items": [{"summary": "This spot is popular", "type": "general", "reasonName": "globalInteractionReason"}]}, "venue": {"id": "4b84a2f8f964a5204b3f31e3", "name": "Canlan Ice Sports", "location": {"address": "1120 Martin Grove Road", "crossStreet": "Belfield Road", "lat": 43.699645060579336, "lng": -79.5762348804572, "labeledLatLngs": [{"label": "display", "lat": 43.699645060579336, "lng": -79.5762348804572}], "distance": 1637, "postalCode": "M9W 4W1", "cc": "CA", "city": "Etobicoke", "state": "ON", "country": "Canada", "formattedAddress": ["1120 Martin Grove Road (Belfield Road)", "Etobicoke ON M9W 4W1", "Canada"]}, "categories": [{"id": "4bf58dd8d48988d168941735", "name": "Skating Rink", "pluralName": "Skating Rinks", "shortName": "Skating Rink", "icon": {"prefix": "https://ss3.4sqi.net/img/categories_v2/parks_outdoors/skatingrink_", "suffix": ".png"}, "primary": true}], "photos": {"count": 0, "groups": []}}, "referralId": "e-0-4b84a2f8f964a5204b3f31e3-14"}, {"reasons": {"count": 0, "items": [{"summary": "This spot is popular", "type": "general", "reasonName": "globalInteractionReason"}]}, "venue": {"id": "4c2278a67e85c9287d13bc21", "name": "Subway", "location": {"address": "500 Rexdale Blvd, Unit F08", "crossStreet": "at Hwy. 27", "lat": 43.720549, "lng": -79.600033, "labeledLatLngs": [{"label": "display", "lat": 43.720549, "lng": -79.600033}], "distance": 1609, "postalCode": "M9W 6K5", "cc": "CA", "city": "Etobicoke", "state": "ON", "country": "Canada", "formattedAddress": ["500 Rexdale Blvd, Unit F08 (at Hwy. 27)", "Etobicoke ON M9W 6K5", "Canada"]}, "categories": [{"id": "4bf58dd8d48988d1c5941735", "name": "Sandwich Place", "pluralName": "Sandwich Places", "shortName": "Sandwiches", "icon": {"prefix": "https://ss3.4sqi.net/img/categories_v2/food/deli_", "suffix": ".png"}, "primary": true}], "photos": {"count": 0, "groups": []}}, "referralId": "e-0-4c2278a67e85c9287d13bc21-15"}, {"reasons": {"count": 0, "items": [{"summary": "This spot is popular", "type": "general", "reasonName": "globalInteractionReason"}]}, "venue": {"id": "4bb2db25715eef3b7dc985bb", "name": "OLG Slots at Woodbine", "location": {"address": "555 Rexdale Blvd.", "crossStreet": "at Hwy 27", "lat": 43.71557237047443, "lng": -79.60375395231131, "labeledLatLngs": [{"label": "display", "lat": 43.71557237047443, "lng": -79.60375395231131}], "distance": 1254, "postalCode": "M9W 5L1", "cc": "CA", "city": "Toronto", "state": "ON", "country": "Canada", "formattedAddress": ["555 Rexdale Blvd. (at Hwy 27)", "Toronto ON M9W 5L1", "Canada"]}, "categories": [{"id": "4bf58dd8d48988d17c941735", "name": "Casino", "pluralName": "Casinos", "shortName": "Casino", "icon": {"prefix": "https://ss3.4sqi.net/img/categories_v2/arts_entertainment/casino_", "suffix": ".png"}, "primary": true}], "photos": {"count": 0, "groups": []}}, "referralId": "e-0-4bb2db25715eef3b7dc985bb-16"}, {"reasons": {"count": 0, "items": [{"summary": "This spot is popular", "type": "general", "reasonName": "globalInteractionReason"}]}, "venue": {"id": "4dcdab65c65bdac7134dd434", "name": "Sport Chek Woodbine", "location": {"address": "500 Rexdale Blvd.", "crossStreet": "at Hwy 27.", "lat": 43.72051531071165, "lng": -79.59934702623217, "labeledLatLngs": [{"label": "display", "lat": 43.72051531071165, "lng": -79.59934702623217}], "distance": 1590, "postalCode": "M9W 6K5", "cc": "CA", "city": "Toronto", "state": "ON", "country": "Canada", "formattedAddress": ["500 Rexdale Blvd. (at Hwy 27.)", "Toronto ON M9W 6K5", "Canada"]}, "categories": [{"id": "4bf58dd8d48988d1f2941735", "name": "Sporting Goods Shop", "pluralName": "Sporting Goods Shops", "shortName": "Sporting Goods", "icon": {"prefix": "https://ss3.4sqi.net/img/categories_v2/shops/sports_outdoors_", "suffix": ".png"}, "primary": true}], "photos": {"count": 0, "groups": []}}, "referralId": "e-0-4dcdab65c65bdac7134dd434-17"}, {"reasons": {"count": 0, "items": [{"summary": "This spot is popular", "type": "general", "reasonName": "globalInteractionReason"}]}, "venue": {"id": "4cf2eb261c158cfa27b6dab5", "name": "Fantasy Fair", "location": {"address": "500 Rexdale Blvd.", "crossStreet": "Woodbine Centre Mall", "lat": 43.7205001228233, "lng": -79.59981087378002, "labeledLatLngs": [{"label": "display", "lat": 43.7205001228233, "lng": -79.59981087378002}], "distance": 1599, "postalCode": "M9W 6K5", "cc": "CA", "city": "Etobicoke", "state": "ON", "country": "Canada", "formattedAddress": ["500 Rexdale Blvd. (Woodbine Centre Mall)", "Etobicoke ON M9W 6K5", "Canada"]}, "categories": [{"id": "4bf58dd8d48988d182941735", "name": "Theme Park", "pluralName": "Theme Parks", "shortName": "Theme Park", "icon": {"prefix": "https://ss3.4sqi.net/img/categories_v2/arts_entertainment/themepark_", "suffix": ".png"}, "primary": true}], "photos": {"count": 0, "groups": []}}, "referralId": "e-0-4cf2eb261c158cfa27b6dab5-18"}, {"reasons": {"count": 0, "items": [{"summary": "This spot is popular", "type": "general", "reasonName": "globalInteractionReason"}]}, "venue": {"id": "4d0cee3c257d6dcb5eed9867", "name": "Petro-Canada", "location": {"address": "524 Rexdale Blvd", "crossStreet": "at Queens Plate Dr", "lat": 43.719201, "lng": -79.603167, "labeledLatLngs": [{"label": "display", "lat": 43.719201, "lng": -79.603167}], "distance": 1568, "postalCode": "M9W 7J9", "cc": "CA", "city": "Etobicoke", "state": "ON", "country": "Canada", "formattedAddress": ["524 Rexdale Blvd (at Queens Plate Dr)", "Etobicoke ON M9W 7J9", "Canada"]}, "categories": [{"id": "4bf58dd8d48988d113951735", "name": "Gas Station", "pluralName": "Gas Stations", "shortName": "Gas Station", "icon": {"prefix": "https://ss3.4sqi.net/img/categories_v2/shops/gas_", "suffix": ".png"}, "primary": true}], "photos": {"count": 0, "groups": []}}, "referralId": "e-0-4d0cee3c257d6dcb5eed9867-19"}, {"reasons": {"count": 0, "items": [{"summary": "This spot is popular", "type": "general", "reasonName": "globalInteractionReason"}]}, "venue": {"id": "4e5a0243813034cf45e34d83", "name": "Tim Hortons", "location": {"address": "500 Rexdale Blvd, Unit E006", "lat": 43.7208781, "lng": -79.6000618, "labeledLatLngs": [{"label": "display", "lat": 43.7208781, "lng": -79.6000618}], "distance": 1645, "postalCode": "M9W 6K5", "cc": "CA", "city": "Etobicoke", "state": "ON", "country": "Canada", "formattedAddress": ["500 Rexdale Blvd, Unit E006", "Etobicoke ON M9W 6K5", "Canada"]}, "categories": [{"id": "4bf58dd8d48988d1e0931735", "name": "Coffee Shop", "pluralName": "Coffee Shops", "shortName": "Coffee Shop", "icon": {"prefix": "https://ss3.4sqi.net/img/categories_v2/food/coffeeshop_", "suffix": ".png"}, "primary": true}], "photos": {"count": 0, "groups": []}}, "referralId": "e-0-4e5a0243813034cf45e34d83-20"}, {"reasons": {"count": 0, "items": [{"summary": "This spot is popular", "type": "general", "reasonName": "globalInteractionReason"}]}, "venue": {"id": "4bce2e42fb84c9b6db5f233e", "name": "RONA Lansing", "location": {"address": "1170 Martin Grove Road", "crossStreet": "Belfield Rd", "lat": 43.702412816757054, "lng": -79.57754464479876, "labeledLatLngs": [{"label": "display", "lat": 43.702412816757054, "lng": -79.57754464479876}], "distance": 1413, "postalCode": "M9W 4X1", "cc": "CA", "city": "Etobicoke", "state": "ON", "country": "Canada", "formattedAddress": ["1170 Martin Grove Road (Belfield Rd)", "Etobicoke ON M9W 4X1", "Canada"]}, "categories": [{"id": "4bf58dd8d48988d112951735", "name": "Hardware Store", "pluralName": "Hardware Stores", "shortName": "Hardware", "icon": {"prefix": "https://ss3.4sqi.net/img/categories_v2/shops/hardware_", "suffix": ".png"}, "primary": true}], "photos": {"count": 0, "groups": []}}, "referralId": "e-0-4bce2e42fb84c9b6db5f233e-21"}, {"reasons": {"count": 0, "items": [{"summary": "This spot is popular", "type": "general", "reasonName": "globalInteractionReason"}]}, "venue": {"id": "56053717498ecd0d63fd4735", "name": "Pearson Hotel And Conference Center Toronto", "location": {"address": "240 Belfield Road", "lat": 43.70004263112145, "lng": -79.58605863133427, "labeledLatLngs": [{"label": "display", "lat": 43.70004263112145, "lng": -79.58605863133427}], "distance": 985, "postalCode": "M9W 1H3", "cc": "CA", "city": "Toronto", "state": "ON", "country": "Canada", "formattedAddress": ["240 Belfield Road", "Toronto ON M9W 1H3", "Canada"]}, "categories": [{"id": "4bf58dd8d48988d1fa931735", "name": "Hotel", "pluralName": "Hotels", "shortName": "Hotel", "icon": {"prefix": "https://ss3.4sqi.net/img/categories_v2/travel/hotel_", "suffix": ".png"}, "primary": true}], "photos": {"count": 0, "groups": []}}, "referralId": "e-0-56053717498ecd0d63fd4735-22"}, {"reasons": {"count": 0, "items": [{"summary": "This spot is popular", "type": "general", "reasonName": "globalInteractionReason"}]}, "venue": {"id": "4ee6ae870e61681b98595db0", "name": "Domino's Pizza", "location": {"address": "190 Queens Plate Drive", "crossStreet": "at Highway 27", "lat": 43.71932851654464, "lng": -79.5945696656089, "labeledLatLngs": [{"label": "display", "lat": 43.71932851654464, "lng": -79.5945696656089}], "distance": 1401, "postalCode": "M9W 6Y9", "cc": "CA", "city": "Etobicoke", "state": "ON", "country": "Canada", "formattedAddress": ["190 Queens Plate Drive (at Highway 27)", "Etobicoke ON M9W 6Y9", "Canada"]}, "categories": [{"id": "4bf58dd8d48988d1ca941735", "name": "Pizza Place", "pluralName": "Pizza Places", "shortName": "Pizza", "icon": {"prefix": "https://ss3.4sqi.net/img/categories_v2/food/pizza_", "suffix": ".png"}, "primary": true}], "photos": {"count": 0, "groups": []}}, "referralId": "e-0-4ee6ae870e61681b98595db0-23"}, {"reasons": {"count": 0, "items": [{"summary": "This spot is popular", "type": "general", "reasonName": "globalInteractionReason"}]}, "venue": {"id": "58119dc338fa40ad1e6eea98", "name": "FREEWAY AUTO SERVICE & TOWING", "location": {"address": "72 Racine road", "lat": 43.71677469999999, "lng": -79.58203049999997, "labeledLatLngs": [{"label": "display", "lat": 43.71677469999999, "lng": -79.58203049999997}], "distance": 1477, "postalCode": "M9W 2Z4", "cc": "CA", "city": "Etobicoke", "state": "ON", "country": "Canada", "formattedAddress": ["72 Racine road", "Etobicoke ON M9W 2Z4", "Canada"]}, "categories": [{"id": "52f2ab2ebcbc57f1066b8b44", "name": "Auto Garage", "pluralName": "Auto Garages", "shortName": "Auto Garage", "icon": {"prefix": "https://ss3.4sqi.net/img/categories_v2/shops/automotive_", "suffix": ".png"}, "primary": true}], "photos": {"count": 0, "groups": []}, "venuePage": {"id": "356966893"}}, "referralId": "e-0-58119dc338fa40ad1e6eea98-24"}, {"reasons": {"count": 0, "items": [{"summary": "This spot is popular", "type": "general", "reasonName": "globalInteractionReason"}]}, "venue": {"id": "4ced55b23b03f04d4dac33dc", "name": "The Bay", "location": {"address": "500 Rexdale Blvd.", "crossStreet": "in Woodbine Centre", "lat": 43.71961399303382, "lng": -79.59948781763836, "labeledLatLngs": [{"label": "display", "lat": 43.71961399303382, "lng": -79.59948781763836}], "distance": 1497, "cc": "CA", "city": "Toronto", "state": "ON", "country": "Canada", "formattedAddress": ["500 Rexdale Blvd. (in Woodbine Centre)", "Toronto ON", "Canada"]}, "categories": [{"id": "4bf58dd8d48988d1f6941735", "name": "Department Store", "pluralName": "Department Stores", "shortName": "Department Store", "icon": {"prefix": "https://ss3.4sqi.net/img/categories_v2/shops/departmentstore_", "suffix": ".png"}, "primary": true}], "photos": {"count": 0, "groups": []}}, "referralId": "e-0-4ced55b23b03f04d4dac33dc-25"}, {"reasons": {"count": 0, "items": [{"summary": "This spot is popular", "type": "general", "reasonName": "globalInteractionReason"}]}, "venue": {"id": "4bec8337c43f2d7fbd03dcd9", "name": "Hwy 427 at 409", "location": {"address": "Highway 427", "crossStreet": "at Highway 409", "lat": 43.69698288575792, "lng": -79.60701942443848, "labeledLatLngs": [{"label": "display", "lat": 43.69698288575792, "lng": -79.60701942443848}], "distance": 1506, "cc": "CA", "city": "Toronto", "state": "ON", "country": "Canada", "formattedAddress": ["Highway 427 (at Highway 409)", "Toronto ON", "Canada"]}, "categories": [{"id": "52f2ab2ebcbc57f1066b8b4c", "name": "Intersection", "pluralName": "Intersections", "shortName": "Intersection", "icon": {"prefix": "https://ss3.4sqi.net/img/categories_v2/travel/default_", "suffix": ".png"}, "primary": true}], "photos": {"count": 0, "groups": []}}, "referralId": "e-0-4bec8337c43f2d7fbd03dcd9-26"}, {"reasons": {"count": 0, "items": [{"summary": "This spot is popular", "type": "general", "reasonName": "globalInteractionReason"}]}, "venue": {"id": "4ce56696b31737045df1a9f6", "name": "Charleys Philly Steaks", "location": {"address": "500 Rexdale Blvd.", "lat": 43.719954, "lng": -79.600632, "labeledLatLngs": [{"label": "display", "lat": 43.719954, "lng": -79.600632}], "distance": 1562, "cc": "CA", "city": "Toronto", "state": "ON", "country": "Canada", "formattedAddress": ["500 Rexdale Blvd.", "Toronto ON", "Canada"]}, "categories": [{"id": "4bf58dd8d48988d1c5941735", "name": "Sandwich Place", "pluralName": "Sandwich Places", "shortName": "Sandwiches", "icon": {"prefix": "https://ss3.4sqi.net/img/categories_v2/food/deli_", "suffix": ".png"}, "primary": true}], "photos": {"count": 0, "groups": []}}, "referralId": "e-0-4ce56696b31737045df1a9f6-27"}, {"reasons": {"count": 0, "items": [{"summary": "This spot is popular", "type": "general", "reasonName": "globalInteractionReason"}]}, "venue": {"id": "4d8771fd651041bdc24d9b30", "name": "New York Fries", "location": {"address": "500 Rexdale Boulevard", "crossStreet": "in Woodbine Centre", "lat": 43.719974482790754, "lng": -79.60081526794808, "labeledLatLngs": [{"label": "display", "lat": 43.719974482790754, "lng": -79.60081526794808}], "distance": 1569, "postalCode": "M9W 6K5", "cc": "CA", "city": "Etobicoke", "state": "ON", "country": "Canada", "formattedAddress": ["500 Rexdale Boulevard (in Woodbine Centre)", "Etobicoke ON M9W 6K5", "Canada"]}, "categories": [{"id": "4bf58dd8d48988d16e941735", "name": "Fast Food Restaurant", "pluralName": "Fast Food Restaurants", "shortName": "Fast Food", "icon": {"prefix": "https://ss3.4sqi.net/img/categories_v2/food/fastfood_", "suffix": ".png"}, "primary": true}], "photos": {"count": 0, "groups": []}}, "referralId": "e-0-4d8771fd651041bdc24d9b30-28"}, {"reasons": {"count": 0, "items": [{"summary": "This spot is popular", "type": "general", "reasonName": "globalInteractionReason"}]}, "venue": {"id": "4d011b386923721e3a57c83b", "name": "Zaza Shawarma", "location": {"lat": 43.71999400756607, "lng": -79.6008262385307, "labeledLatLngs": [{"label": "display", "lat": 43.71999400756607, "lng": -79.6008262385307}], "distance": 1571, "cc": "CA", "city": "Toronto", "state": "ON", "country": "Canada", "formattedAddress": ["Toronto ON", "Canada"]}, "categories": [{"id": "4bf58dd8d48988d102941735", "name": "Yoga Studio", "pluralName": "Yoga Studios", "shortName": "Yoga Studio", "icon": {"prefix": "https://ss3.4sqi.net/img/categories_v2/shops/gym_yogastudio_", "suffix": ".png"}, "primary": true}], "photos": {"count": 0, "groups": []}}, "referralId": "e-0-4d011b386923721e3a57c83b-29"}, {"reasons": {"count": 0, "items": [{"summary": "This spot is popular", "type": "general", "reasonName": "globalInteractionReason"}]}, "venue": {"id": "55dc6273498eea1c592572ef", "name": "Up Express On Board", "location": {"lat": 43.70514694686316, "lng": -79.61349637357856, "labeledLatLngs": [{"label": "display", "lat": 43.70514694686316, "lng": -79.61349637357856}], "distance": 1574, "cc": "CA", "country": "Canada", "formattedAddress": ["Canada"]}, "categories": [{"id": "4f2a23984b9023bd5841ed2c", "name": "Moving Target", "pluralName": "Moving Targets", "shortName": "Moving Target", "icon": {"prefix": "https://ss3.4sqi.net/img/categories_v2/travel/movingtarget_", "suffix": ".png"}, "primary": true}], "photos": {"count": 0, "groups": []}}, "referralId": "e-0-55dc6273498eea1c592572ef-30"}, {"reasons": {"count": 0, "items": [{"summary": "This spot is popular", "type": "general", "reasonName": "globalInteractionReason"}]}, "venue": {"id": "4dc8014e45dd264552adb1bf", "name": "Dollarama", "location": {"address": "500 Rexdale Blvd.,Woodbine Plaza", "lat": 43.720259, "lng": -79.600361, "labeledLatLngs": [{"label": "display", "lat": 43.720259, "lng": -79.600361}], "distance": 1587, "postalCode": "M9W 6K5", "cc": "CA", "city": "Etobicoke", "state": "ON", "country": "Canada", "formattedAddress": ["500 Rexdale Blvd.,Woodbine Plaza", "Etobicoke ON M9W 6K5", "Canada"]}, "categories": [{"id": "52dea92d3cf9994f4e043dbb", "name": "Discount Store", "pluralName": "Discount Stores", "shortName": "Discount Store", "icon": {"prefix": "https://ss3.4sqi.net/img/categories_v2/shops/discountstore_", "suffix": ".png"}, "primary": true}], "photos": {"count": 0, "groups": []}}, "referralId": "e-0-4dc8014e45dd264552adb1bf-31"}, {"reasons": {"count": 0, "items": [{"summary": "This spot is popular", "type": "general", "reasonName": "globalInteractionReason"}]}, "venue": {"id": "4c7d1f42ad90224b150f8c0c", "name": "GameStop", "location": {"address": "500 Rexdale Blvd", "crossStreet": "at Woodbine Centre", "lat": 43.72028410635611, "lng": -79.60054648825862, "labeledLatLngs": [{"label": "display", "lat": 43.72028410635611, "lng": -79.60054648825862}], "distance": 1594, "postalCode": "M9W 6K5", "cc": "CA", "city": "Etobicoke", "state": "ON", "country": "Canada", "formattedAddress": ["500 Rexdale Blvd (at Woodbine Centre)", "Etobicoke ON M9W 6K5", "Canada"]}, "categories": [{"id": "4bf58dd8d48988d10b951735", "name": "Video Game Store", "pluralName": "Video Game Stores", "shortName": "Video Games", "icon": {"prefix": "https://ss3.4sqi.net/img/categories_v2/shops/videogames_", "suffix": ".png"}, "primary": true}], "photos": {"count": 0, "groups": []}}, "referralId": "e-0-4c7d1f42ad90224b150f8c0c-32"}]}]}}